{
  "generatedAt": "2026-01-25T08:32:00.254Z",
  "query": "이마트",
  "tag": "emart",
  "count": 3803,
  "stores": [
    {
      "id": "kakao:440682035",
      "name": "1등복권방 이마트24녹동점",
      "type": "mart",
      "tags": [
        "mart",
        "emart"
      ],
      "lat": 34.5288016305657,
      "lng": 127.138464428188,
      "address": "전남 고흥군 도양읍 봉암리 2699-255",
      "roadAddress": "전남 고흥군 도양읍 녹동남촌1길 13",
      "phone": "061-842-4400",
      "placeUrl": "http://place.map.kakao.com/440682035",
      "source": "kakao",
      "kakaoId": "440682035"
    },
    {
      "id": "kakao:17469774",
      "name": "강릉이마트공인중개사사무소",
      "type": "mart",
      "tags": [
        "mart",
        "emart"
      ],
      "lat": 37.77168838777559,
      "lng": 128.92170467147463,
      "address": "강원특별자치도 강릉시 송정동 821-20",
      "roadAddress": "강원특별자치도 강릉시 경강로 2389",
      "phone": "033-651-7114",
      "placeUrl": "http://place.map.kakao.com/17469774",
      "source": "kakao",
      "kakaoId": "17469774"
    },
    {
      "id": "kakao:21247848",
      "name": "고흥식자재이마트",
      "type": "mart",
      "tags": [
        "mart",
        "emart"
      ],
      "lat": 34.606389956793244,
      "lng": 127.28921770529472,
      "address": "전남 고흥군 고흥읍 남계리 716",
      "roadAddress": "전남 고흥군 고흥읍 봉동주공길 18",
      "phone": "061-834-2377",
      "placeUrl": "http://place.map.kakao.com/21247848",
      "source": "kakao",
      "kakaoId": "21247848"
    },
    {
      "id": "kakao:8747410",
      "name": "고흥이마트 정육코너",
      "type": "mart",
      "tags": [
        "mart",
        "emart"
      ],
      "lat": 34.606420584751,
      "lng": 127.289226533352,
      "address": "전남 고흥군 고흥읍 남계리 716",
      "roadAddress": "전남 고흥군 고흥읍 봉동주공길 18",
      "phone": "",
      "placeUrl": "http://place.map.kakao.com/8747410",
      "source": "kakao",
      "kakaoId": "8747410"
    },
    {
      "id": "kakao:1448935397",
      "name": "골프존 파크 점봉이마트물류",
      "type": "mart",
      "tags": [
        "mart",
        "emart"
      ],
      "lat": 37.2628698593004,
      "lng": 127.63082947307,
      "address": "경기 여주시 점봉동 495-2",
      "roadAddress": "경기 여주시 웅골로 125",
      "phone": "031-885-0755",
      "placeUrl": "http://place.map.kakao.com/1448935397",
      "source": "kakao",
      "kakaoId": "1448935397"
    },
    {
      "id": "kakao:1525498821",
      "name": "골프존파크 증포이마트점",
      "type": "mart",
      "tags": [
        "mart",
        "emart"
      ],
      "lat": 37.2975102585944,
      "lng": 127.458414177179,
      "address": "경기 이천시 증포동 22-1",
      "roadAddress": "경기 이천시 이섭대천로 1458",
      "phone": "031-633-0611",
      "placeUrl": "http://place.map.kakao.com/1525498821",
      "source": "kakao",
      "kakaoId": "1525498821"
    },
    {
      "id": "kakao:17351112",
      "name": "공구이마트",
      "type": "mart",
      "tags": [
        "mart",
        "emart"
      ],
      "lat": 33.492083172139,
      "lng": 126.510572562442,
      "address": "제주특별자치도 제주시 오라이동 2171-1",
      "roadAddress": "제주특별자치도 제주시 사평2길 9",
      "phone": "064-702-0982",
      "placeUrl": "http://place.map.kakao.com/17351112",
      "source": "kakao",
      "kakaoId": "17351112"
    },
    {
      "id": "kakao:26495398",
      "name": "공차 김포구래점",
      "type": "mart",
      "tags": [
        "mart",
        "emart"
      ],
      "lat": 37.6443293406478,
      "lng": 126.628286742257,
      "address": "경기 김포시 구래동 6880-9",
      "roadAddress": "경기 김포시 김포한강7로 71",
      "phone": "031-996-6439",
      "placeUrl": "http://place.map.kakao.com/26495398",
      "source": "kakao",
      "kakaoId": "26495398"
    },
    {
      "id": "kakao:716339901",
      "name": "공차 이마트신제주점",
      "type": "mart",
      "tags": [
        "mart",
        "emart"
      ],
      "lat": 33.4849641040689,
      "lng": 126.480429702153,
      "address": "제주특별자치도 제주시 노형동 919",
      "roadAddress": "제주특별자치도 제주시 1100로 3348",
      "phone": "064-743-0782",
      "placeUrl": "http://place.map.kakao.com/716339901",
      "source": "kakao",
      "kakaoId": "716339901"
    },
    {
      "id": "kakao:500106652",
      "name": "공차 이마트통영점",
      "type": "mart",
      "tags": [
        "mart",
        "emart"
      ],
      "lat": 34.8871280142986,
      "lng": 128.417925160577,
      "address": "경남 통영시 광도면 죽림리 1566-2",
      "roadAddress": "경남 통영시 광도면 죽림4로 9",
      "phone": "055-645-4578",
      "placeUrl": "http://place.map.kakao.com/500106652",
      "source": "kakao",
      "kakaoId": "500106652"
    },
    {
      "id": "kakao:10157444",
      "name": "과역이마트",
      "type": "mart",
      "tags": [
        "mart",
        "emart"
      ],
      "lat": 34.6783965672793,
      "lng": 127.361428547108,
      "address": "전남 고흥군 과역면 과역리 71-20",
      "roadAddress": "전남 고흥군 과역면 고흥로 2973",
      "phone": "061-832-9586",
      "placeUrl": "http://place.map.kakao.com/10157444",
      "source": "kakao",
      "kakaoId": "10157444"
    },
    {
      "id": "kakao:357276691",
      "name": "구름빵 이마트강릉점",
      "type": "mart",
      "tags": [
        "mart",
        "emart"
      ],
      "lat": 37.770627507078,
      "lng": 128.922734880108,
      "address": "강원특별자치도 강릉시 송정동 1008-7",
      "roadAddress": "강원특별자치도 강릉시 경강로 2398-10",
      "phone": "",
      "placeUrl": "http://place.map.kakao.com/357276691",
      "source": "kakao",
      "kakaoId": "357276691"
    },
    {
      "id": "kakao:2123471505",
      "name": "구름빵 이마트김포한강점",
      "type": "mart",
      "tags": [
        "mart",
        "emart"
      ],
      "lat": 37.6443506210378,
      "lng": 126.628177861022,
      "address": "경기 김포시 구래동 6880-9",
      "roadAddress": "경기 김포시 김포한강7로 71",
      "phone": "",
      "placeUrl": "http://place.map.kakao.com/2123471505",
      "source": "kakao",
      "kakaoId": "2123471505"
    },
    {
      "id": "kakao:13550277",
      "name": "구미이마트약국",
      "type": "mart",
      "tags": [
        "mart",
        "emart"
      ],
      "lat": 36.1094793436001,
      "lng": 128.364854693592,
      "address": "경북 구미시 광평동 65-1",
      "roadAddress": "경북 구미시 구미대로 256",
      "phone": "054-462-4153",
      "placeUrl": "http://place.map.kakao.com/13550277",
      "source": "kakao",
      "kakaoId": "13550277"
    },
    {
      "id": "kakao:2070248180",
      "name": "국대떡볶이 이마트남원점",
      "type": "mart",
      "tags": [
        "mart",
        "emart"
      ],
      "lat": 35.407660424486004,
      "lng": 127.37478756348202,
      "address": "전북특별자치도 남원시 왕정동 146-1",
      "roadAddress": "전북특별자치도 남원시 남문로 385-16",
      "phone": "063-625-9199",
      "placeUrl": "http://place.map.kakao.com/2070248180",
      "source": "kakao",
      "kakaoId": "2070248180"
    },
    {
      "id": "kakao:883334652",
      "name": "국대떡볶이 이마트충주점",
      "type": "mart",
      "tags": [
        "mart",
        "emart"
      ],
      "lat": 36.9722232781911,
      "lng": 127.92376991134,
      "address": "충북 충주시 문화동 1024",
      "roadAddress": "충북 충주시 중원대로 3420",
      "phone": "043-852-0778",
      "placeUrl": "http://place.map.kakao.com/883334652",
      "source": "kakao",
      "kakaoId": "883334652"
    },
    {
      "id": "kakao:19715155",
      "name": "그릇나라",
      "type": "mart",
      "tags": [
        "mart",
        "emart"
      ],
      "lat": 34.8082039306555,
      "lng": 126.428746282017,
      "address": "전남 목포시 옥암동 970-8",
      "roadAddress": "전남 목포시 백년대로 389",
      "phone": "",
      "placeUrl": "http://place.map.kakao.com/19715155",
      "source": "kakao",
      "kakaoId": "19715155"
    },
    {
      "id": "kakao:1296152494",
      "name": "그린조이 제천이마트점",
      "type": "mart",
      "tags": [
        "mart",
        "emart"
      ],
      "lat": 37.1234983843853,
      "lng": 128.22299074392,
      "address": "충북 제천시 강제동 684",
      "roadAddress": "충북 제천시 장평천로 11",
      "phone": "043-646-3322",
      "placeUrl": "http://place.map.kakao.com/1296152494",
      "source": "kakao",
      "kakaoId": "1296152494"
    },
    {
      "id": "kakao:26455597",
      "name": "김포도담약국",
      "type": "mart",
      "tags": [
        "mart",
        "emart"
      ],
      "lat": 37.64434471060217,
      "lng": 126.62830366178902,
      "address": "경기 김포시 구래동 6880-9",
      "roadAddress": "경기 김포시 김포한강7로 71",
      "phone": "031-987-5936",
      "placeUrl": "http://place.map.kakao.com/26455597",
      "source": "kakao",
      "kakaoId": "26455597"
    },
    {
      "id": "kakao:951918635",
      "name": "나이스파크 이마트에브리데이 춘천석사점 주차장",
      "type": "mart",
      "tags": [
        "mart",
        "emart"
      ],
      "lat": 37.852650650275656,
      "lng": 127.74538682827554,
      "address": "강원특별자치도 춘천시 석사동 885-1",
      "roadAddress": "강원특별자치도 춘천시 영서로 2027",
      "phone": "",
      "placeUrl": "http://place.map.kakao.com/951918635",
      "source": "kakao",
      "kakaoId": "951918635"
    },
    {
      "id": "kakao:1084847200",
      "name": "나이스파크 이마트에브리데이보령점 주차장",
      "type": "mart",
      "tags": [
        "mart",
        "emart"
      ],
      "lat": 36.3436702565469,
      "lng": 126.601452940021,
      "address": "충남 보령시 명천동 468-21",
      "roadAddress": "충남 보령시 명천중앙길 14",
      "phone": "",
      "placeUrl": "http://place.map.kakao.com/1084847200",
      "source": "kakao",
      "kakaoId": "1084847200"
    },
    {
      "id": "kakao:1861540827",
      "name": "난타이마트",
      "type": "mart",
      "tags": [
        "mart",
        "emart"
      ],
      "lat": 34.4906146292158,
      "lng": 126.515263192345,
      "address": "전남 해남군 화산면 방축리 389-14",
      "roadAddress": "전남 해남군 화산면 해남화산로 1070-1",
      "phone": "",
      "placeUrl": "http://place.map.kakao.com/1861540827",
      "source": "kakao",
      "kakaoId": "1861540827"
    },
    {
      "id": "kakao:15956334",
      "name": "남양이마트",
      "type": "mart",
      "tags": [
        "mart",
        "emart"
      ],
      "lat": 36.97370398061985,
      "lng": 126.74618382954492,
      "address": "충남 당진시 송악읍 고대리 194-1510",
      "roadAddress": "충남 당진시 송악읍 정곡로 606",
      "phone": "",
      "placeUrl": "http://place.map.kakao.com/15956334",
      "source": "kakao",
      "kakaoId": "15956334"
    },
    {
      "id": "kakao:27477728",
      "name": "네이처리퍼블릭 이마트군산점",
      "type": "mart",
      "tags": [
        "mart",
        "emart"
      ],
      "lat": 35.98294634932048,
      "lng": 126.73499908057232,
      "address": "전북특별자치도 군산시 경암동 590-296",
      "roadAddress": "전북특별자치도 군산시 구암3.1로 137",
      "phone": "063-442-7017",
      "placeUrl": "http://place.map.kakao.com/27477728",
      "source": "kakao",
      "kakaoId": "27477728"
    },
    {
      "id": "kakao:27477587",
      "name": "네이처리퍼블릭 이마트마산점",
      "type": "mart",
      "tags": [
        "mart",
        "emart"
      ],
      "lat": 35.19799962146533,
      "lng": 128.5699010348286,
      "address": "경남 창원시 마산합포구 중앙동3가 4-1",
      "roadAddress": "경남 창원시 마산합포구 서성로 3",
      "phone": "055-221-4651",
      "placeUrl": "http://place.map.kakao.com/27477587",
      "source": "kakao",
      "kakaoId": "27477587"
    },
    {
      "id": "kakao:27477736",
      "name": "네이처리퍼블릭 이마트보령점",
      "type": "mart",
      "tags": [
        "mart",
        "emart"
      ],
      "lat": 36.34401510683916,
      "lng": 126.58867836963458,
      "address": "충남 보령시 궁촌동 340-1",
      "roadAddress": "충남 보령시 해안로 25",
      "phone": "041-931-6787",
      "placeUrl": "http://place.map.kakao.com/27477736",
      "source": "kakao",
      "kakaoId": "27477736"
    },
    {
      "id": "kakao:372227712",
      "name": "네이처리퍼블릭 이마트신제주점",
      "type": "mart",
      "tags": [
        "mart",
        "emart"
      ],
      "lat": 33.4852096246089,
      "lng": 126.480347754012,
      "address": "제주특별자치도 제주시 노형동 919",
      "roadAddress": "제주특별자치도 제주시 1100로 3348",
      "phone": "064-711-0343",
      "placeUrl": "http://place.map.kakao.com/372227712",
      "source": "kakao",
      "kakaoId": "372227712"
    },
    {
      "id": "kakao:27477586",
      "name": "네이처리퍼블릭 이마트진주점",
      "type": "mart",
      "tags": [
        "mart",
        "emart"
      ],
      "lat": 35.1916218244869,
      "lng": 128.077408849595,
      "address": "경남 진주시 인사동 3",
      "roadAddress": "경남 진주시 진양호로 477",
      "phone": "055-741-8954",
      "placeUrl": "http://place.map.kakao.com/27477586",
      "source": "kakao",
      "kakaoId": "27477586"
    },
    {
      "id": "kakao:231981267",
      "name": "네이처리퍼블릭 이마트충주점",
      "type": "mart",
      "tags": [
        "mart",
        "emart"
      ],
      "lat": 36.972222324128566,
      "lng": 127.92379988388247,
      "address": "충북 충주시 문화동 1024",
      "roadAddress": "충북 충주시 중원대로 3420",
      "phone": "043-851-9285",
      "placeUrl": "http://place.map.kakao.com/231981267",
      "source": "kakao",
      "kakaoId": "231981267"
    },
    {
      "id": "kakao:1681745817",
      "name": "노브랜드 구미진평점",
      "type": "mart",
      "tags": [
        "mart",
        "emart"
      ],
      "lat": 36.0933610055139,
      "lng": 128.432068939349,
      "address": "경북 구미시 진평동 85-2",
      "roadAddress": "경북 구미시 인동36길 14-1",
      "phone": "02-380-5111",
      "placeUrl": "http://place.map.kakao.com/1681745817",
      "source": "kakao",
      "kakaoId": "1681745817"
    },
    {
      "id": "kakao:481052949",
      "name": "노브랜드 김천율곡점",
      "type": "mart",
      "tags": [
        "mart",
        "emart"
      ],
      "lat": 36.1217264600188,
      "lng": 128.181504823422,
      "address": "경북 김천시 율곡동 359",
      "roadAddress": "경북 김천시 혁신로 242",
      "phone": "02-380-5111",
      "placeUrl": "http://place.map.kakao.com/481052949",
      "source": "kakao",
      "kakaoId": "481052949"
    },
    {
      "id": "kakao:1932342907",
      "name": "노브랜드 당진원당점",
      "type": "mart",
      "tags": [
        "mart",
        "emart"
      ],
      "lat": 36.905064584762975,
      "lng": 126.64256226473884,
      "address": "충남 당진시 원당동 851",
      "roadAddress": "충남 당진시 원당로 42",
      "phone": "02-380-5111",
      "placeUrl": "http://place.map.kakao.com/1932342907",
      "source": "kakao",
      "kakaoId": "1932342907"
    },
    {
      "id": "kakao:455227043",
      "name": "노브랜드 대전가수원점",
      "type": "mart",
      "tags": [
        "mart",
        "emart"
      ],
      "lat": 36.306652749052255,
      "lng": 127.35319856443454,
      "address": "대전 서구 도안동 2048",
      "roadAddress": "대전 서구 도안동로12번길 9",
      "phone": "02-380-5111",
      "placeUrl": "http://place.map.kakao.com/455227043",
      "source": "kakao",
      "kakaoId": "455227043"
    },
    {
      "id": "kakao:331334453",
      "name": "노브랜드 서산예천점",
      "type": "mart",
      "tags": [
        "mart",
        "emart"
      ],
      "lat": 36.7685381761734,
      "lng": 126.452050008966,
      "address": "충남 서산시 예천동 121",
      "roadAddress": "충남 서산시 남부순환로 1035",
      "phone": "02-380-5111",
      "placeUrl": "http://place.map.kakao.com/331334453",
      "source": "kakao",
      "kakaoId": "331334453"
    },
    {
      "id": "kakao:1908241327",
      "name": "노브랜드 세종아름점",
      "type": "mart",
      "tags": [
        "mart",
        "emart"
      ],
      "lat": 36.512137477953814,
      "lng": 127.24293683260068,
      "address": "세종특별자치시 아름동 1317",
      "roadAddress": "세종특별자치시 보듬3로 150",
      "phone": "02-380-5111",
      "placeUrl": "http://place.map.kakao.com/1908241327",
      "source": "kakao",
      "kakaoId": "1908241327"
    },
    {
      "id": "kakao:2048204535",
      "name": "노브랜드 세종조치원점",
      "type": "mart",
      "tags": [
        "mart",
        "emart"
      ],
      "lat": 36.590798409607096,
      "lng": 127.29205299627449,
      "address": "세종특별자치시 조치원읍 죽림리 114-1",
      "roadAddress": "세종특별자치시 조치원읍 세종로 2282",
      "phone": "02-380-5111",
      "placeUrl": "http://place.map.kakao.com/2048204535",
      "source": "kakao",
      "kakaoId": "2048204535"
    },
    {
      "id": "kakao:2097715042",
      "name": "노브랜드 양주덕정점",
      "type": "mart",
      "tags": [
        "mart",
        "emart"
      ],
      "lat": 37.84111737519843,
      "lng": 127.06470341823442,
      "address": "경기 양주시 덕정동 162",
      "roadAddress": "경기 양주시 화합로1402번길 9",
      "phone": "02-380-5111",
      "placeUrl": "http://place.map.kakao.com/2097715042",
      "source": "kakao",
      "kakaoId": "2097715042"
    },
    {
      "id": "kakao:2117744958",
      "name": "노브랜드 양주옥정점",
      "type": "mart",
      "tags": [
        "mart",
        "emart"
      ],
      "lat": 37.81948984406281,
      "lng": 127.09422773343718,
      "address": "경기 양주시 옥정동 967-4",
      "roadAddress": "경기 양주시 옥정동로7가길 44",
      "phone": "02-380-5111",
      "placeUrl": "http://place.map.kakao.com/2117744958",
      "source": "kakao",
      "kakaoId": "2117744958"
    },
    {
      "id": "kakao:1335911014",
      "name": "노브랜드 예천호명점",
      "type": "mart",
      "tags": [
        "mart",
        "emart"
      ],
      "lat": 36.57805404091128,
      "lng": 128.48078838666342,
      "address": "경북 예천군 호명읍 산합리 1381",
      "roadAddress": "경북 예천군 호명읍 양지로 14",
      "phone": "054-655-6654",
      "placeUrl": "http://place.map.kakao.com/1335911014",
      "source": "kakao",
      "kakaoId": "1335911014"
    },
    {
      "id": "kakao:865134707",
      "name": "노브랜드 용인삼가점",
      "type": "mart",
      "tags": [
        "mart",
        "emart"
      ],
      "lat": 37.2388812517543,
      "lng": 127.1742710288222,
      "address": "경기 용인시 처인구 삼가동 250-49",
      "roadAddress": "경기 용인시 처인구 중부대로 1162",
      "phone": "02-380-5111",
      "placeUrl": "http://place.map.kakao.com/865134707",
      "source": "kakao",
      "kakaoId": "865134707"
    },
    {
      "id": "kakao:193350247",
      "name": "노브랜드 이천안흥점",
      "type": "mart",
      "tags": [
        "mart",
        "emart"
      ],
      "lat": 37.2808246916671,
      "lng": 127.454984287018,
      "address": "경기 이천시 안흥동 353-6",
      "roadAddress": "경기 이천시 영창로 290",
      "phone": "02-380-5111",
      "placeUrl": "http://place.map.kakao.com/193350247",
      "source": "kakao",
      "kakaoId": "193350247"
    },
    {
      "id": "kakao:252710411",
      "name": "노브랜드 익산부송점",
      "type": "mart",
      "tags": [
        "mart",
        "emart"
      ],
      "lat": 35.9599466545652,
      "lng": 126.994683472551,
      "address": "전북특별자치도 익산시 부송동 257-48",
      "roadAddress": "전북특별자치도 익산시 무왕로 1242",
      "phone": "02-380-5111",
      "placeUrl": "http://place.map.kakao.com/252710411",
      "source": "kakao",
      "kakaoId": "252710411"
    },
    {
      "id": "kakao:2108562081",
      "name": "노브랜드 진주충무공점",
      "type": "mart",
      "tags": [
        "mart",
        "emart"
      ],
      "lat": 35.16947540311878,
      "lng": 128.13182254048155,
      "address": "경남 진주시 충무공동 83-5",
      "roadAddress": "경남 진주시 범골로60번길 10",
      "phone": "02-380-5111",
      "placeUrl": "http://place.map.kakao.com/2108562081",
      "source": "kakao",
      "kakaoId": "2108562081"
    },
    {
      "id": "kakao:1779250619",
      "name": "노브랜드 충주중앙탑점",
      "type": "mart",
      "tags": [
        "mart",
        "emart"
      ],
      "lat": 37.01662930742689,
      "lng": 127.82463325070586,
      "address": "충북 충주시 중앙탑면 용전리 670",
      "roadAddress": "충북 충주시 중앙탑면 기업도시로 222",
      "phone": "02-380-5111",
      "placeUrl": "http://place.map.kakao.com/1779250619",
      "source": "kakao",
      "kakaoId": "1779250619"
    },
    {
      "id": "kakao:1861993013",
      "name": "노브랜드 파주목동동점",
      "type": "mart",
      "tags": [
        "mart",
        "emart"
      ],
      "lat": 37.7190140892868,
      "lng": 126.737238389224,
      "address": "경기 파주시 목동동 1136-1",
      "roadAddress": "경기 파주시 심학산로423번길 7-25",
      "phone": "02-380-5111",
      "placeUrl": "http://place.map.kakao.com/1861993013",
      "source": "kakao",
      "kakaoId": "1861993013"
    },
    {
      "id": "kakao:1994032733",
      "name": "노브랜드 홍성남장점",
      "type": "mart",
      "tags": [
        "mart",
        "emart"
      ],
      "lat": 36.58688369640958,
      "lng": 126.66537995820923,
      "address": "충남 홍성군 홍성읍 남장리 580",
      "roadAddress": "충남 홍성군 홍성읍 남장중로 51",
      "phone": "02-380-5111",
      "placeUrl": "http://place.map.kakao.com/1994032733",
      "source": "kakao",
      "kakaoId": "1994032733"
    },
    {
      "id": "kakao:1781930520",
      "name": "노브랜드 홍성홍북점",
      "type": "mart",
      "tags": [
        "mart",
        "emart"
      ],
      "lat": 36.656876721171805,
      "lng": 126.67914948471132,
      "address": "충남 홍성군 홍북읍 신경리 587",
      "roadAddress": "충남 홍성군 홍북읍 청사로 146",
      "phone": "02-380-5111",
      "placeUrl": "http://place.map.kakao.com/1781930520",
      "source": "kakao",
      "kakaoId": "1781930520"
    },
    {
      "id": "kakao:2072539599",
      "name": "노브랜드 화성남양점",
      "type": "mart",
      "tags": [
        "mart",
        "emart"
      ],
      "lat": 37.1987718464355,
      "lng": 126.825621846337,
      "address": "경기 화성시 남양읍 남양리 2319-4",
      "roadAddress": "경기 화성시 남양읍 시청로160번길 46",
      "phone": "02-380-5111",
      "placeUrl": "http://place.map.kakao.com/2072539599",
      "source": "kakao",
      "kakaoId": "2072539599"
    },
    {
      "id": "kakao:27266656",
      "name": "뉴욕버거 동해점",
      "type": "mart",
      "tags": [
        "mart",
        "emart"
      ],
      "lat": 37.5239208528351,
      "lng": 129.117063045987,
      "address": "강원특별자치도 동해시 천곡동 831",
      "roadAddress": "강원특별자치도 동해시 천곡로 100",
      "phone": "033-532-7454",
      "placeUrl": "http://place.map.kakao.com/27266656",
      "source": "kakao",
      "kakaoId": "27266656"
    },
    {
      "id": "kakao:26876478",
      "name": "뉴욕버거 안동점",
      "type": "mart",
      "tags": [
        "mart",
        "emart"
      ],
      "lat": 36.55844689513274,
      "lng": 128.69903421445593,
      "address": "경북 안동시 옥동 796-1",
      "roadAddress": "경북 안동시 옥동1길 2",
      "phone": "054-855-0097",
      "placeUrl": "http://place.map.kakao.com/26876478",
      "source": "kakao",
      "kakaoId": "26876478"
    },
    {
      "id": "kakao:27390862",
      "name": "뉴욕버거 여주점",
      "type": "mart",
      "tags": [
        "mart",
        "emart"
      ],
      "lat": 37.28425776748448,
      "lng": 127.6356662479184,
      "address": "경기 여주시 홍문동 401",
      "roadAddress": "경기 여주시 세종로 151",
      "phone": "",
      "placeUrl": "http://place.map.kakao.com/27390862",
      "source": "kakao",
      "kakaoId": "27390862"
    },
    {
      "id": "kakao:27390883",
      "name": "뉴욕버거 제천점",
      "type": "mart",
      "tags": [
        "mart",
        "emart"
      ],
      "lat": 37.123232934629044,
      "lng": 128.2226950468182,
      "address": "충북 제천시 강제동 684",
      "roadAddress": "충북 제천시 장평천로 11",
      "phone": "043-651-7051",
      "placeUrl": "http://place.map.kakao.com/27390883",
      "source": "kakao",
      "kakaoId": "27390883"
    },
    {
      "id": "kakao:27390773",
      "name": "뉴욕버거 통영점",
      "type": "mart",
      "tags": [
        "mart",
        "emart"
      ],
      "lat": 34.8871343429831,
      "lng": 128.418000742578,
      "address": "경남 통영시 광도면 죽림리 1566-2",
      "roadAddress": "경남 통영시 광도면 죽림4로 9",
      "phone": "070-8806-7272",
      "placeUrl": "http://place.map.kakao.com/27390773",
      "source": "kakao",
      "kakaoId": "27390773"
    },
    {
      "id": "kakao:178666866",
      "name": "늘푸른약국",
      "type": "mart",
      "tags": [
        "mart",
        "emart"
      ],
      "lat": 37.7706000996137,
      "lng": 128.92264792204,
      "address": "강원특별자치도 강릉시 송정동 1008-7",
      "roadAddress": "강원특별자치도 강릉시 경강로 2398-10",
      "phone": "033-651-6617",
      "placeUrl": "http://place.map.kakao.com/178666866",
      "source": "kakao",
      "kakaoId": "178666866"
    },
    {
      "id": "kakao:591630658",
      "name": "닉스",
      "type": "mart",
      "tags": [
        "mart",
        "emart"
      ],
      "lat": 38.1910438775038,
      "lng": 128.595764080415,
      "address": "강원특별자치도 속초시 청호동 459-134",
      "roadAddress": "강원특별자치도 속초시 설악금강대교로 12",
      "phone": "",
      "placeUrl": "http://place.map.kakao.com/591630658",
      "source": "kakao",
      "kakaoId": "591630658"
    },
    {
      "id": "kakao:1594217492",
      "name": "다비치안경 서귀포이마트옆점",
      "type": "mart",
      "tags": [
        "mart",
        "emart"
      ],
      "lat": 33.24899353774034,
      "lng": 126.5073231735118,
      "address": "제주특별자치도 서귀포시 강정동 231-2",
      "roadAddress": "제주특별자치도 서귀포시 월드컵로 8",
      "phone": "064-739-8055",
      "placeUrl": "http://place.map.kakao.com/1594217492",
      "source": "kakao",
      "kakaoId": "1594217492"
    },
    {
      "id": "kakao:197186633",
      "name": "다이소 이마트 충주점",
      "type": "mart",
      "tags": [
        "mart",
        "emart"
      ],
      "lat": 36.9721042803444,
      "lng": 127.92377745708,
      "address": "충북 충주시 문화동 1024",
      "roadAddress": "충북 충주시 중원대로 3420",
      "phone": "1522-4400",
      "placeUrl": "http://place.map.kakao.com/197186633",
      "source": "kakao",
      "kakaoId": "197186633"
    },
    {
      "id": "kakao:677988917",
      "name": "다이소 이마트 트레이더스구월점",
      "type": "mart",
      "tags": [
        "mart",
        "emart"
      ],
      "lat": 37.4396233971314,
      "lng": 126.707884001422,
      "address": "인천 남동구 구월동 1549",
      "roadAddress": "인천 남동구 매소홀로 759",
      "phone": "1522-4400",
      "placeUrl": "http://place.map.kakao.com/677988917",
      "source": "kakao",
      "kakaoId": "677988917"
    },
    {
      "id": "kakao:1393894894",
      "name": "다이소 이마트보령점",
      "type": "mart",
      "tags": [
        "mart",
        "emart"
      ],
      "lat": 36.3440116778492,
      "lng": 126.588650873265,
      "address": "충남 보령시 궁촌동 340-1",
      "roadAddress": "충남 보령시 해안로 25",
      "phone": "1522-4400",
      "placeUrl": "http://place.map.kakao.com/1393894894",
      "source": "kakao",
      "kakaoId": "1393894894"
    },
    {
      "id": "kakao:980011349",
      "name": "다이소 이마트서산점",
      "type": "mart",
      "tags": [
        "mart",
        "emart"
      ],
      "lat": 36.7883762724672,
      "lng": 126.478780061179,
      "address": "충남 서산시 잠홍동 463",
      "roadAddress": "충남 서산시 서해로 3685",
      "phone": "1522-4400",
      "placeUrl": "http://place.map.kakao.com/980011349",
      "source": "kakao",
      "kakaoId": "980011349"
    },
    {
      "id": "kakao:791488563",
      "name": "단성임이마트",
      "type": "mart",
      "tags": [
        "mart",
        "emart"
      ],
      "lat": 35.2965791659372,
      "lng": 127.957654722372,
      "address": "경남 산청군 단성면 성내리 81-1",
      "roadAddress": "경남 산청군 단성면 목화로 960",
      "phone": "010-9506-0055",
      "placeUrl": "http://place.map.kakao.com/791488563",
      "source": "kakao",
      "kakaoId": "791488563"
    },
    {
      "id": "kakao:1937424953",
      "name": "더나은의원",
      "type": "mart",
      "tags": [
        "mart",
        "emart"
      ],
      "lat": 34.8871343429831,
      "lng": 128.418000742578,
      "address": "경남 통영시 광도면 죽림리 1566-2",
      "roadAddress": "경남 통영시 광도면 죽림4로 9",
      "phone": "055-646-8080",
      "placeUrl": "http://place.map.kakao.com/1937424953",
      "source": "kakao",
      "kakaoId": "1937424953"
    },
    {
      "id": "kakao:75293446",
      "name": "더카페 동해이마트점",
      "type": "mart",
      "tags": [
        "mart",
        "emart"
      ],
      "lat": 37.5239196364233,
      "lng": 129.117130874963,
      "address": "강원특별자치도 동해시 천곡동 831",
      "roadAddress": "강원특별자치도 동해시 천곡로 100",
      "phone": "",
      "placeUrl": "http://place.map.kakao.com/75293446",
      "source": "kakao",
      "kakaoId": "75293446"
    },
    {
      "id": "kakao:21345720",
      "name": "더카페 속초이마트점",
      "type": "mart",
      "tags": [
        "mart",
        "emart"
      ],
      "lat": 38.1909295736737,
      "lng": 128.596088023831,
      "address": "강원특별자치도 속초시 청호동 459-134",
      "roadAddress": "강원특별자치도 속초시 설악금강대교로 12",
      "phone": "033-637-2343",
      "placeUrl": "http://place.map.kakao.com/21345720",
      "source": "kakao",
      "kakaoId": "21345720"
    },
    {
      "id": "kakao:18035329",
      "name": "더카페 영천이마트점",
      "type": "mart",
      "tags": [
        "mart",
        "emart"
      ],
      "lat": 35.9585801773992,
      "lng": 128.90998840122,
      "address": "경북 영천시 오수동 330",
      "roadAddress": "경북 영천시 최무선로 83",
      "phone": "054-331-7666",
      "placeUrl": "http://place.map.kakao.com/18035329",
      "source": "kakao",
      "kakaoId": "18035329"
    },
    {
      "id": "kakao:26775458",
      "name": "더카페 제천이마트점",
      "type": "mart",
      "tags": [
        "mart",
        "emart"
      ],
      "lat": 37.1234196660304,
      "lng": 128.222935467736,
      "address": "충북 제천시 강제동 684",
      "roadAddress": "충북 제천시 장평천로 11",
      "phone": "043-642-1490",
      "placeUrl": "http://place.map.kakao.com/26775458",
      "source": "kakao",
      "kakaoId": "26775458"
    },
    {
      "id": "kakao:15798022",
      "name": "더카페 충주이마트점",
      "type": "mart",
      "tags": [
        "mart",
        "emart"
      ],
      "lat": 36.972154664736,
      "lng": 127.923787050031,
      "address": "충북 충주시 문화동 1024",
      "roadAddress": "충북 충주시 중원대로 3420",
      "phone": "043-855-7938",
      "placeUrl": "http://place.map.kakao.com/15798022",
      "source": "kakao",
      "kakaoId": "15798022"
    },
    {
      "id": "kakao:17184525",
      "name": "더페이스샵 이마트구미점",
      "type": "mart",
      "tags": [
        "mart",
        "emart"
      ],
      "lat": 36.10945396607934,
      "lng": 128.36455107878407,
      "address": "경북 구미시 광평동 65-1",
      "roadAddress": "경북 구미시 구미대로 256",
      "phone": "054-462-0448",
      "placeUrl": "http://place.map.kakao.com/17184525",
      "source": "kakao",
      "kakaoId": "17184525"
    },
    {
      "id": "kakao:17697233",
      "name": "더페이스샵 이마트김천점",
      "type": "mart",
      "tags": [
        "mart",
        "emart"
      ],
      "lat": 36.1349464869979,
      "lng": 128.11698073332798,
      "address": "경북 김천시 신음동 990-1",
      "roadAddress": "경북 김천시 시청로 75",
      "phone": "054-436-8364",
      "placeUrl": "http://place.map.kakao.com/17697233",
      "source": "kakao",
      "kakaoId": "17697233"
    },
    {
      "id": "kakao:26854988",
      "name": "더페이스샵 이마트김포한강점",
      "type": "mart",
      "tags": [
        "mart",
        "emart"
      ],
      "lat": 37.64434015222817,
      "lng": 126.62828668838168,
      "address": "경기 김포시 구래동 6880-9",
      "roadAddress": "경기 김포시 김포한강7로 71",
      "phone": "",
      "placeUrl": "http://place.map.kakao.com/26854988",
      "source": "kakao",
      "kakaoId": "26854988"
    },
    {
      "id": "kakao:17697496",
      "name": "더페이스샵 이마트남원점",
      "type": "mart",
      "tags": [
        "mart",
        "emart"
      ],
      "lat": 35.40772294165753,
      "lng": 127.37497280630716,
      "address": "전북특별자치도 남원시 왕정동 146-1",
      "roadAddress": "전북특별자치도 남원시 남문로 385-16",
      "phone": "063-633-9401",
      "placeUrl": "http://place.map.kakao.com/17697496",
      "source": "kakao",
      "kakaoId": "17697496"
    },
    {
      "id": "kakao:17697046",
      "name": "더페이스샵 이마트동해점",
      "type": "mart",
      "tags": [
        "mart",
        "emart"
      ],
      "lat": 37.523987834390645,
      "lng": 129.1170954781153,
      "address": "강원특별자치도 동해시 천곡동 831",
      "roadAddress": "강원특별자치도 동해시 천곡로 100",
      "phone": "033-533-6495",
      "placeUrl": "http://place.map.kakao.com/17697046",
      "source": "kakao",
      "kakaoId": "17697046"
    },
    {
      "id": "kakao:17697302",
      "name": "더페이스샵 이마트마산점",
      "type": "mart",
      "tags": [
        "mart",
        "emart"
      ],
      "lat": 35.1979688309621,
      "lng": 128.56989857575,
      "address": "경남 창원시 마산합포구 중앙동3가 4-1",
      "roadAddress": "경남 창원시 마산합포구 서성로 3",
      "phone": "055-243-6219",
      "placeUrl": "http://place.map.kakao.com/17697302",
      "source": "kakao",
      "kakaoId": "17697302"
    },
    {
      "id": "kakao:17697485",
      "name": "더페이스샵 이마트목포점",
      "type": "mart",
      "tags": [
        "mart",
        "emart"
      ],
      "lat": 34.8116412514906,
      "lng": 126.425172774777,
      "address": "전남 목포시 옥암동 915-25",
      "roadAddress": "전남 목포시 옥암로 138",
      "phone": "061-284-5110",
      "placeUrl": "http://place.map.kakao.com/17697485",
      "source": "kakao",
      "kakaoId": "17697485"
    },
    {
      "id": "kakao:17697136",
      "name": "더페이스샵 이마트보령점",
      "type": "mart",
      "tags": [
        "mart",
        "emart"
      ],
      "lat": 36.34422466126601,
      "lng": 126.58821642792805,
      "address": "충남 보령시 궁촌동 340-1",
      "roadAddress": "충남 보령시 해안로 25",
      "phone": "041-933-2229",
      "placeUrl": "http://place.map.kakao.com/17697136",
      "source": "kakao",
      "kakaoId": "17697136"
    },
    {
      "id": "kakao:17697243",
      "name": "더페이스샵 이마트상주점",
      "type": "mart",
      "tags": [
        "mart",
        "emart"
      ],
      "lat": 36.4278714147456,
      "lng": 128.151171922773,
      "address": "경북 상주시 만산동 693-29",
      "roadAddress": "경북 상주시 경상대로 3141",
      "phone": "054-533-2797",
      "placeUrl": "http://place.map.kakao.com/17697243",
      "source": "kakao",
      "kakaoId": "17697243"
    },
    {
      "id": "kakao:17697544",
      "name": "더페이스샵 이마트서귀포점",
      "type": "mart",
      "tags": [
        "mart",
        "emart"
      ],
      "lat": 33.248487033376804,
      "lng": 126.50920064492416,
      "address": "제주특별자치도 서귀포시 법환동 841-2",
      "roadAddress": "제주특별자치도 서귀포시 일주동로 9209",
      "phone": "064-739-6917",
      "placeUrl": "http://place.map.kakao.com/17697544",
      "source": "kakao",
      "kakaoId": "17697544"
    },
    {
      "id": "kakao:17697050",
      "name": "더페이스샵 이마트속초점",
      "type": "mart",
      "tags": [
        "mart",
        "emart"
      ],
      "lat": 38.1911457025403,
      "lng": 128.595827938055,
      "address": "강원특별자치도 속초시 청호동 459-134",
      "roadAddress": "강원특별자치도 속초시 설악금강대교로 12",
      "phone": "033-631-5816",
      "placeUrl": "http://place.map.kakao.com/17697050",
      "source": "kakao",
      "kakaoId": "17697050"
    },
    {
      "id": "kakao:17697542",
      "name": "더페이스샵 이마트신제주점",
      "type": "mart",
      "tags": [
        "mart",
        "emart"
      ],
      "lat": 33.48496410406892,
      "lng": 126.4804297021531,
      "address": "제주특별자치도 제주시 노형동 919",
      "roadAddress": "제주특별자치도 제주시 1100로 3348",
      "phone": "064-745-0972",
      "placeUrl": "http://place.map.kakao.com/17697542",
      "source": "kakao",
      "kakaoId": "17697542"
    },
    {
      "id": "kakao:22045445",
      "name": "더페이스샵 이마트안동점",
      "type": "mart",
      "tags": [
        "mart",
        "emart"
      ],
      "lat": 36.5584530649526,
      "lng": 128.6992018813593,
      "address": "경북 안동시 옥동 796-1",
      "roadAddress": "경북 안동시 옥동1길 2",
      "phone": "054-841-5906",
      "placeUrl": "http://place.map.kakao.com/22045445",
      "source": "kakao",
      "kakaoId": "22045445"
    },
    {
      "id": "kakao:17696897",
      "name": "더페이스샵 이마트여주점",
      "type": "mart",
      "tags": [
        "mart",
        "emart"
      ],
      "lat": 37.284226958443,
      "lng": 127.635698690358,
      "address": "경기 여주시 홍문동 402",
      "roadAddress": "경기 여주시 세종로 151",
      "phone": "031-886-9971",
      "placeUrl": "http://place.map.kakao.com/17696897",
      "source": "kakao",
      "kakaoId": "17696897"
    },
    {
      "id": "kakao:17697234",
      "name": "더페이스샵 이마트영천점",
      "type": "mart",
      "tags": [
        "mart",
        "emart"
      ],
      "lat": 35.95839752834837,
      "lng": 128.9103109561792,
      "address": "경북 영천시 오수동 286",
      "roadAddress": "경북 영천시 최무선로 83",
      "phone": "054-336-5971",
      "placeUrl": "http://place.map.kakao.com/17697234",
      "source": "kakao",
      "kakaoId": "17697234"
    },
    {
      "id": "kakao:17697125",
      "name": "더페이스샵 이마트제천점",
      "type": "mart",
      "tags": [
        "mart",
        "emart"
      ],
      "lat": 37.123402498812695,
      "lng": 128.22302745783776,
      "address": "충북 제천시 강제동 684",
      "roadAddress": "충북 제천시 장평천로 11",
      "phone": "043-651-1006",
      "placeUrl": "http://place.map.kakao.com/17697125",
      "source": "kakao",
      "kakaoId": "17697125"
    },
    {
      "id": "kakao:24941428",
      "name": "더페이스샵 이마트진주점",
      "type": "mart",
      "tags": [
        "mart",
        "emart"
      ],
      "lat": 35.1916149274833,
      "lng": 128.077373624702,
      "address": "경남 진주시 인사동 3",
      "roadAddress": "경남 진주시 진양호로 477",
      "phone": "055-741-3462",
      "placeUrl": "http://place.map.kakao.com/24941428",
      "source": "kakao",
      "kakaoId": "24941428"
    },
    {
      "id": "kakao:17697114",
      "name": "더페이스샵 이마트충주점",
      "type": "mart",
      "tags": [
        "mart",
        "emart"
      ],
      "lat": 36.9721657909043,
      "lng": 127.923746756572,
      "address": "충북 충주시 문화동 1024",
      "roadAddress": "충북 충주시 중원대로 3420",
      "phone": "043-857-7689",
      "placeUrl": "http://place.map.kakao.com/17697114",
      "source": "kakao",
      "kakaoId": "17697114"
    },
    {
      "id": "kakao:17697047",
      "name": "더페이스샵 이마트태백점",
      "type": "mart",
      "tags": [
        "mart",
        "emart"
      ],
      "lat": 37.2000571609007,
      "lng": 128.961784488671,
      "address": "강원특별자치도 태백시 화전동 113",
      "roadAddress": "강원특별자치도 태백시 굴거랑길 4",
      "phone": "033-553-5384",
      "placeUrl": "http://place.map.kakao.com/17697047",
      "source": "kakao",
      "kakaoId": "17697047"
    },
    {
      "id": "kakao:17697287",
      "name": "더페이스샵 이마트통영점",
      "type": "mart",
      "tags": [
        "mart",
        "emart"
      ],
      "lat": 34.88717353310339,
      "lng": 128.41804079333133,
      "address": "경남 통영시 광도면 죽림리 1566-2",
      "roadAddress": "경남 통영시 광도면 죽림4로 9",
      "phone": "055-648-2080",
      "placeUrl": "http://place.map.kakao.com/17697287",
      "source": "kakao",
      "kakaoId": "17697287"
    },
    {
      "id": "kakao:8326743",
      "name": "도양이마트",
      "type": "mart",
      "tags": [
        "mart",
        "emart"
      ],
      "lat": 34.5269226843341,
      "lng": 127.140323849553,
      "address": "전남 고흥군 도양읍 봉암리 3154",
      "roadAddress": "전남 고흥군 도양읍 우주항공로 33",
      "phone": "061-844-2756",
      "placeUrl": "http://place.map.kakao.com/8326743",
      "source": "kakao",
      "kakaoId": "8326743"
    },
    {
      "id": "kakao:1115921726",
      "name": "동구미이마트약국",
      "type": "mart",
      "tags": [
        "mart",
        "emart"
      ],
      "lat": 36.1063286559773,
      "lng": 128.40417803851,
      "address": "경북 구미시 임수동 92-28",
      "roadAddress": "경북 구미시 이계북로 23",
      "phone": "054-472-2772",
      "placeUrl": "http://place.map.kakao.com/1115921726",
      "source": "kakao",
      "kakaoId": "1115921726"
    },
    {
      "id": "kakao:15145073",
      "name": "동백이마트사거리",
      "type": "mart",
      "tags": [
        "mart",
        "emart"
      ],
      "lat": 37.279323449646,
      "lng": 127.152169969776,
      "address": "경기 용인시 기흥구 중동",
      "roadAddress": "",
      "phone": "",
      "placeUrl": "http://place.map.kakao.com/15145073",
      "source": "kakao",
      "kakaoId": "15145073"
    },
    {
      "id": "kakao:1161411768",
      "name": "두쏠아이 속초이마트점",
      "type": "mart",
      "tags": [
        "mart",
        "emart"
      ],
      "lat": 38.1910457096266,
      "lng": 128.595761837613,
      "address": "강원특별자치도 속초시 청호동 459-134",
      "roadAddress": "강원특별자치도 속초시 설악금강대교로 12",
      "phone": "033-638-2221",
      "placeUrl": "http://place.map.kakao.com/1161411768",
      "source": "kakao",
      "kakaoId": "1161411768"
    },
    {
      "id": "kakao:1064792074",
      "name": "두쏠아이 이마트 남원점",
      "type": "mart",
      "tags": [
        "mart",
        "emart"
      ],
      "lat": 35.40774984408189,
      "lng": 127.3750169674526,
      "address": "전북특별자치도 남원시 왕정동 146-1",
      "roadAddress": "전북특별자치도 남원시 남문로 385-16",
      "phone": "063-636-1159",
      "placeUrl": "http://place.map.kakao.com/1064792074",
      "source": "kakao",
      "kakaoId": "1064792074"
    },
    {
      "id": "kakao:926589868",
      "name": "두쏠아이 이마트 충주점",
      "type": "mart",
      "tags": [
        "mart",
        "emart"
      ],
      "lat": 36.9721810374846,
      "lng": 127.923755924828,
      "address": "충북 충주시 문화동 1024",
      "roadAddress": "충북 충주시 중원대로 3420",
      "phone": "043-845-0705",
      "placeUrl": "http://place.map.kakao.com/926589868",
      "source": "kakao",
      "kakaoId": "926589868"
    },
    {
      "id": "kakao:1520199655",
      "name": "디저트카페 모두롱태백점",
      "type": "mart",
      "tags": [
        "mart",
        "emart"
      ],
      "lat": 37.2001927721161,
      "lng": 128.961864583072,
      "address": "강원특별자치도 태백시 화전동 113",
      "roadAddress": "강원특별자치도 태백시 굴거랑길 4",
      "phone": "",
      "placeUrl": "http://place.map.kakao.com/1520199655",
      "source": "kakao",
      "kakaoId": "1520199655"
    },
    {
      "id": "kakao:25000937",
      "name": "똑똑블럭 이마트여주점",
      "type": "mart",
      "tags": [
        "mart",
        "emart"
      ],
      "lat": 37.28429937622902,
      "lng": 127.6356361515798,
      "address": "경기 여주시 홍문동 401",
      "roadAddress": "경기 여주시 세종로 151",
      "phone": "031-885-5390",
      "placeUrl": "http://place.map.kakao.com/25000937",
      "source": "kakao",
      "kakaoId": "25000937"
    },
    {
      "id": "kakao:666740245",
      "name": "똑똑블럭 이마트진주점",
      "type": "mart",
      "tags": [
        "mart",
        "emart"
      ],
      "lat": 35.1917105269088,
      "lng": 128.077164083629,
      "address": "경남 진주시 인사동 3",
      "roadAddress": "경남 진주시 진양호로 477",
      "phone": "055-747-0970",
      "placeUrl": "http://place.map.kakao.com/666740245",
      "source": "kakao",
      "kakaoId": "666740245"
    },
    {
      "id": "kakao:20341284",
      "name": "레드페이스 E마트서귀포점",
      "type": "mart",
      "tags": [
        "mart",
        "emart"
      ],
      "lat": 33.2483397325111,
      "lng": 126.509115623912,
      "address": "제주특별자치도 서귀포시 법환동 841-2",
      "roadAddress": "제주특별자치도 서귀포시 일주동로 9209",
      "phone": "064-738-7208",
      "placeUrl": "http://place.map.kakao.com/20341284",
      "source": "kakao",
      "kakaoId": "20341284"
    },
    {
      "id": "kakao:269329691",
      "name": "롯데렌터카 진주이마트지점",
      "type": "mart",
      "tags": [
        "mart",
        "emart"
      ],
      "lat": 35.1915965519539,
      "lng": 128.077412907649,
      "address": "경남 진주시 인사동 3",
      "roadAddress": "경남 진주시 진양호로 477",
      "phone": "055-753-8000",
      "placeUrl": "http://place.map.kakao.com/269329691",
      "source": "kakao",
      "kakaoId": "269329691"
    },
    {
      "id": "kakao:359168408",
      "name": "루미가넷 김포한강점",
      "type": "mart",
      "tags": [
        "mart",
        "emart"
      ],
      "lat": 37.6443392512631,
      "lng": 126.628286692871,
      "address": "경기 김포시 구래동 6880-9",
      "roadAddress": "경기 김포시 김포한강7로 71",
      "phone": "010-2616-1747",
      "placeUrl": "http://place.map.kakao.com/359168408",
      "source": "kakao",
      "kakaoId": "359168408"
    },
    {
      "id": "kakao:17932521",
      "name": "루미가넷네일존 이마트진주점",
      "type": "mart",
      "tags": [
        "mart",
        "emart"
      ],
      "lat": 35.1916594740407,
      "lng": 128.077229285699,
      "address": "경남 진주시 인사동 3",
      "roadAddress": "경남 진주시 진양호로 477",
      "phone": "070-7012-9292",
      "placeUrl": "http://place.map.kakao.com/17932521",
      "source": "kakao",
      "kakaoId": "17932521"
    },
    {
      "id": "kakao:17932557",
      "name": "루미가넷네일존 이마트충주점",
      "type": "mart",
      "tags": [
        "mart",
        "emart"
      ],
      "lat": 36.9721618375401,
      "lng": 127.923791628717,
      "address": "충북 충주시 문화동 1024",
      "roadAddress": "충북 충주시 중원대로 3420",
      "phone": "070-4940-2109",
      "placeUrl": "http://place.map.kakao.com/17932557",
      "source": "kakao",
      "kakaoId": "17932557"
    },
    {
      "id": "kakao:19879113",
      "name": "르까프 이마트서귀포점",
      "type": "mart",
      "tags": [
        "mart",
        "emart"
      ],
      "lat": 33.2483292520072,
      "lng": 126.50920152686,
      "address": "제주특별자치도 서귀포시 법환동 841-2",
      "roadAddress": "제주특별자치도 서귀포시 일주동로 9209",
      "phone": "064-738-4803",
      "placeUrl": "http://place.map.kakao.com/19879113",
      "source": "kakao",
      "kakaoId": "19879113"
    },
    {
      "id": "kakao:22842121",
      "name": "르까프 이마트제천점",
      "type": "mart",
      "tags": [
        "mart",
        "emart"
      ],
      "lat": 37.1234088093103,
      "lng": 128.22293979385,
      "address": "충북 제천시 강제동 684",
      "roadAddress": "충북 제천시 장평천로 11",
      "phone": "043-645-7755",
      "placeUrl": "http://place.map.kakao.com/22842121",
      "source": "kakao",
      "kakaoId": "22842121"
    },
    {
      "id": "kakao:503814333",
      "name": "리틀킹 이마트속초점",
      "type": "mart",
      "tags": [
        "mart",
        "emart"
      ],
      "lat": 38.1910403993967,
      "lng": 128.595754873358,
      "address": "강원특별자치도 속초시 청호동 459-134",
      "roadAddress": "강원특별자치도 속초시 설악금강대교로 12",
      "phone": "033-630-1223",
      "placeUrl": "http://place.map.kakao.com/503814333",
      "source": "kakao",
      "kakaoId": "503814333"
    },
    {
      "id": "kakao:13555264",
      "name": "마트약국",
      "type": "mart",
      "tags": [
        "mart",
        "emart"
      ],
      "lat": 33.51812338073927,
      "lng": 126.52060523839846,
      "address": "제주특별자치도 제주시 삼도이동 1259",
      "roadAddress": "제주특별자치도 제주시 탑동로 38",
      "phone": "064-722-7044",
      "placeUrl": "http://place.map.kakao.com/13555264",
      "source": "kakao",
      "kakaoId": "13555264"
    },
    {
      "id": "kakao:110961048",
      "name": "마트온누리약국",
      "type": "mart",
      "tags": [
        "mart",
        "emart"
      ],
      "lat": 37.2842559594723,
      "lng": 127.635667360356,
      "address": "경기 여주시 홍문동 401",
      "roadAddress": "경기 여주시 세종로 151",
      "phone": "031-886-0816",
      "placeUrl": "http://place.map.kakao.com/110961048",
      "source": "kakao",
      "kakaoId": "110961048"
    },
    {
      "id": "kakao:1169646691",
      "name": "메가MGC커피 속초이마트사거리점",
      "type": "mart",
      "tags": [
        "mart",
        "emart"
      ],
      "lat": 38.190219788413316,
      "lng": 128.59449285920462,
      "address": "강원특별자치도 속초시 조양동 1034-4",
      "roadAddress": "강원특별자치도 속초시 동해대로 4024",
      "phone": "033-633-5008",
      "placeUrl": "http://place.map.kakao.com/1169646691",
      "source": "kakao",
      "kakaoId": "1169646691"
    },
    {
      "id": "kakao:21272062",
      "name": "모두투어 이마트 충주점 힐링투어",
      "type": "mart",
      "tags": [
        "mart",
        "emart"
      ],
      "lat": 36.9718668788032,
      "lng": 127.923716192122,
      "address": "충북 충주시 문화동 1024",
      "roadAddress": "충북 충주시 중원대로 3420",
      "phone": "043-846-1311",
      "placeUrl": "http://place.map.kakao.com/21272062",
      "source": "kakao",
      "kakaoId": "21272062"
    },
    {
      "id": "kakao:27149605",
      "name": "모두투어 이마트여주점",
      "type": "mart",
      "tags": [
        "mart",
        "emart"
      ],
      "lat": 37.2842525735292,
      "lng": 127.635626736795,
      "address": "경기 여주시 홍문동 402",
      "roadAddress": "경기 여주시 세종로 151",
      "phone": "031-884-2688",
      "placeUrl": "http://place.map.kakao.com/27149605",
      "source": "kakao",
      "kakaoId": "27149605"
    },
    {
      "id": "kakao:2064891757",
      "name": "모음집",
      "type": "mart",
      "tags": [
        "mart",
        "emart"
      ],
      "lat": 35.191604045291385,
      "lng": 128.08081988915077,
      "address": "경남 진주시 본성동 12-16",
      "roadAddress": "경남 진주시 남강로633번길 10-1",
      "phone": "0503-7152-5428",
      "placeUrl": "http://place.map.kakao.com/2064891757",
      "source": "kakao",
      "kakaoId": "2064891757"
    },
    {
      "id": "kakao:9340220",
      "name": "목포이마트안경원",
      "type": "mart",
      "tags": [
        "mart",
        "emart"
      ],
      "lat": 34.8116412514906,
      "lng": 126.425172774777,
      "address": "전남 목포시 옥암동 915-25",
      "roadAddress": "전남 목포시 옥암로 138",
      "phone": "061-284-8111",
      "placeUrl": "http://place.map.kakao.com/9340220",
      "source": "kakao",
      "kakaoId": "9340220"
    },
    {
      "id": "kakao:164505956",
      "name": "무인민원발급창구 이마트 마산점",
      "type": "mart",
      "tags": [
        "mart",
        "emart"
      ],
      "lat": 35.1978851974527,
      "lng": 128.569954059228,
      "address": "경남 창원시 마산합포구 중앙동3가 4-1",
      "roadAddress": "경남 창원시 마산합포구 서성로 3",
      "phone": "",
      "placeUrl": "http://place.map.kakao.com/164505956",
      "source": "kakao",
      "kakaoId": "164505956"
    },
    {
      "id": "kakao:1623492852",
      "name": "무인민원발급창구 이마트 안동점",
      "type": "mart",
      "tags": [
        "mart",
        "emart"
      ],
      "lat": 36.558609420293,
      "lng": 128.699168448942,
      "address": "경북 안동시 옥동 796-1",
      "roadAddress": "경북 안동시 옥동1길 2",
      "phone": "",
      "placeUrl": "http://place.map.kakao.com/1623492852",
      "source": "kakao",
      "kakaoId": "1623492852"
    },
    {
      "id": "kakao:1407157073",
      "name": "미샤 이마트강릉미샤점",
      "type": "mart",
      "tags": [
        "mart",
        "emart"
      ],
      "lat": 37.7704490451502,
      "lng": 128.922630391298,
      "address": "강원특별자치도 강릉시 송정동 1008-7",
      "roadAddress": "강원특별자치도 강릉시 경강로 2398-10",
      "phone": "070-7719-0899",
      "placeUrl": "http://place.map.kakao.com/1407157073",
      "source": "kakao",
      "kakaoId": "1407157073"
    },
    {
      "id": "kakao:17788851",
      "name": "미샤 이마트군산점",
      "type": "mart",
      "tags": [
        "mart",
        "emart"
      ],
      "lat": 35.9829276505778,
      "lng": 126.734979516424,
      "address": "전북특별자치도 군산시 경암동 590-296",
      "roadAddress": "전북특별자치도 군산시 구암3.1로 137",
      "phone": "070-7720-2811",
      "placeUrl": "http://place.map.kakao.com/17788851",
      "source": "kakao",
      "kakaoId": "17788851"
    },
    {
      "id": "kakao:12152529",
      "name": "미샤 이마트목포점",
      "type": "mart",
      "tags": [
        "mart",
        "emart"
      ],
      "lat": 34.811627015485534,
      "lng": 126.42521221854764,
      "address": "전남 목포시 옥암동 915-25",
      "roadAddress": "전남 목포시 옥암로 138",
      "phone": "070-7720-2795",
      "placeUrl": "http://place.map.kakao.com/12152529",
      "source": "kakao",
      "kakaoId": "12152529"
    },
    {
      "id": "kakao:11739739",
      "name": "미샤 이마트양주점",
      "type": "mart",
      "tags": [
        "mart",
        "emart"
      ],
      "lat": 37.8417642813189,
      "lng": 127.053928129031,
      "address": "경기 양주시 회정동 98",
      "roadAddress": "경기 양주시 평화로 1713",
      "phone": "070-7719-1405",
      "placeUrl": "http://place.map.kakao.com/11739739",
      "source": "kakao",
      "kakaoId": "11739739"
    },
    {
      "id": "kakao:1183638986",
      "name": "미샤플러스 이마트 상주점",
      "type": "mart",
      "tags": [
        "mart",
        "emart"
      ],
      "lat": 36.4277684482831,
      "lng": 128.15100983083,
      "address": "경북 상주시 만산동 693-29",
      "roadAddress": "경북 상주시 경상대로 3141",
      "phone": "070-4209-5209",
      "placeUrl": "http://place.map.kakao.com/1183638986",
      "source": "kakao",
      "kakaoId": "1183638986"
    },
    {
      "id": "kakao:26870376",
      "name": "미샤플러스 이마트김포한강점",
      "type": "mart",
      "tags": [
        "mart",
        "emart"
      ],
      "lat": 37.644338336018,
      "lng": 126.62828216513321,
      "address": "경기 김포시 구래동 6880-9",
      "roadAddress": "경기 김포시 김포한강7로 71",
      "phone": "070-7719-1038",
      "placeUrl": "http://place.map.kakao.com/26870376",
      "source": "kakao",
      "kakaoId": "26870376"
    },
    {
      "id": "kakao:11739754",
      "name": "미샤플러스 이마트안동점",
      "type": "mart",
      "tags": [
        "mart",
        "emart"
      ],
      "lat": 36.5584936587999,
      "lng": 128.699388172411,
      "address": "경북 안동시 옥동 800-3",
      "roadAddress": "경북 안동시 옥동1길 2",
      "phone": "070-7720-2069",
      "placeUrl": "http://place.map.kakao.com/11739754",
      "source": "kakao",
      "kakaoId": "11739754"
    },
    {
      "id": "kakao:1875485902",
      "name": "미샤플러스 이마트진주점",
      "type": "mart",
      "tags": [
        "mart",
        "emart"
      ],
      "lat": 35.1915965519539,
      "lng": 128.077412907649,
      "address": "경남 진주시 인사동 3",
      "roadAddress": "경남 진주시 진양호로 477",
      "phone": "070-4944-1561",
      "placeUrl": "http://place.map.kakao.com/1875485902",
      "source": "kakao",
      "kakaoId": "1875485902"
    },
    {
      "id": "kakao:244872137",
      "name": "미샤플러스 이마트충주점",
      "type": "mart",
      "tags": [
        "mart",
        "emart"
      ],
      "lat": 36.9721403191273,
      "lng": 127.923777892661,
      "address": "충북 충주시 문화동 1024",
      "roadAddress": "충북 충주시 중원대로 3420",
      "phone": "070-7707-2191",
      "placeUrl": "http://place.map.kakao.com/244872137",
      "source": "kakao",
      "kakaoId": "244872137"
    },
    {
      "id": "kakao:25589812",
      "name": "미스미스터 이마트제천점",
      "type": "mart",
      "tags": [
        "mart",
        "emart"
      ],
      "lat": 37.1232308018811,
      "lng": 128.223076454114,
      "address": "충북 제천시 강제동 684",
      "roadAddress": "충북 제천시 장평천로 11",
      "phone": "",
      "placeUrl": "http://place.map.kakao.com/25589812",
      "source": "kakao",
      "kakaoId": "25589812"
    },
    {
      "id": "kakao:1108098581",
      "name": "민팃ATM 이마트김천점",
      "type": "mart",
      "tags": [
        "mart",
        "emart"
      ],
      "lat": 36.1349307760263,
      "lng": 128.116829424885,
      "address": "경북 김천시 신음동 990-1",
      "roadAddress": "경북 김천시 시청로 75",
      "phone": "",
      "placeUrl": "http://place.map.kakao.com/1108098581",
      "source": "kakao",
      "kakaoId": "1108098581"
    },
    {
      "id": "kakao:1107865215",
      "name": "민팃ATM 이마트남원점",
      "type": "mart",
      "tags": [
        "mart",
        "emart"
      ],
      "lat": 35.4076509604607,
      "lng": 127.374932840082,
      "address": "전북특별자치도 남원시 왕정동 146-1",
      "roadAddress": "전북특별자치도 남원시 남문로 385-16",
      "phone": "",
      "placeUrl": "http://place.map.kakao.com/1107865215",
      "source": "kakao",
      "kakaoId": "1107865215"
    },
    {
      "id": "kakao:1107750450",
      "name": "민팃ATM 이마트동해점",
      "type": "mart",
      "tags": [
        "mart",
        "emart"
      ],
      "lat": 37.5239196364233,
      "lng": 129.117130874963,
      "address": "강원특별자치도 동해시 천곡동 831",
      "roadAddress": "강원특별자치도 동해시 천곡로 100",
      "phone": "",
      "placeUrl": "http://place.map.kakao.com/1107750450",
      "source": "kakao",
      "kakaoId": "1107750450"
    },
    {
      "id": "kakao:1108767886",
      "name": "민팃ATM 이마트마산점",
      "type": "mart",
      "tags": [
        "mart",
        "emart"
      ],
      "lat": 35.1978851974527,
      "lng": 128.569954059228,
      "address": "경남 창원시 마산합포구 중앙동3가 4-1",
      "roadAddress": "경남 창원시 마산합포구 서성로 3",
      "phone": "",
      "placeUrl": "http://place.map.kakao.com/1108767886",
      "source": "kakao",
      "kakaoId": "1108767886"
    },
    {
      "id": "kakao:1108096705",
      "name": "민팃ATM 이마트사천점",
      "type": "mart",
      "tags": [
        "mart",
        "emart"
      ],
      "lat": 34.9507158171463,
      "lng": 128.077189600408,
      "address": "경남 사천시 좌룡동 388-10",
      "roadAddress": "경남 사천시 삼천포대교로 591",
      "phone": "",
      "placeUrl": "http://place.map.kakao.com/1108096705",
      "source": "kakao",
      "kakaoId": "1108096705"
    },
    {
      "id": "kakao:1108756463",
      "name": "민팃ATM 이마트상주점",
      "type": "mart",
      "tags": [
        "mart",
        "emart"
      ],
      "lat": 36.4277684482831,
      "lng": 128.15100983083,
      "address": "경북 상주시 만산동 693-29",
      "roadAddress": "경북 상주시 경상대로 3141",
      "phone": "",
      "placeUrl": "http://place.map.kakao.com/1108756463",
      "source": "kakao",
      "kakaoId": "1108756463"
    },
    {
      "id": "kakao:1109416962",
      "name": "민팃ATM 이마트서귀포점",
      "type": "mart",
      "tags": [
        "mart",
        "emart"
      ],
      "lat": 33.2483397325111,
      "lng": 126.509115623912,
      "address": "제주특별자치도 서귀포시 법환동 841-2",
      "roadAddress": "제주특별자치도 서귀포시 일주동로 9209",
      "phone": "",
      "placeUrl": "http://place.map.kakao.com/1109416962",
      "source": "kakao",
      "kakaoId": "1109416962"
    },
    {
      "id": "kakao:1108323542",
      "name": "민팃ATM 이마트속초점",
      "type": "mart",
      "tags": [
        "mart",
        "emart"
      ],
      "lat": 38.1910457096266,
      "lng": 128.595761837613,
      "address": "강원특별자치도 속초시 청호동 459-134",
      "roadAddress": "강원특별자치도 속초시 설악금강대교로 12",
      "phone": "",
      "placeUrl": "http://place.map.kakao.com/1108323542",
      "source": "kakao",
      "kakaoId": "1108323542"
    },
    {
      "id": "kakao:1108755243",
      "name": "민팃ATM 이마트안동점",
      "type": "mart",
      "tags": [
        "mart",
        "emart"
      ],
      "lat": 36.557555374678,
      "lng": 128.699220193207,
      "address": "경북 안동시 옥동 800",
      "roadAddress": "경북 안동시 옥서로 44",
      "phone": "",
      "placeUrl": "http://place.map.kakao.com/1108755243",
      "source": "kakao",
      "kakaoId": "1108755243"
    },
    {
      "id": "kakao:1108716645",
      "name": "민팃ATM 이마트영천점",
      "type": "mart",
      "tags": [
        "mart",
        "emart"
      ],
      "lat": 35.9584323858356,
      "lng": 128.909989274863,
      "address": "경북 영천시 오수동 286",
      "roadAddress": "경북 영천시 최무선로 83",
      "phone": "",
      "placeUrl": "http://place.map.kakao.com/1108716645",
      "source": "kakao",
      "kakaoId": "1108716645"
    },
    {
      "id": "kakao:1108245777",
      "name": "민팃ATM 이마트태백점",
      "type": "mart",
      "tags": [
        "mart",
        "emart"
      ],
      "lat": 37.1999441533542,
      "lng": 128.961862651259,
      "address": "강원특별자치도 태백시 화전동 113",
      "roadAddress": "강원특별자치도 태백시 굴거랑길 4",
      "phone": "",
      "placeUrl": "http://place.map.kakao.com/1108245777",
      "source": "kakao",
      "kakaoId": "1108245777"
    },
    {
      "id": "kakao:13562825",
      "name": "바로이마트",
      "type": "mart",
      "tags": [
        "mart",
        "emart"
      ],
      "lat": 35.952162174649246,
      "lng": 126.98111576507263,
      "address": "전북특별자치도 익산시 어양동 603-14",
      "roadAddress": "전북특별자치도 익산시 동서로61길 9",
      "phone": "063-835-8544",
      "placeUrl": "http://place.map.kakao.com/13562825",
      "source": "kakao",
      "kakaoId": "13562825"
    },
    {
      "id": "kakao:15631289",
      "name": "바로이마트",
      "type": "mart",
      "tags": [
        "mart",
        "emart"
      ],
      "lat": 37.086696143052,
      "lng": 127.05921009471,
      "address": "경기 평택시 독곡동 394-8",
      "roadAddress": "경기 평택시 탄현로 391",
      "phone": "0502-5550-1688",
      "placeUrl": "http://place.map.kakao.com/15631289",
      "source": "kakao",
      "kakaoId": "15631289"
    },
    {
      "id": "kakao:9834533",
      "name": "바로이마트 전북고산점",
      "type": "mart",
      "tags": [
        "mart",
        "emart"
      ],
      "lat": 35.9767031034094,
      "lng": 127.207689830102,
      "address": "전북특별자치도 완주군 고산면 읍내리 697",
      "roadAddress": "전북특별자치도 완주군 고산면 읍내1길 20",
      "phone": "063-263-8500",
      "placeUrl": "http://place.map.kakao.com/9834533",
      "source": "kakao",
      "kakaoId": "9834533"
    },
    {
      "id": "kakao:12670623",
      "name": "바로이마트 죽산점",
      "type": "mart",
      "tags": [
        "mart",
        "emart"
      ],
      "lat": 37.0734814881841,
      "lng": 127.418131173444,
      "address": "경기 안성시 죽산면 죽산리 560-5",
      "roadAddress": "경기 안성시 죽산면 구교동길 2",
      "phone": "031-675-9865",
      "placeUrl": "http://place.map.kakao.com/12670623",
      "source": "kakao",
      "kakaoId": "12670623"
    },
    {
      "id": "kakao:15223553",
      "name": "박승철헤어스투디오 동구미이마트점",
      "type": "mart",
      "tags": [
        "mart",
        "emart"
      ],
      "lat": 36.1063772229538,
      "lng": 128.404032319069,
      "address": "경북 구미시 임수동 92-28",
      "roadAddress": "경북 구미시 이계북로 23",
      "phone": "054-473-3305",
      "placeUrl": "http://place.map.kakao.com/15223553",
      "source": "kakao",
      "kakaoId": "15223553"
    },
    {
      "id": "kakao:19774598",
      "name": "박승철헤어스투디오 보령이마트점",
      "type": "mart",
      "tags": [
        "mart",
        "emart"
      ],
      "lat": 36.3439838607897,
      "lng": 126.5886855518,
      "address": "충남 보령시 궁촌동 340-1",
      "roadAddress": "충남 보령시 해안로 25",
      "phone": "041-931-8778",
      "placeUrl": "http://place.map.kakao.com/19774598",
      "source": "kakao",
      "kakaoId": "19774598"
    },
    {
      "id": "kakao:14617189",
      "name": "박승철헤어스투디오 여주이마트점",
      "type": "mart",
      "tags": [
        "mart",
        "emart"
      ],
      "lat": 37.2842525493087,
      "lng": 127.635631247155,
      "address": "경기 여주시 홍문동 401",
      "roadAddress": "경기 여주시 세종로 151",
      "phone": "031-885-2303",
      "placeUrl": "http://place.map.kakao.com/14617189",
      "source": "kakao",
      "kakaoId": "14617189"
    },
    {
      "id": "kakao:12163277",
      "name": "배스킨라빈스 김천이마트점",
      "type": "mart",
      "tags": [
        "mart",
        "emart"
      ],
      "lat": 36.1350544355765,
      "lng": 128.117097799715,
      "address": "경북 김천시 신음동 990-1",
      "roadAddress": "경북 김천시 시청로 75",
      "phone": "054-433-7799",
      "placeUrl": "http://place.map.kakao.com/12163277",
      "source": "kakao",
      "kakaoId": "12163277"
    },
    {
      "id": "kakao:12255560",
      "name": "배스킨라빈스 제천이마트점",
      "type": "mart",
      "tags": [
        "mart",
        "emart"
      ],
      "lat": 37.1233908385807,
      "lng": 128.222935003909,
      "address": "충북 제천시 강제동 684",
      "roadAddress": "충북 제천시 장평천로 11",
      "phone": "043-643-1312",
      "placeUrl": "http://place.map.kakao.com/12255560",
      "source": "kakao",
      "kakaoId": "12255560"
    },
    {
      "id": "kakao:26794291",
      "name": "배스킨라빈스 진주이마트점",
      "type": "mart",
      "tags": [
        "mart",
        "emart"
      ],
      "lat": 35.1915893033227,
      "lng": 128.077417203672,
      "address": "경남 진주시 인사동 3",
      "roadAddress": "경남 진주시 진양호로 477",
      "phone": "055-747-1442",
      "placeUrl": "http://place.map.kakao.com/26794291",
      "source": "kakao",
      "kakaoId": "26794291"
    },
    {
      "id": "kakao:11062313",
      "name": "배스킨라빈스 통영이마트점",
      "type": "mart",
      "tags": [
        "mart",
        "emart"
      ],
      "lat": 34.8869943984503,
      "lng": 128.417635191893,
      "address": "경남 통영시 광도면 죽림리 1566-2",
      "roadAddress": "경남 통영시 광도면 죽림4로 9",
      "phone": "055-643-3138",
      "placeUrl": "http://place.map.kakao.com/11062313",
      "source": "kakao",
      "kakaoId": "11062313"
    },
    {
      "id": "kakao:17109863",
      "name": "벌교이마트헬스클럽",
      "type": "mart",
      "tags": [
        "mart",
        "emart"
      ],
      "lat": 34.84393307842231,
      "lng": 127.34712475203413,
      "address": "전남 보성군 벌교읍 벌교리 884-1",
      "roadAddress": "전남 보성군 벌교읍 시장2길 24",
      "phone": "061-857-6228",
      "placeUrl": "http://place.map.kakao.com/17109863",
      "source": "kakao",
      "kakaoId": "17109863"
    },
    {
      "id": "kakao:26008362",
      "name": "범우플라워",
      "type": "mart",
      "tags": [
        "mart",
        "emart"
      ],
      "lat": 38.1909259714749,
      "lng": 128.596087945199,
      "address": "강원특별자치도 속초시 청호동 459-134",
      "roadAddress": "강원특별자치도 속초시 설악금강대교로 12",
      "phone": "",
      "placeUrl": "http://place.map.kakao.com/26008362",
      "source": "kakao",
      "kakaoId": "26008362"
    },
    {
      "id": "kakao:10377220",
      "name": "보성이마트",
      "type": "mart",
      "tags": [
        "mart",
        "emart"
      ],
      "lat": 34.7688756508701,
      "lng": 127.079742967528,
      "address": "전남 보성군 보성읍 보성리 902-26",
      "roadAddress": "전남 보성군 보성읍 신흥길 23",
      "phone": "061-852-9979",
      "placeUrl": "http://place.map.kakao.com/10377220",
      "source": "kakao",
      "kakaoId": "10377220"
    },
    {
      "id": "kakao:1062118232",
      "name": "본우리집밥 이마트속초점",
      "type": "mart",
      "tags": [
        "mart",
        "emart"
      ],
      "lat": 38.1910427916677,
      "lng": 128.595843954257,
      "address": "강원특별자치도 속초시 청호동 459-134",
      "roadAddress": "강원특별자치도 속초시 설악금강대교로 12",
      "phone": "",
      "placeUrl": "http://place.map.kakao.com/1062118232",
      "source": "kakao",
      "kakaoId": "1062118232"
    },
    {
      "id": "kakao:677972336",
      "name": "본우리집밥 이마트태백점",
      "type": "mart",
      "tags": [
        "mart",
        "emart"
      ],
      "lat": 37.2000149349286,
      "lng": 128.961831823209,
      "address": "강원특별자치도 태백시 화전동 113",
      "roadAddress": "강원특별자치도 태백시 굴거랑길 4",
      "phone": "",
      "placeUrl": "http://place.map.kakao.com/677972336",
      "source": "kakao",
      "kakaoId": "677972336"
    },
    {
      "id": "kakao:302813371",
      "name": "북창동순두부 통영이마트점",
      "type": "mart",
      "tags": [
        "mart",
        "emart"
      ],
      "lat": 34.8871334545699,
      "lng": 128.41799963349,
      "address": "경남 통영시 광도면 죽림리 1566-2",
      "roadAddress": "경남 통영시 광도면 죽림4로 9",
      "phone": "",
      "placeUrl": "http://place.map.kakao.com/302813371",
      "source": "kakao",
      "kakaoId": "302813371"
    },
    {
      "id": "kakao:27213407",
      "name": "브렌우드 이마트강릉점",
      "type": "mart",
      "tags": [
        "mart",
        "emart"
      ],
      "lat": 37.7706105347959,
      "lng": 128.922670889212,
      "address": "강원특별자치도 강릉시 송정동 1008-7",
      "roadAddress": "강원특별자치도 강릉시 경강로 2398-10",
      "phone": "033-652-5080",
      "placeUrl": "http://place.map.kakao.com/27213407",
      "source": "kakao",
      "kakaoId": "27213407"
    },
    {
      "id": "kakao:1470802815",
      "name": "브렌우드 이마트통영점",
      "type": "mart",
      "tags": [
        "mart",
        "emart"
      ],
      "lat": 34.8871334545699,
      "lng": 128.41799963349,
      "address": "경남 통영시 광도면 죽림리 1566-2",
      "roadAddress": "경남 통영시 광도면 죽림4로 9",
      "phone": "055-649-7919",
      "placeUrl": "http://place.map.kakao.com/1470802815",
      "source": "kakao",
      "kakaoId": "1470802815"
    },
    {
      "id": "kakao:25882813",
      "name": "비욘드 이마트동구미점",
      "type": "mart",
      "tags": [
        "mart",
        "emart"
      ],
      "lat": 36.1063342377777,
      "lng": 128.404009344304,
      "address": "경북 구미시 임수동 92-28",
      "roadAddress": "경북 구미시 이계북로 23",
      "phone": "054-471-8130",
      "placeUrl": "http://place.map.kakao.com/25882813",
      "source": "kakao",
      "kakaoId": "25882813"
    },
    {
      "id": "kakao:25879273",
      "name": "비욘드 이마트동해점",
      "type": "mart",
      "tags": [
        "mart",
        "emart"
      ],
      "lat": 37.523939676253036,
      "lng": 129.11716876637246,
      "address": "강원특별자치도 동해시 천곡동 831",
      "roadAddress": "강원특별자치도 동해시 천곡로 100",
      "phone": "033-532-7772",
      "placeUrl": "http://place.map.kakao.com/25879273",
      "source": "kakao",
      "kakaoId": "25879273"
    },
    {
      "id": "kakao:26069110",
      "name": "비욘드 이마트속초점",
      "type": "mart",
      "tags": [
        "mart",
        "emart"
      ],
      "lat": 38.1910457096266,
      "lng": 128.595761837613,
      "address": "강원특별자치도 속초시 청호동 459-134",
      "roadAddress": "강원특별자치도 속초시 설악금강대교로 12",
      "phone": "033-631-4642",
      "placeUrl": "http://place.map.kakao.com/26069110",
      "source": "kakao",
      "kakaoId": "26069110"
    },
    {
      "id": "kakao:12077168",
      "name": "비젼센터안경원",
      "type": "mart",
      "tags": [
        "mart",
        "emart"
      ],
      "lat": 35.19800926115453,
      "lng": 128.5701167468465,
      "address": "경남 창원시 마산합포구 중앙동3가 4-1",
      "roadAddress": "경남 창원시 마산합포구 서성로 3",
      "phone": "055-222-2277",
      "placeUrl": "http://place.map.kakao.com/12077168",
      "source": "kakao",
      "kakaoId": "12077168"
    },
    {
      "id": "kakao:8378386",
      "name": "사랑의원",
      "type": "mart",
      "tags": [
        "mart",
        "emart"
      ],
      "lat": 35.19159653241869,
      "lng": 128.07741510325476,
      "address": "경남 진주시 인사동 3",
      "roadAddress": "경남 진주시 진양호로 477",
      "phone": "055-743-7857",
      "placeUrl": "http://place.map.kakao.com/8378386",
      "source": "kakao",
      "kakaoId": "8378386"
    },
    {
      "id": "kakao:23952555",
      "name": "산이마트",
      "type": "mart",
      "tags": [
        "mart",
        "emart"
      ],
      "lat": 34.6443638094661,
      "lng": 126.447493894086,
      "address": "전남 해남군 산이면 초송리 592-4",
      "roadAddress": "전남 해남군 산이면 비석길 103",
      "phone": "061-532-9825",
      "placeUrl": "http://place.map.kakao.com/23952555",
      "source": "kakao",
      "kakaoId": "23952555"
    },
    {
      "id": "kakao:805041786",
      "name": "삼성스토어 이마트군산모바일",
      "type": "mart",
      "tags": [
        "mart",
        "emart"
      ],
      "lat": 35.9827787497505,
      "lng": 126.734890197527,
      "address": "전북특별자치도 군산시 경암동 590-296",
      "roadAddress": "전북특별자치도 군산시 구암3.1로 137",
      "phone": "063-443-5336",
      "placeUrl": "http://place.map.kakao.com/805041786",
      "source": "kakao",
      "kakaoId": "805041786"
    },
    {
      "id": "kakao:1187873570",
      "name": "삼성스토어 이마트김포한강모바일",
      "type": "mart",
      "tags": [
        "mart",
        "emart"
      ],
      "lat": 37.6443392512631,
      "lng": 126.628286692871,
      "address": "경기 김포시 구래동 6880-9",
      "roadAddress": "경기 김포시 김포한강7로 71",
      "phone": "031-996-0647",
      "placeUrl": "http://place.map.kakao.com/1187873570",
      "source": "kakao",
      "kakaoId": "1187873570"
    },
    {
      "id": "kakao:1174209146",
      "name": "삼성스토어 일렉트로마트강릉모바일",
      "type": "mart",
      "tags": [
        "mart",
        "emart"
      ],
      "lat": 37.7705991806431,
      "lng": 128.92264903308,
      "address": "강원특별자치도 강릉시 송정동 1008-7",
      "roadAddress": "강원특별자치도 강릉시 경강로 2398-10",
      "phone": "033-653-9788",
      "placeUrl": "http://place.map.kakao.com/1174209146",
      "source": "kakao",
      "kakaoId": "1174209146"
    },
    {
      "id": "kakao:1943635321",
      "name": "삼성스토어 일렉트로마트구미모바일",
      "type": "mart",
      "tags": [
        "mart",
        "emart"
      ],
      "lat": 36.10945692078275,
      "lng": 128.36484542131936,
      "address": "경북 구미시 광평동 65-1",
      "roadAddress": "경북 구미시 구미대로 256",
      "phone": "054-462-9159",
      "placeUrl": "http://place.map.kakao.com/1943635321",
      "source": "kakao",
      "kakaoId": "1943635321"
    },
    {
      "id": "kakao:1176144346",
      "name": "삼성스토어 일렉트로마트마산모바일",
      "type": "mart",
      "tags": [
        "mart",
        "emart"
      ],
      "lat": 35.19759764134326,
      "lng": 128.56988923626614,
      "address": "경남 창원시 마산합포구 중앙동3가 4-1",
      "roadAddress": "경남 창원시 마산합포구 서성로 3",
      "phone": "055-247-9417",
      "placeUrl": "http://place.map.kakao.com/1176144346",
      "source": "kakao",
      "kakaoId": "1176144346"
    },
    {
      "id": "kakao:1172651388",
      "name": "삼성스토어 일렉트로마트목포모바일",
      "type": "mart",
      "tags": [
        "mart",
        "emart"
      ],
      "lat": 34.8116279065268,
      "lng": 126.425210026532,
      "address": "전남 목포시 옥암동 915-25",
      "roadAddress": "전남 목포시 옥암로 138",
      "phone": "061-285-9440",
      "placeUrl": "http://place.map.kakao.com/1172651388",
      "source": "kakao",
      "kakaoId": "1172651388"
    },
    {
      "id": "kakao:1854939833",
      "name": "삼성스토어 일렉트로마트신제주모바일",
      "type": "mart",
      "tags": [
        "mart",
        "emart"
      ],
      "lat": 33.48519321095251,
      "lng": 126.48045415732591,
      "address": "제주특별자치도 제주시 노형동 919",
      "roadAddress": "제주특별자치도 제주시 1100로 3348",
      "phone": "064-747-8531",
      "placeUrl": "http://place.map.kakao.com/1854939833",
      "source": "kakao",
      "kakaoId": "1854939833"
    },
    {
      "id": "kakao:1175875207",
      "name": "삼성스토어 일렉트로마트여주모바일",
      "type": "mart",
      "tags": [
        "mart",
        "emart"
      ],
      "lat": 37.2842577674947,
      "lng": 127.635666247922,
      "address": "경기 여주시 홍문동 401",
      "roadAddress": "경기 여주시 세종로 151",
      "phone": "031-886-9194",
      "placeUrl": "http://place.map.kakao.com/1175875207",
      "source": "kakao",
      "kakaoId": "1175875207"
    },
    {
      "id": "kakao:1958130903",
      "name": "삼성스토어 일렉트로마트진주모바일",
      "type": "mart",
      "tags": [
        "mart",
        "emart"
      ],
      "lat": 35.19159655195393,
      "lng": 128.07741290764875,
      "address": "경남 진주시 인사동 3",
      "roadAddress": "경남 진주시 진양호로 477",
      "phone": "055-744-8333",
      "placeUrl": "http://place.map.kakao.com/1958130903",
      "source": "kakao",
      "kakaoId": "1958130903"
    },
    {
      "id": "kakao:305743153",
      "name": "삼성전자 이마트 김천점",
      "type": "mart",
      "tags": [
        "mart",
        "emart"
      ],
      "lat": 36.1349316563515,
      "lng": 128.11683165921,
      "address": "경북 김천시 신음동 990-1",
      "roadAddress": "경북 김천시 시청로 75",
      "phone": "070-8870-0190",
      "placeUrl": "http://place.map.kakao.com/305743153",
      "source": "kakao",
      "kakaoId": "305743153"
    },
    {
      "id": "kakao:1499956339",
      "name": "삼성전자 이마트 동해점",
      "type": "mart",
      "tags": [
        "mart",
        "emart"
      ],
      "lat": 37.5239214777426,
      "lng": 129.117128664907,
      "address": "강원특별자치도 동해시 천곡동 831",
      "roadAddress": "강원특별자치도 동해시 천곡로 100",
      "phone": "033-838-7002",
      "placeUrl": "http://place.map.kakao.com/1499956339",
      "source": "kakao",
      "kakaoId": "1499956339"
    },
    {
      "id": "kakao:109727791",
      "name": "삼성전자 이마트 마산점",
      "type": "mart",
      "tags": [
        "mart",
        "emart"
      ],
      "lat": 35.1978843249064,
      "lng": 128.569951846549,
      "address": "경남 창원시 마산합포구 중앙동3가 4-1",
      "roadAddress": "경남 창원시 마산합포구 서성로 3",
      "phone": "070-4152-0038",
      "placeUrl": "http://place.map.kakao.com/109727791",
      "source": "kakao",
      "kakaoId": "109727791"
    },
    {
      "id": "kakao:2007729674",
      "name": "삼성전자 이마트 상주점",
      "type": "mart",
      "tags": [
        "mart",
        "emart"
      ],
      "lat": 36.4277693492699,
      "lng": 128.151009844131,
      "address": "경북 상주시 만산동 693-29",
      "roadAddress": "경북 상주시 경상대로 3141",
      "phone": "070-8839-0154",
      "placeUrl": "http://place.map.kakao.com/2007729674",
      "source": "kakao",
      "kakaoId": "2007729674"
    },
    {
      "id": "kakao:1465496143",
      "name": "삼성전자 이마트 속초점",
      "type": "mart",
      "tags": [
        "mart",
        "emart"
      ],
      "lat": 38.191042791666,
      "lng": 128.595843954267,
      "address": "강원특별자치도 속초시 청호동 459-134",
      "roadAddress": "강원특별자치도 속초시 설악금강대교로 12",
      "phone": "033-630-1230",
      "placeUrl": "http://place.map.kakao.com/1465496143",
      "source": "kakao",
      "kakaoId": "1465496143"
    },
    {
      "id": "kakao:899123539",
      "name": "삼성전자 이마트 안동점",
      "type": "mart",
      "tags": [
        "mart",
        "emart"
      ],
      "lat": 36.5584745042367,
      "lng": 128.699404506006,
      "address": "경북 안동시 옥동 796-1",
      "roadAddress": "경북 안동시 옥동1길 2",
      "phone": "070-8836-0166",
      "placeUrl": "http://place.map.kakao.com/899123539",
      "source": "kakao",
      "kakaoId": "899123539"
    },
    {
      "id": "kakao:1627365224",
      "name": "삼성전자 이마트 여주점",
      "type": "mart",
      "tags": [
        "mart",
        "emart"
      ],
      "lat": 37.2842577674947,
      "lng": 127.635666247922,
      "address": "경기 여주시 홍문동 401",
      "roadAddress": "경기 여주시 세종로 151",
      "phone": "031-8087-7070",
      "placeUrl": "http://place.map.kakao.com/1627365224",
      "source": "kakao",
      "kakaoId": "1627365224"
    },
    {
      "id": "kakao:1253098553",
      "name": "삼성전자 이마트 영천점",
      "type": "mart",
      "tags": [
        "mart",
        "emart"
      ],
      "lat": 35.9583800791485,
      "lng": 128.910331593895,
      "address": "경북 영천시 오수동 286",
      "roadAddress": "경북 영천시 최무선로 83",
      "phone": "070-7760-0116",
      "placeUrl": "http://place.map.kakao.com/1253098553",
      "source": "kakao",
      "kakaoId": "1253098553"
    },
    {
      "id": "kakao:11927839",
      "name": "삼성전자 이마트 진주점",
      "type": "mart",
      "tags": [
        "mart",
        "emart"
      ],
      "lat": 35.1915965324187,
      "lng": 128.077415103255,
      "address": "경남 진주시 인사동 3",
      "roadAddress": "경남 진주시 진양호로 477",
      "phone": "055-745-9839",
      "placeUrl": "http://place.map.kakao.com/11927839",
      "source": "kakao",
      "kakaoId": "11927839"
    },
    {
      "id": "kakao:568590257",
      "name": "삼성전자 이마트서귀포점",
      "type": "mart",
      "tags": [
        "mart",
        "emart"
      ],
      "lat": 33.248337937766,
      "lng": 126.509117780054,
      "address": "제주특별자치도 서귀포시 법환동 841-2",
      "roadAddress": "제주특별자치도 서귀포시 일주동로 9209",
      "phone": "070-4421-9210",
      "placeUrl": "http://place.map.kakao.com/568590257",
      "source": "kakao",
      "kakaoId": "568590257"
    },
    {
      "id": "kakao:1636779960",
      "name": "삼성전자 이마트신제주점",
      "type": "mart",
      "tags": [
        "mart",
        "emart"
      ],
      "lat": 33.4849650146598,
      "lng": 126.480431848639,
      "address": "제주특별자치도 제주시 노형동 919",
      "roadAddress": "제주특별자치도 제주시 1100로 3348",
      "phone": "070-4457-9200",
      "placeUrl": "http://place.map.kakao.com/1636779960",
      "source": "kakao",
      "kakaoId": "1636779960"
    },
    {
      "id": "kakao:1313735132",
      "name": "삼성전자 이마트제천점",
      "type": "mart",
      "tags": [
        "mart",
        "emart"
      ],
      "lat": 37.1232082894214,
      "lng": 128.222900561258,
      "address": "충북 제천시 강제동 684",
      "roadAddress": "충북 제천시 장평천로 11",
      "phone": "043-756-7200",
      "placeUrl": "http://place.map.kakao.com/1313735132",
      "source": "kakao",
      "kakaoId": "1313735132"
    },
    {
      "id": "kakao:1807865281",
      "name": "삼성전자 이마트충주점",
      "type": "mart",
      "tags": [
        "mart",
        "emart"
      ],
      "lat": 36.9721393744717,
      "lng": 127.923783496233,
      "address": "충북 충주시 문화동 1024",
      "roadAddress": "충북 충주시 중원대로 3420",
      "phone": "070-4417-3827",
      "placeUrl": "http://place.map.kakao.com/1807865281",
      "source": "kakao",
      "kakaoId": "1807865281"
    },
    {
      "id": "kakao:876277451",
      "name": "상주시 이마트상주점 전기차충전소",
      "type": "mart",
      "tags": [
        "mart",
        "emart"
      ],
      "lat": 36.4277684482599,
      "lng": 128.1510098308226,
      "address": "경북 상주시 만산동 693-29",
      "roadAddress": "경북 상주시 경상대로 3141",
      "phone": "",
      "placeUrl": "http://place.map.kakao.com/876277451",
      "source": "kakao",
      "kakaoId": "876277451"
    },
    {
      "id": "kakao:26070178",
      "name": "상품권샵 이마트속초점",
      "type": "mart",
      "tags": [
        "mart",
        "emart"
      ],
      "lat": 38.1909259714749,
      "lng": 128.596087945199,
      "address": "강원특별자치도 속초시 청호동 459-134",
      "roadAddress": "강원특별자치도 속초시 설악금강대교로 12",
      "phone": "",
      "placeUrl": "http://place.map.kakao.com/26070178",
      "source": "kakao",
      "kakaoId": "26070178"
    },
    {
      "id": "kakao:1974545813",
      "name": "서귀포시 이마트서귀포점 전기차충전소",
      "type": "mart",
      "tags": [
        "mart",
        "emart"
      ],
      "lat": 33.24833793768966,
      "lng": 126.50911778005715,
      "address": "제주특별자치도 서귀포시 법환동 841-2",
      "roadAddress": "제주특별자치도 서귀포시 일주동로 9209",
      "phone": "",
      "placeUrl": "http://place.map.kakao.com/1974545813",
      "source": "kakao",
      "kakaoId": "1974545813"
    },
    {
      "id": "kakao:1673163218",
      "name": "서산다육이마트",
      "type": "mart",
      "tags": [
        "mart",
        "emart"
      ],
      "lat": 36.75459335455398,
      "lng": 126.42321915062314,
      "address": "충남 서산시 인지면 둔당리 319-5",
      "roadAddress": "충남 서산시 인지면 둔당로 98",
      "phone": "",
      "placeUrl": "http://place.map.kakao.com/1673163218",
      "source": "kakao",
      "kakaoId": "1673163218"
    },
    {
      "id": "kakao:1640145217",
      "name": "서신이마트약국",
      "type": "mart",
      "tags": [
        "mart",
        "emart"
      ],
      "lat": 35.83200226077522,
      "lng": 127.12001498193739,
      "address": "전북특별자치도 전주시 완산구 서신동 785-4",
      "roadAddress": "전북특별자치도 전주시 완산구 당산로 106",
      "phone": "063-255-3520",
      "placeUrl": "http://place.map.kakao.com/1640145217",
      "source": "kakao",
      "kakaoId": "1640145217"
    },
    {
      "id": "kakao:1353369139",
      "name": "선진SCM 이마트장성센터",
      "type": "mart",
      "tags": [
        "mart",
        "emart"
      ],
      "lat": 35.278312912551,
      "lng": 126.750635572616,
      "address": "전남 장성군 황룡면 황룡리 44-2",
      "roadAddress": "전남 장성군 황룡면 요월정로 107",
      "phone": "",
      "placeUrl": "http://place.map.kakao.com/1353369139",
      "source": "kakao",
      "kakaoId": "1353369139"
    },
    {
      "id": "kakao:142999312",
      "name": "셀피아 신제주이마트점",
      "type": "mart",
      "tags": [
        "mart",
        "emart"
      ],
      "lat": 33.48423058290742,
      "lng": 126.48094946314266,
      "address": "제주특별자치도 제주시 노형동 919-4",
      "roadAddress": "제주특별자치도 제주시 원노형2길 22",
      "phone": "010-9019-7407",
      "placeUrl": "http://place.map.kakao.com/142999312",
      "source": "kakao",
      "kakaoId": "142999312"
    },
    {
      "id": "kakao:16212971",
      "name": "소정이마트문구",
      "type": "mart",
      "tags": [
        "mart",
        "emart"
      ],
      "lat": 35.9632207566216,
      "lng": 126.97351382076,
      "address": "전북특별자치도 익산시 영등동 810",
      "roadAddress": "전북특별자치도 익산시 고봉로36길 21",
      "phone": "",
      "placeUrl": "http://place.map.kakao.com/16212971",
      "source": "kakao",
      "kakaoId": "16212971"
    },
    {
      "id": "kakao:10565321",
      "name": "속초21세기약국",
      "type": "mart",
      "tags": [
        "mart",
        "emart"
      ],
      "lat": 38.19104279166596,
      "lng": 128.59584395426666,
      "address": "강원특별자치도 속초시 청호동 459-134",
      "roadAddress": "강원특별자치도 속초시 설악금강대교로 12",
      "phone": "033-633-8893",
      "placeUrl": "http://place.map.kakao.com/10565321",
      "source": "kakao",
      "kakaoId": "10565321"
    },
    {
      "id": "kakao:1950570555",
      "name": "송사부수제쌀고로케 이마트 서귀포점",
      "type": "mart",
      "tags": [
        "mart",
        "emart"
      ],
      "lat": 33.24834881211705,
      "lng": 126.50913166897178,
      "address": "제주특별자치도 서귀포시 법환동 841-2",
      "roadAddress": "제주특별자치도 서귀포시 일주동로 9209",
      "phone": "010-4925-2221",
      "placeUrl": "http://place.map.kakao.com/1950570555",
      "source": "kakao",
      "kakaoId": "1950570555"
    },
    {
      "id": "kakao:165933770",
      "name": "송사부수제쌀고로케 이마트동해점",
      "type": "mart",
      "tags": [
        "mart",
        "emart"
      ],
      "lat": 37.5239241977669,
      "lng": 129.116876516281,
      "address": "강원특별자치도 동해시 천곡동 831",
      "roadAddress": "강원특별자치도 동해시 천곡로 100",
      "phone": "",
      "placeUrl": "http://place.map.kakao.com/165933770",
      "source": "kakao",
      "kakaoId": "165933770"
    },
    {
      "id": "kakao:23984037",
      "name": "송악e마트",
      "type": "mart",
      "tags": [
        "mart",
        "emart"
      ],
      "lat": 36.9421841028715,
      "lng": 126.780621896249,
      "address": "충남 당진시 송악읍 복운리 1630-4",
      "roadAddress": "충남 당진시 송악읍 신복운로5길 7",
      "phone": "",
      "placeUrl": "http://place.map.kakao.com/23984037",
      "source": "kakao",
      "kakaoId": "23984037"
    },
    {
      "id": "kakao:58709726",
      "name": "수영복티막",
      "type": "mart",
      "tags": [
        "mart",
        "emart"
      ],
      "lat": 38.1909062475848,
      "lng": 128.595683462073,
      "address": "강원특별자치도 속초시 청호동 459-134",
      "roadAddress": "강원특별자치도 속초시 설악금강대교로 12",
      "phone": "",
      "placeUrl": "http://place.map.kakao.com/58709726",
      "source": "kakao",
      "kakaoId": "58709726"
    },
    {
      "id": "kakao:728058326",
      "name": "슈마커 이마트강릉점",
      "type": "mart",
      "tags": [
        "mart",
        "emart"
      ],
      "lat": 37.77049133453718,
      "lng": 128.92274383603473,
      "address": "강원특별자치도 강릉시 송정동 1008-7",
      "roadAddress": "강원특별자치도 강릉시 경강로 2398-10",
      "phone": "033-652-2809",
      "placeUrl": "http://place.map.kakao.com/728058326",
      "source": "kakao",
      "kakaoId": "728058326"
    },
    {
      "id": "kakao:1877528884",
      "name": "슈마커 이마트구미점",
      "type": "mart",
      "tags": [
        "mart",
        "emart"
      ],
      "lat": 36.1095385964003,
      "lng": 128.364929569464,
      "address": "경북 구미시 광평동 65-1",
      "roadAddress": "경북 구미시 구미대로 256",
      "phone": "054-465-5989",
      "placeUrl": "http://place.map.kakao.com/1877528884",
      "source": "kakao",
      "kakaoId": "1877528884"
    },
    {
      "id": "kakao:19533868",
      "name": "슈마커 이마트군산점",
      "type": "mart",
      "tags": [
        "mart",
        "emart"
      ],
      "lat": 35.9825993198761,
      "lng": 126.734851988062,
      "address": "전북특별자치도 군산시 경암동 590-296",
      "roadAddress": "전북특별자치도 군산시 구암3.1로 137",
      "phone": "063-446-8441",
      "placeUrl": "http://place.map.kakao.com/19533868",
      "source": "kakao",
      "kakaoId": "19533868"
    },
    {
      "id": "kakao:26940690",
      "name": "슈마커 이마트김포한강점",
      "type": "mart",
      "tags": [
        "mart",
        "emart"
      ],
      "lat": 37.64464960570643,
      "lng": 126.62813331366674,
      "address": "경기 김포시 구래동 6880-9",
      "roadAddress": "경기 김포시 김포한강7로 71",
      "phone": "070-7723-8915",
      "placeUrl": "http://place.map.kakao.com/26940690",
      "source": "kakao",
      "kakaoId": "26940690"
    },
    {
      "id": "kakao:1208376036",
      "name": "슈마커 이마트목포점",
      "type": "mart",
      "tags": [
        "mart",
        "emart"
      ],
      "lat": 34.8116269948361,
      "lng": 126.425207847035,
      "address": "전남 목포시 옥암동 915-25",
      "roadAddress": "전남 목포시 옥암로 138",
      "phone": "070-8836-1678",
      "placeUrl": "http://place.map.kakao.com/1208376036",
      "source": "kakao",
      "kakaoId": "1208376036"
    },
    {
      "id": "kakao:1249426128",
      "name": "슈마커 이마트보령점",
      "type": "mart",
      "tags": [
        "mart",
        "emart"
      ],
      "lat": 36.3439075422341,
      "lng": 126.588505494558,
      "address": "충남 보령시 궁촌동 340-1",
      "roadAddress": "충남 보령시 해안로 25",
      "phone": "041-932-3542",
      "placeUrl": "http://place.map.kakao.com/1249426128",
      "source": "kakao",
      "kakaoId": "1249426128"
    },
    {
      "id": "kakao:1270975278",
      "name": "슈마커 이마트상주점",
      "type": "mart",
      "tags": [
        "mart",
        "emart"
      ],
      "lat": 36.4276575946485,
      "lng": 128.151011539488,
      "address": "경북 상주시 만산동 693-29",
      "roadAddress": "경북 상주시 경상대로 3141",
      "phone": "054-535-3791",
      "placeUrl": "http://place.map.kakao.com/1270975278",
      "source": "kakao",
      "kakaoId": "1270975278"
    },
    {
      "id": "kakao:727228392",
      "name": "슈마커 이마트속초점",
      "type": "mart",
      "tags": [
        "mart",
        "emart"
      ],
      "lat": 38.190840275678255,
      "lng": 128.5957653438522,
      "address": "강원특별자치도 속초시 청호동 459-134",
      "roadAddress": "강원특별자치도 속초시 설악금강대교로 12",
      "phone": "033-633-1317",
      "placeUrl": "http://place.map.kakao.com/727228392",
      "source": "kakao",
      "kakaoId": "727228392"
    },
    {
      "id": "kakao:1952249588",
      "name": "슈마커 이마트안동점",
      "type": "mart",
      "tags": [
        "mart",
        "emart"
      ],
      "lat": 36.5584745042144,
      "lng": 128.699404505996,
      "address": "경북 안동시 옥동 800-3",
      "roadAddress": "경북 안동시 옥동1길 2",
      "phone": "054-841-2809",
      "placeUrl": "http://place.map.kakao.com/1952249588",
      "source": "kakao",
      "kakaoId": "1952249588"
    },
    {
      "id": "kakao:1117978807",
      "name": "슈마커 이마트제천점",
      "type": "mart",
      "tags": [
        "mart",
        "emart"
      ],
      "lat": 37.123353912969506,
      "lng": 128.22319545578497,
      "address": "충북 제천시 강제동 684",
      "roadAddress": "충북 제천시 장평천로 11",
      "phone": "043-653-2809",
      "placeUrl": "http://place.map.kakao.com/1117978807",
      "source": "kakao",
      "kakaoId": "1117978807"
    },
    {
      "id": "kakao:19533965",
      "name": "슈마커 이마트통영점",
      "type": "mart",
      "tags": [
        "mart",
        "emart"
      ],
      "lat": 34.88715898133177,
      "lng": 128.41751113644833,
      "address": "경남 통영시 광도면 죽림리 1566-2",
      "roadAddress": "경남 통영시 광도면 죽림4로 9",
      "phone": "055-648-2809",
      "placeUrl": "http://place.map.kakao.com/19533965",
      "source": "kakao",
      "kakaoId": "19533965"
    },
    {
      "id": "kakao:2002820928",
      "name": "슈마커 이마트포천점",
      "type": "mart",
      "tags": [
        "mart",
        "emart"
      ],
      "lat": 37.84754407247455,
      "lng": 127.16057443462067,
      "address": "경기 포천시 설운동 2",
      "roadAddress": "경기 포천시 호국로 915",
      "phone": "070-8800-4400",
      "placeUrl": "http://place.map.kakao.com/2002820928",
      "source": "kakao",
      "kakaoId": "2002820928"
    },
    {
      "id": "kakao:26091669",
      "name": "스카이라이프 좌룡동점",
      "type": "mart",
      "tags": [
        "mart",
        "emart"
      ],
      "lat": 34.9506830621797,
      "lng": 128.077224202569,
      "address": "경남 사천시 좌룡동 388-10",
      "roadAddress": "경남 사천시 삼천포대교로 591",
      "phone": "070-7926-4343",
      "placeUrl": "http://place.map.kakao.com/26091669",
      "source": "kakao",
      "kakaoId": "26091669"
    },
    {
      "id": "kakao:430875059",
      "name": "스타벅스 군산이마트점",
      "type": "mart",
      "tags": [
        "mart",
        "emart"
      ],
      "lat": 35.9826770458706,
      "lng": 126.734951524341,
      "address": "전북특별자치도 군산시 경암동 590-296",
      "roadAddress": "전북특별자치도 군산시 구암3.1로 137",
      "phone": "1522-3232",
      "placeUrl": "http://place.map.kakao.com/430875059",
      "source": "kakao",
      "kakaoId": "430875059"
    },
    {
      "id": "kakao:26489326",
      "name": "스타벅스 김포이마트점",
      "type": "mart",
      "tags": [
        "mart",
        "emart"
      ],
      "lat": 37.64423923826841,
      "lng": 126.62865725296864,
      "address": "경기 김포시 구래동 6880-9",
      "roadAddress": "경기 김포시 김포한강7로 71",
      "phone": "1522-3232",
      "placeUrl": "http://place.map.kakao.com/26489326",
      "source": "kakao",
      "kakaoId": "26489326"
    },
    {
      "id": "kakao:785122511",
      "name": "스타벅스 목포이마트점",
      "type": "mart",
      "tags": [
        "mart",
        "emart"
      ],
      "lat": 34.81175140690612,
      "lng": 126.42502118742597,
      "address": "전남 목포시 옥암동 915-25",
      "roadAddress": "전남 목포시 옥암로 138",
      "phone": "1522-3232",
      "placeUrl": "http://place.map.kakao.com/785122511",
      "source": "kakao",
      "kakaoId": "785122511"
    },
    {
      "id": "kakao:21580659",
      "name": "스타벅스 신제주이마트점",
      "type": "mart",
      "tags": [
        "mart",
        "emart"
      ],
      "lat": 33.4847870355725,
      "lng": 126.480344682643,
      "address": "제주특별자치도 제주시 노형동 919",
      "roadAddress": "제주특별자치도 제주시 1100로 3348",
      "phone": "1522-3232",
      "placeUrl": "http://place.map.kakao.com/21580659",
      "source": "kakao",
      "kakaoId": "21580659"
    },
    {
      "id": "kakao:766852966",
      "name": "스타벅스 안동이마트점",
      "type": "mart",
      "tags": [
        "mart",
        "emart"
      ],
      "lat": 36.558686213458365,
      "lng": 128.6990908322909,
      "address": "경북 안동시 옥동 800-3",
      "roadAddress": "경북 안동시 옥동1길 2",
      "phone": "1522-3232",
      "placeUrl": "http://place.map.kakao.com/766852966",
      "source": "kakao",
      "kakaoId": "766852966"
    },
    {
      "id": "kakao:17127104",
      "name": "스타벅스 통영이마트점",
      "type": "mart",
      "tags": [
        "mart",
        "emart"
      ],
      "lat": 34.8866489100502,
      "lng": 128.417891771363,
      "address": "경남 통영시 광도면 죽림리 1566-2",
      "roadAddress": "경남 통영시 광도면 죽림4로 9",
      "phone": "",
      "placeUrl": "http://place.map.kakao.com/17127104",
      "source": "kakao",
      "kakaoId": "17127104"
    },
    {
      "id": "kakao:21487158",
      "name": "스타필드마켓 이마트 죽전점",
      "type": "mart",
      "tags": [
        "mart",
        "emart"
      ],
      "lat": 37.3253482659152,
      "lng": 127.109934447353,
      "address": "경기 용인시 수지구 죽전동 1282",
      "roadAddress": "경기 용인시 수지구 포은대로 552",
      "phone": "031-888-1234",
      "placeUrl": "http://place.map.kakao.com/21487158",
      "source": "kakao",
      "kakaoId": "21487158"
    },
    {
      "id": "kakao:8440101",
      "name": "스피드메이트 이마트 서귀포점",
      "type": "mart",
      "tags": [
        "mart",
        "emart"
      ],
      "lat": 33.24833793768966,
      "lng": 126.50911778005715,
      "address": "제주특별자치도 서귀포시 법환동 841-2",
      "roadAddress": "제주특별자치도 서귀포시 일주동로 9209",
      "phone": "064-739-0191",
      "placeUrl": "http://place.map.kakao.com/8440101",
      "source": "kakao",
      "kakaoId": "8440101"
    },
    {
      "id": "kakao:7969427",
      "name": "스피드메이트 이마트강릉점",
      "type": "mart",
      "tags": [
        "mart",
        "emart"
      ],
      "lat": 37.7705856182574,
      "lng": 128.922652086313,
      "address": "강원특별자치도 강릉시 송정동 1008-7",
      "roadAddress": "강원특별자치도 강릉시 경강로 2398-10",
      "phone": "033-651-3699",
      "placeUrl": "http://place.map.kakao.com/7969427",
      "source": "kakao",
      "kakaoId": "7969427"
    },
    {
      "id": "kakao:8439290",
      "name": "스피드메이트 이마트구미점",
      "type": "mart",
      "tags": [
        "mart",
        "emart"
      ],
      "lat": 36.1094793436001,
      "lng": 128.364854693592,
      "address": "경북 구미시 광평동 65-1",
      "roadAddress": "경북 구미시 구미대로 256",
      "phone": "054-465-7712",
      "placeUrl": "http://place.map.kakao.com/8439290",
      "source": "kakao",
      "kakaoId": "8439290"
    },
    {
      "id": "kakao:27367705",
      "name": "스피드메이트 이마트군산점",
      "type": "mart",
      "tags": [
        "mart",
        "emart"
      ],
      "lat": 35.98315982001135,
      "lng": 126.73400738353749,
      "address": "전북특별자치도 군산시 경암동 590-296",
      "roadAddress": "전북특별자치도 군산시 구암3.1로 137",
      "phone": "063-442-2370",
      "placeUrl": "http://place.map.kakao.com/27367705",
      "source": "kakao",
      "kakaoId": "27367705"
    },
    {
      "id": "kakao:27141684",
      "name": "스피드메이트 이마트김포한강점",
      "type": "mart",
      "tags": [
        "mart",
        "emart"
      ],
      "lat": 37.6445347321107,
      "lng": 126.62827665413292,
      "address": "경기 김포시 구래동 6880-9",
      "roadAddress": "경기 김포시 김포한강7로 71",
      "phone": "031-986-8286",
      "placeUrl": "http://place.map.kakao.com/27141684",
      "source": "kakao",
      "kakaoId": "27141684"
    },
    {
      "id": "kakao:17940375",
      "name": "스피드메이트 이마트동구미점",
      "type": "mart",
      "tags": [
        "mart",
        "emart"
      ],
      "lat": 36.1063628078113,
      "lng": 128.404032062497,
      "address": "경북 구미시 임수동 92-28",
      "roadAddress": "경북 구미시 이계북로 23",
      "phone": "054-476-0558",
      "placeUrl": "http://place.map.kakao.com/17940375",
      "source": "kakao",
      "kakaoId": "17940375"
    },
    {
      "id": "kakao:19269375",
      "name": "스피드메이트 이마트동해점",
      "type": "mart",
      "tags": [
        "mart",
        "emart"
      ],
      "lat": 37.5239351779156,
      "lng": 129.117067975186,
      "address": "강원특별자치도 동해시 천곡동 831",
      "roadAddress": "강원특별자치도 동해시 천곡로 100",
      "phone": "033-531-8333",
      "placeUrl": "http://place.map.kakao.com/19269375",
      "source": "kakao",
      "kakaoId": "19269375"
    },
    {
      "id": "kakao:12608186",
      "name": "스피드메이트 이마트마산점",
      "type": "mart",
      "tags": [
        "mart",
        "emart"
      ],
      "lat": 35.19818073862705,
      "lng": 128.57009808852695,
      "address": "경남 창원시 마산합포구 중앙동3가 4-1",
      "roadAddress": "경남 창원시 마산합포구 서성로 3",
      "phone": "055-221-0591",
      "placeUrl": "http://place.map.kakao.com/12608186",
      "source": "kakao",
      "kakaoId": "12608186"
    },
    {
      "id": "kakao:11273829",
      "name": "스피드메이트 이마트목포점",
      "type": "mart",
      "tags": [
        "mart",
        "emart"
      ],
      "lat": 34.8116198045578,
      "lng": 126.425212268621,
      "address": "전남 목포시 옥암동 915-25",
      "roadAddress": "전남 목포시 옥암로 138",
      "phone": "061-285-1180",
      "placeUrl": "http://place.map.kakao.com/11273829",
      "source": "kakao",
      "kakaoId": "11273829"
    },
    {
      "id": "kakao:8440100",
      "name": "스피드메이트 이마트보령점",
      "type": "mart",
      "tags": [
        "mart",
        "emart"
      ],
      "lat": 36.3440163024994,
      "lng": 126.588685381191,
      "address": "충남 보령시 궁촌동 340-1",
      "roadAddress": "충남 보령시 해안로 25",
      "phone": "041-931-9755",
      "placeUrl": "http://place.map.kakao.com/8440100",
      "source": "kakao",
      "kakaoId": "8440100"
    },
    {
      "id": "kakao:7969556",
      "name": "스피드메이트 이마트속초점",
      "type": "mart",
      "tags": [
        "mart",
        "emart"
      ],
      "lat": 38.19104570962665,
      "lng": 128.5957618376133,
      "address": "강원특별자치도 속초시 청호동 461-1",
      "roadAddress": "강원특별자치도 속초시 설악금강대교로 12",
      "phone": "033-638-0661",
      "placeUrl": "http://place.map.kakao.com/7969556",
      "source": "kakao",
      "kakaoId": "7969556"
    },
    {
      "id": "kakao:7969557",
      "name": "스피드메이트 이마트신제주점",
      "type": "mart",
      "tags": [
        "mart",
        "emart"
      ],
      "lat": 33.4849495887412,
      "lng": 126.480408269592,
      "address": "제주특별자치도 제주시 노형동 919",
      "roadAddress": "제주특별자치도 제주시 1100로 3348",
      "phone": "064-748-9200",
      "placeUrl": "http://place.map.kakao.com/7969557",
      "source": "kakao",
      "kakaoId": "7969557"
    },
    {
      "id": "kakao:7969558",
      "name": "스피드메이트 이마트안동점",
      "type": "mart",
      "tags": [
        "mart",
        "emart"
      ],
      "lat": 36.55847538907046,
      "lng": 128.69940564226803,
      "address": "경북 안동시 옥동 796-1",
      "roadAddress": "경북 안동시 옥동1길 2",
      "phone": "054-859-8864",
      "placeUrl": "http://place.map.kakao.com/7969558",
      "source": "kakao",
      "kakaoId": "7969558"
    },
    {
      "id": "kakao:17940151",
      "name": "스피드메이트 이마트양주점",
      "type": "mart",
      "tags": [
        "mart",
        "emart"
      ],
      "lat": 37.8416958151032,
      "lng": 127.05391444606,
      "address": "경기 양주시 회정동 98",
      "roadAddress": "경기 양주시 평화로 1713",
      "phone": "031-858-0967",
      "placeUrl": "http://place.map.kakao.com/17940151",
      "source": "kakao",
      "kakaoId": "17940151"
    },