{
  "generatedAt": "2026-01-25T08:32:43.674Z",
  "query": "홈플러스",
  "tag": "homeplus",
  "count": 2061,
  "stores": [
    {
      "id": "kakao:1909352749",
      "name": "365코너 공동atm",
      "type": "mart",
      "tags": [
        "mart",
        "homeplus"
      ],
      "lat": 36.1836080418726,
      "lng": 127.098223279231,
      "address": "충남 논산시 내동 436-8",
      "roadAddress": "충남 논산시 시민로 187",
      "phone": "",
      "placeUrl": "http://place.map.kakao.com/1909352749",
      "source": "kakao",
      "kakaoId": "1909352749"
    },
    {
      "id": "kakao:26385602",
      "name": "가구홈플러스",
      "type": "mart",
      "tags": [
        "mart",
        "homeplus"
      ],
      "lat": 35.926930679669674,
      "lng": 128.55863326149785,
      "address": "대구 북구 구암동 698-3",
      "roadAddress": "대구 북구 학정로42길 37-1",
      "phone": "053-311-4413",
      "placeUrl": "http://place.map.kakao.com/26385602",
      "source": "kakao",
      "kakaoId": "26385602"
    },
    {
      "id": "kakao:25971544",
      "name": "가인채 강동점",
      "type": "mart",
      "tags": [
        "mart",
        "homeplus"
      ],
      "lat": 37.5457129664238,
      "lng": 127.14225395309,
      "address": "서울 강동구 천호동 42",
      "roadAddress": "서울 강동구 양재대로 1571",
      "phone": "02-474-6602",
      "placeUrl": "http://place.map.kakao.com/25971544",
      "source": "kakao",
      "kakaoId": "25971544"
    },
    {
      "id": "kakao:1740030715",
      "name": "간성동해반점 세종점",
      "type": "mart",
      "tags": [
        "mart",
        "homeplus"
      ],
      "lat": 36.5073893474648,
      "lng": 127.258768780023,
      "address": "세종특별자치시 어진동 503",
      "roadAddress": "세종특별자치시 절재로 154",
      "phone": "044-417-6079",
      "placeUrl": "http://place.map.kakao.com/1740030715",
      "source": "kakao",
      "kakaoId": "1740030715"
    },
    {
      "id": "kakao:1267695001",
      "name": "강릉선불폰",
      "type": "mart",
      "tags": [
        "mart",
        "homeplus"
      ],
      "lat": 37.75568940772227,
      "lng": 128.89865272072498,
      "address": "강원특별자치도 강릉시 옥천동 189",
      "roadAddress": "강원특별자치도 강릉시 경강로 2120",
      "phone": "033-655-4985",
      "placeUrl": "http://place.map.kakao.com/1267695001",
      "source": "kakao",
      "kakaoId": "1267695001"
    },
    {
      "id": "kakao:1346101337",
      "name": "개골개골어린이도서관",
      "type": "mart",
      "tags": [
        "mart",
        "homeplus"
      ],
      "lat": 35.8066186900672,
      "lng": 127.114021040363,
      "address": "전북특별자치도 전주시 완산구 효자동1가 431-5",
      "roadAddress": "전북특별자치도 전주시 완산구 용머리로 31",
      "phone": "063-228-5698",
      "placeUrl": "http://place.map.kakao.com/1346101337",
      "source": "kakao",
      "kakaoId": "1346101337"
    },
    {
      "id": "kakao:1692681369",
      "name": "건강플러스약국",
      "type": "mart",
      "tags": [
        "mart",
        "homeplus"
      ],
      "lat": 37.3452488016772,
      "lng": 126.725175118118,
      "address": "경기 시흥시 정왕동 2166-4",
      "roadAddress": "경기 시흥시 희망공원로 269",
      "phone": "031-496-9736",
      "placeUrl": "http://place.map.kakao.com/1692681369",
      "source": "kakao",
      "kakaoId": "1692681369"
    },
    {
      "id": "kakao:577076937",
      "name": "계림동홈플러스앞 노상공영주차장",
      "type": "mart",
      "tags": [
        "mart",
        "homeplus"
      ],
      "lat": 35.1608894479738,
      "lng": 126.91623672061,
      "address": "광주 동구 계림동 541",
      "roadAddress": "",
      "phone": "",
      "placeUrl": "http://place.map.kakao.com/577076937",
      "source": "kakao",
      "kakaoId": "577076937"
    },
    {
      "id": "kakao:26785666",
      "name": "고견공인중개사사무소",
      "type": "mart",
      "tags": [
        "mart",
        "homeplus"
      ],
      "lat": 35.842185267746544,
      "lng": 129.21749306062182,
      "address": "경북 경주시 황오동 124-17",
      "roadAddress": "경북 경주시 원화로 242",
      "phone": "054-775-8864",
      "placeUrl": "http://place.map.kakao.com/26785666",
      "source": "kakao",
      "kakaoId": "26785666"
    },
    {
      "id": "kakao:2041562593",
      "name": "골드잼",
      "type": "mart",
      "tags": [
        "mart",
        "homeplus"
      ],
      "lat": 36.3202447478003,
      "lng": 127.407724139721,
      "address": "대전 중구 문화동 1-17",
      "roadAddress": "대전 중구 계백로 1690",
      "phone": "",
      "placeUrl": "http://place.map.kakao.com/2041562593",
      "source": "kakao",
      "kakaoId": "2041562593"
    },
    {
      "id": "kakao:1360760498",
      "name": "골프존파크 상대EXR스크린점",
      "type": "mart",
      "tags": [
        "mart",
        "homeplus"
      ],
      "lat": 35.1876076931915,
      "lng": 128.11755787264,
      "address": "경남 진주시 상대동 181-1",
      "roadAddress": "경남 진주시 대신로 304",
      "phone": "055-748-4400",
      "placeUrl": "http://place.map.kakao.com/1360760498",
      "source": "kakao",
      "kakaoId": "1360760498"
    },
    {
      "id": "kakao:806174130",
      "name": "골프존파크 안중홈플러스점",
      "type": "mart",
      "tags": [
        "mart",
        "homeplus"
      ],
      "lat": 36.9901311093729,
      "lng": 126.916364482358,
      "address": "경기 평택시 안중읍 현화리 637-19",
      "roadAddress": "경기 평택시 안중읍 서동대로 1489",
      "phone": "031-682-2918",
      "placeUrl": "http://place.map.kakao.com/806174130",
      "source": "kakao",
      "kakaoId": "806174130"
    },
    {
      "id": "kakao:2119415060",
      "name": "골프존파크 일산EXR스크린점",
      "type": "mart",
      "tags": [
        "mart",
        "homeplus"
      ],
      "lat": 35.498898306103676,
      "lng": 129.42782234799506,
      "address": "울산 동구 일산동 577-1",
      "roadAddress": "울산 동구 방어진순환도로 637",
      "phone": "052-997-6200",
      "placeUrl": "http://place.map.kakao.com/2119415060",
      "source": "kakao",
      "kakaoId": "2119415060"
    },
    {
      "id": "kakao:25085917",
      "name": "공차 강릉CGV점",
      "type": "mart",
      "tags": [
        "mart",
        "homeplus"
      ],
      "lat": 37.7556783827403,
      "lng": 128.898666054304,
      "address": "강원특별자치도 강릉시 옥천동 189",
      "roadAddress": "강원특별자치도 강릉시 경강로 2120",
      "phone": "033-646-8687",
      "placeUrl": "http://place.map.kakao.com/25085917",
      "source": "kakao",
      "kakaoId": "25085917"
    },
    {
      "id": "kakao:677571220",
      "name": "공차 거제디큐브점",
      "type": "mart",
      "tags": [
        "mart",
        "homeplus"
      ],
      "lat": 34.891059199153,
      "lng": 128.616492645749,
      "address": "경남 거제시 장평동 1211",
      "roadAddress": "경남 거제시 장평로 12",
      "phone": "055-680-0009",
      "placeUrl": "http://place.map.kakao.com/677571220",
      "source": "kakao",
      "kakaoId": "677571220"
    },
    {
      "id": "kakao:200826103",
      "name": "공차 홈플러스 안동점",
      "type": "mart",
      "tags": [
        "mart",
        "homeplus"
      ],
      "lat": 36.5625576459027,
      "lng": 128.729558499352,
      "address": "경북 안동시 운흥동 247-28",
      "roadAddress": "경북 안동시 경동로 656",
      "phone": "054-841-7053",
      "placeUrl": "http://place.map.kakao.com/200826103",
      "source": "kakao",
      "kakaoId": "200826103"
    },
    {
      "id": "kakao:27190472",
      "name": "공차 홈플러스김해점",
      "type": "mart",
      "tags": [
        "mart",
        "homeplus"
      ],
      "lat": 35.241992985999346,
      "lng": 128.87062989484326,
      "address": "경남 김해시 내동 1131-2",
      "roadAddress": "경남 김해시 김해대로 2078",
      "phone": "055-313-5755",
      "placeUrl": "http://place.map.kakao.com/27190472",
      "source": "kakao",
      "kakaoId": "27190472"
    },
    {
      "id": "kakao:644806488",
      "name": "공차 홈플러스창원점",
      "type": "mart",
      "tags": [
        "mart",
        "homeplus"
      ],
      "lat": 35.2340380700859,
      "lng": 128.643616558084,
      "address": "경남 창원시 의창구 팔용동 30-3",
      "roadAddress": "경남 창원시 의창구 창원대로 415",
      "phone": "055-277-2345",
      "placeUrl": "http://place.map.kakao.com/644806488",
      "source": "kakao",
      "kakaoId": "644806488"
    },
    {
      "id": "kakao:1222913368",
      "name": "교동도나스",
      "type": "mart",
      "tags": [
        "mart",
        "homeplus"
      ],
      "lat": 36.5625504724099,
      "lng": 128.729556105534,
      "address": "경북 안동시 운흥동 247-28",
      "roadAddress": "경북 안동시 경동로 656",
      "phone": "",
      "placeUrl": "http://place.map.kakao.com/1222913368",
      "source": "kakao",
      "kakaoId": "1222913368"
    },
    {
      "id": "kakao:842646002",
      "name": "교보문고 거제팝업스토어",
      "type": "mart",
      "tags": [
        "mart",
        "homeplus"
      ],
      "lat": 34.8910559011749,
      "lng": 128.61640179304,
      "address": "경남 거제시 장평동 1211",
      "roadAddress": "경남 거제시 장평로 12",
      "phone": "1544-1900",
      "placeUrl": "http://place.map.kakao.com/842646002",
      "source": "kakao",
      "kakaoId": "842646002"
    },
    {
      "id": "kakao:8833297",
      "name": "구미플러스치과의원",
      "type": "mart",
      "tags": [
        "mart",
        "homeplus"
      ],
      "lat": 36.102902892578975,
      "lng": 128.36374151618003,
      "address": "경북 구미시 광평동 792-21",
      "roadAddress": "경북 구미시 구미대로 174",
      "phone": "054-461-5124",
      "placeUrl": "http://place.map.kakao.com/8833297",
      "source": "kakao",
      "kakaoId": "8833297"
    },
    {
      "id": "kakao:8196841",
      "name": "굽은다리역 5호선 2번출구",
      "type": "mart",
      "tags": [
        "mart",
        "homeplus"
      ],
      "lat": 37.5461158914759,
      "lng": 127.142852199105,
      "address": "서울 강동구 천호동 42",
      "roadAddress": "",
      "phone": "",
      "placeUrl": "http://place.map.kakao.com/8196841",
      "source": "kakao",
      "kakaoId": "8196841"
    },
    {
      "id": "kakao:998841641",
      "name": "굿리치라운지 춘천점",
      "type": "mart",
      "tags": [
        "mart",
        "homeplus"
      ],
      "lat": 37.8506352899974,
      "lng": 127.734774816781,
      "address": "강원특별자치도 춘천시 퇴계동 141",
      "roadAddress": "강원특별자치도 춘천시 김유정로 1840",
      "phone": "033-910-0603",
      "placeUrl": "http://place.map.kakao.com/998841641",
      "source": "kakao",
      "kakaoId": "998841641"
    },
    {
      "id": "kakao:1785185255",
      "name": "그랑르피에드오피스텔 (2028년05월예정)",
      "type": "mart",
      "tags": [
        "mart",
        "homeplus"
      ],
      "lat": 36.3563305195295,
      "lng": 127.389079184383,
      "address": "대전 서구 둔산동 1380-2",
      "roadAddress": "",
      "phone": "",
      "placeUrl": "http://place.map.kakao.com/1785185255",
      "source": "kakao",
      "kakaoId": "1785185255"
    },
    {
      "id": "kakao:858974356",
      "name": "그랑르피에드오피스텔 (2028년05월예정)",
      "type": "mart",
      "tags": [
        "mart",
        "homeplus"
      ],
      "lat": 36.3563305195053,
      "lng": 127.38907918438,
      "address": "대전 서구 둔산동 1380-2",
      "roadAddress": "",
      "phone": "",
      "placeUrl": "http://place.map.kakao.com/858974356",
      "source": "kakao",
      "kakaoId": "858974356"
    },
    {
      "id": "kakao:1840914189",
      "name": "그리니 홈플러스 창원점",
      "type": "mart",
      "tags": [
        "mart",
        "homeplus"
      ],
      "lat": 35.2340371840243,
      "lng": 128.643615441789,
      "address": "경남 창원시 의창구 팔용동 30-3",
      "roadAddress": "경남 창원시 의창구 창원대로 415",
      "phone": "010-5168-9002",
      "placeUrl": "http://place.map.kakao.com/1840914189",
      "source": "kakao",
      "kakaoId": "1840914189"
    },
    {
      "id": "kakao:13623863",
      "name": "그린조이 홈플러스문경점",
      "type": "mart",
      "tags": [
        "mart",
        "homeplus"
      ],
      "lat": 36.58725743434611,
      "lng": 128.19036760927312,
      "address": "경북 문경시 모전동 859-2",
      "roadAddress": "경북 문경시 모전로 65",
      "phone": "054-555-8868",
      "placeUrl": "http://place.map.kakao.com/13623863",
      "source": "kakao",
      "kakaoId": "13623863"
    },
    {
      "id": "kakao:611313625",
      "name": "그린조이 홈플러스진주점",
      "type": "mart",
      "tags": [
        "mart",
        "homeplus"
      ],
      "lat": 35.187557590649,
      "lng": 128.117713084493,
      "address": "경남 진주시 상대동 181-1",
      "roadAddress": "경남 진주시 대신로 304",
      "phone": "055-758-4762",
      "placeUrl": "http://place.map.kakao.com/611313625",
      "source": "kakao",
      "kakaoId": "611313625"
    },
    {
      "id": "kakao:16835451",
      "name": "그린필플라워",
      "type": "mart",
      "tags": [
        "mart",
        "homeplus"
      ],
      "lat": 37.721467026483865,
      "lng": 127.1891720396084,
      "address": "경기 남양주시 진접읍 장현리 216-2",
      "roadAddress": "경기 남양주시 진접읍 금강로 1447",
      "phone": "031-528-2250",
      "placeUrl": "http://place.map.kakao.com/16835451",
      "source": "kakao",
      "kakaoId": "16835451"
    },
    {
      "id": "kakao:2066474602",
      "name": "금성침대 부산르네시떼점",
      "type": "mart",
      "tags": [
        "mart",
        "homeplus"
      ],
      "lat": 35.1638384827119,
      "lng": 128.977636775856,
      "address": "부산 사상구 괘법동 529-1",
      "roadAddress": "부산 사상구 광장로 7",
      "phone": "051-319-8585",
      "placeUrl": "http://place.map.kakao.com/2066474602",
      "source": "kakao",
      "kakaoId": "2066474602"
    },
    {
      "id": "kakao:8820208",
      "name": "김남원 내과의원",
      "type": "mart",
      "tags": [
        "mart",
        "homeplus"
      ],
      "lat": 37.7557033765982,
      "lng": 128.898680308714,
      "address": "강원특별자치도 강릉시 옥천동 189",
      "roadAddress": "강원특별자치도 강릉시 경강로 2120",
      "phone": "033-642-9155",
      "placeUrl": "http://place.map.kakao.com/8820208",
      "source": "kakao",
      "kakaoId": "8820208"
    },
    {
      "id": "kakao:13518018",
      "name": "김포홈플러스약국",
      "type": "mart",
      "tags": [
        "mart",
        "homeplus"
      ],
      "lat": 37.623879567,
      "lng": 126.69866081698,
      "address": "경기 김포시 감정동 692",
      "roadAddress": "경기 김포시 중봉로 14",
      "phone": "031-996-1363",
      "placeUrl": "http://place.map.kakao.com/13518018",
      "source": "kakao",
      "kakaoId": "13518018"
    },
    {
      "id": "kakao:23385196",
      "name": "까르푸아티스",
      "type": "mart",
      "tags": [
        "mart",
        "homeplus"
      ],
      "lat": 36.3202447478003,
      "lng": 127.407724139721,
      "address": "대전 중구 문화동 1-17",
      "roadAddress": "대전 중구 계백로 1690",
      "phone": "",
      "placeUrl": "http://place.map.kakao.com/23385196",
      "source": "kakao",
      "kakaoId": "23385196"
    },
    {
      "id": "kakao:1029696088",
      "name": "까사벨르 송탄점",
      "type": "mart",
      "tags": [
        "mart",
        "homeplus"
      ],
      "lat": 37.0449853299159,
      "lng": 127.059567749826,
      "address": "경기 평택시 장당동 390-1",
      "roadAddress": "경기 평택시 경기대로 1103",
      "phone": "031-663-8484",
      "placeUrl": "http://place.map.kakao.com/1029696088",
      "source": "kakao",
      "kakaoId": "1029696088"
    },
    {
      "id": "kakao:12466483",
      "name": "까사벨르 홈플러스 천안점",
      "type": "mart",
      "tags": [
        "mart",
        "homeplus"
      ],
      "lat": 36.7991909708559,
      "lng": 127.165507995021,
      "address": "충남 천안시 동남구 구성동 50",
      "roadAddress": "충남 천안시 동남구 천안대로 574",
      "phone": "041-565-7474",
      "placeUrl": "http://place.map.kakao.com/12466483",
      "source": "kakao",
      "kakaoId": "12466483"
    },
    {
      "id": "kakao:23402490",
      "name": "나눔녹색건강",
      "type": "mart",
      "tags": [
        "mart",
        "homeplus"
      ],
      "lat": 37.8695927030363,
      "lng": 126.784992967992,
      "address": "경기 파주시 문산읍 당동리 880",
      "roadAddress": "경기 파주시 문산읍 방촌로 1759",
      "phone": "031-952-7552",
      "placeUrl": "http://place.map.kakao.com/23402490",
      "source": "kakao",
      "kakaoId": "23402490"
    },
    {
      "id": "kakao:1339762247",
      "name": "나다운",
      "type": "mart",
      "tags": [
        "mart",
        "homeplus"
      ],
      "lat": 35.2340371839814,
      "lng": 128.6436154417796,
      "address": "경남 창원시 의창구 팔용동 30-3",
      "roadAddress": "경남 창원시 의창구 창원대로 415",
      "phone": "",
      "placeUrl": "http://place.map.kakao.com/1339762247",
      "source": "kakao",
      "kakaoId": "1339762247"
    },
    {
      "id": "kakao:352607303",
      "name": "나이스필",
      "type": "mart",
      "tags": [
        "mart",
        "homeplus"
      ],
      "lat": 36.587302571115735,
      "lng": 128.19035936353634,
      "address": "경북 문경시 모전동 859-2",
      "roadAddress": "경북 문경시 모전로 65",
      "phone": "",
      "placeUrl": "http://place.map.kakao.com/352607303",
      "source": "kakao",
      "kakaoId": "352607303"
    },
    {
      "id": "kakao:622706467",
      "name": "나이키 디큐브거제점",
      "type": "mart",
      "tags": [
        "mart",
        "homeplus"
      ],
      "lat": 34.89109341271416,
      "lng": 128.6164749396553,
      "address": "경남 거제시 장평동 1211",
      "roadAddress": "경남 거제시 장평로 12",
      "phone": "055-680-0588",
      "placeUrl": "http://place.map.kakao.com/622706467",
      "source": "kakao",
      "kakaoId": "622706467"
    },
    {
      "id": "kakao:725985296",
      "name": "나이키 패션아일랜드대전점",
      "type": "mart",
      "tags": [
        "mart",
        "homeplus"
      ],
      "lat": 36.30696682619823,
      "lng": 127.45798583128389,
      "address": "대전 동구 가오동 557",
      "roadAddress": "대전 동구 은어송로 72",
      "phone": "042-280-9216",
      "placeUrl": "http://place.map.kakao.com/725985296",
      "source": "kakao",
      "kakaoId": "725985296"
    },
    {
      "id": "kakao:24388997",
      "name": "네이처리퍼블릭 패션아일랜드점",
      "type": "mart",
      "tags": [
        "mart",
        "homeplus"
      ],
      "lat": 36.30684265941265,
      "lng": 127.45751101417272,
      "address": "대전 동구 가오동 557",
      "roadAddress": "대전 동구 은어송로 72",
      "phone": "042-286-0756",
      "placeUrl": "http://place.map.kakao.com/24388997",
      "source": "kakao",
      "kakaoId": "24388997"
    },
    {
      "id": "kakao:19631066",
      "name": "네이처리퍼블릭 홈플러스김해점",
      "type": "mart",
      "tags": [
        "mart",
        "homeplus"
      ],
      "lat": 35.2419620180325,
      "lng": 128.870709372409,
      "address": "경남 김해시 내동 1131-2",
      "roadAddress": "경남 김해시 김해대로 2078",
      "phone": "055-322-3362",
      "placeUrl": "http://place.map.kakao.com/19631066",
      "source": "kakao",
      "kakaoId": "19631066"
    },
    {
      "id": "kakao:18306328",
      "name": "네이처리퍼블릭 홈플러스원주점",
      "type": "mart",
      "tags": [
        "mart",
        "homeplus"
      ],
      "lat": 37.3177620119043,
      "lng": 127.967317370863,
      "address": "강원특별자치도 원주시 관설동 1453",
      "roadAddress": "강원특별자치도 원주시 치악로 1489",
      "phone": "033-765-4144",
      "placeUrl": "http://place.map.kakao.com/18306328",
      "source": "kakao",
      "kakaoId": "18306328"
    },
    {
      "id": "kakao:18306426",
      "name": "네이처리퍼블릭 홈플러스익산",
      "type": "mart",
      "tags": [
        "mart",
        "homeplus"
      ],
      "lat": 35.9589341834971,
      "lng": 126.97228479541398,
      "address": "전북특별자치도 익산시 영등동 831-1",
      "roadAddress": "전북특별자치도 익산시 무왕로 1035",
      "phone": "063-833-2259",
      "placeUrl": "http://place.map.kakao.com/18306426",
      "source": "kakao",
      "kakaoId": "18306426"
    },
    {
      "id": "kakao:18306427",
      "name": "네이처리퍼블릭 홈플러스전주점",
      "type": "mart",
      "tags": [
        "mart",
        "homeplus"
      ],
      "lat": 35.8475647979398,
      "lng": 127.152885443598,
      "address": "전북특별자치도 전주시 덕진구 우아동3가 733-1",
      "roadAddress": "전북특별자치도 전주시 덕진구 백제대로 771",
      "phone": "063-241-8144",
      "placeUrl": "http://place.map.kakao.com/18306427",
      "source": "kakao",
      "kakaoId": "18306427"
    },
    {
      "id": "kakao:25753280",
      "name": "네이처리퍼블릭 홈플러스진접점",
      "type": "mart",
      "tags": [
        "mart",
        "homeplus"
      ],
      "lat": 37.72179913937837,
      "lng": 127.18910653010508,
      "address": "경기 남양주시 진접읍 장현리 216-1",
      "roadAddress": "경기 남양주시 진접읍 금강로 1447",
      "phone": "031-527-3541",
      "placeUrl": "http://place.map.kakao.com/25753280",
      "source": "kakao",
      "kakaoId": "25753280"
    },
    {
      "id": "kakao:27477589",
      "name": "네이처리퍼블릭 홈플러스진해점",
      "type": "mart",
      "tags": [
        "mart",
        "homeplus"
      ],
      "lat": 35.15324985914905,
      "lng": 128.6911462992036,
      "address": "경남 창원시 진해구 이동 536-10",
      "roadAddress": "경남 창원시 진해구 충장로 356",
      "phone": "055-541-2252",
      "placeUrl": "http://place.map.kakao.com/27477589",
      "source": "kakao",
      "kakaoId": "27477589"
    },
    {
      "id": "kakao:17697491",
      "name": "네이처컬렉션 홈플러스스토어즈전주완산점",
      "type": "mart",
      "tags": [
        "mart",
        "homeplus"
      ],
      "lat": 35.8235948100349,
      "lng": 127.15013927849,
      "address": "전북특별자치도 전주시 완산구 중노송동 495-6",
      "roadAddress": "전북특별자치도 전주시 완산구 기린대로 170",
      "phone": "063-231-5027",
      "placeUrl": "http://place.map.kakao.com/17697491",
      "source": "kakao",
      "kakaoId": "17697491"
    },
    {
      "id": "kakao:1173275844",
      "name": "네일세라",
      "type": "mart",
      "tags": [
        "mart",
        "homeplus"
      ],
      "lat": 37.75568940772227,
      "lng": 128.89865272072498,
      "address": "강원특별자치도 강릉시 옥천동 189",
      "roadAddress": "강원특별자치도 강릉시 경강로 2120",
      "phone": "033-655-1666",
      "placeUrl": "http://place.map.kakao.com/1173275844",
      "source": "kakao",
      "kakaoId": "1173275844"
    },
    {
      "id": "kakao:873587693",
      "name": "노상공영유료주차장",
      "type": "mart",
      "tags": [
        "mart",
        "homeplus"
      ],
      "lat": 35.3234633740189,
      "lng": 129.176647811884,
      "address": "부산 기장군 정관읍 매학리 712-1",
      "roadAddress": "",
      "phone": "",
      "placeUrl": "http://place.map.kakao.com/873587693",
      "source": "kakao",
      "kakaoId": "873587693"
    },
    {
      "id": "kakao:12557722",
      "name": "노튼주니어 홈플러스진해2점",
      "type": "mart",
      "tags": [
        "mart",
        "homeplus"
      ],
      "lat": 35.1531886293595,
      "lng": 128.691161820847,
      "address": "경남 창원시 진해구 이동 536-10",
      "roadAddress": "경남 창원시 진해구 충장로 356",
      "phone": "",
      "placeUrl": "http://place.map.kakao.com/12557722",
      "source": "kakao",
      "kakaoId": "12557722"
    },
    {
      "id": "kakao:1649174328",
      "name": "논산인의밥상",
      "type": "mart",
      "tags": [
        "mart",
        "homeplus"
      ],
      "lat": 36.1833922653531,
      "lng": 127.098695470872,
      "address": "충남 논산시 내동 436-8",
      "roadAddress": "충남 논산시 시민로 187",
      "phone": "041-732-8469",
      "placeUrl": "http://place.map.kakao.com/1649174328",
      "source": "kakao",
      "kakaoId": "1649174328"
    },
    {
      "id": "kakao:533252906",
      "name": "논산홈플러스약국",
      "type": "mart",
      "tags": [
        "mart",
        "homeplus"
      ],
      "lat": 36.1835827935437,
      "lng": 127.098241034521,
      "address": "충남 논산시 내동 436-8",
      "roadAddress": "충남 논산시 시민로 187",
      "phone": "041-735-7336",
      "placeUrl": "http://place.map.kakao.com/533252906",
      "source": "kakao",
      "kakaoId": "533252906"
    },
    {
      "id": "kakao:1816431786",
      "name": "누리약국",
      "type": "mart",
      "tags": [
        "mart",
        "homeplus"
      ],
      "lat": 36.3069668261982,
      "lng": 127.457985831284,
      "address": "대전 동구 가오동 557",
      "roadAddress": "대전 동구 은어송로 72",
      "phone": "042-282-9129",
      "placeUrl": "http://place.map.kakao.com/1816431786",
      "source": "kakao",
      "kakaoId": "1816431786"
    },
    {
      "id": "kakao:741178827",
      "name": "누비자터미널 창원홈플러스",
      "type": "mart",
      "tags": [
        "mart",
        "homeplus"
      ],
      "lat": 35.234755748723,
      "lng": 128.643859511336,
      "address": "경남 창원시 의창구 팔용동 523-3",
      "roadAddress": "",
      "phone": "",
      "placeUrl": "http://place.map.kakao.com/741178827",
      "source": "kakao",
      "kakaoId": "741178827"
    },
    {
      "id": "kakao:1699369554",
      "name": "뉴욕버거 광양점",
      "type": "mart",
      "tags": [
        "mart",
        "homeplus"
      ],
      "lat": 34.9283713415196,
      "lng": 127.694808939812,
      "address": "전남 광양시 중동 1811-1",
      "roadAddress": "전남 광양시 항만11로 70",
      "phone": "061-791-4302",
      "placeUrl": "http://place.map.kakao.com/1699369554",
      "source": "kakao",
      "kakaoId": "1699369554"
    },
    {
      "id": "kakao:378642491",
      "name": "뉴욕버거 문산점",
      "type": "mart",
      "tags": [
        "mart",
        "homeplus"
      ],
      "lat": 37.8695485568214,
      "lng": 126.784993096277,
      "address": "경기 파주시 문산읍 당동리 880",
      "roadAddress": "경기 파주시 문산읍 방촌로 1759",
      "phone": "031-953-0129",
      "placeUrl": "http://place.map.kakao.com/378642491",
      "source": "kakao",
      "kakaoId": "378642491"
    },
    {
      "id": "kakao:238311219",
      "name": "뉴욕버거 홈플러스문화점",
      "type": "mart",
      "tags": [
        "mart",
        "homeplus"
      ],
      "lat": 36.3202916997925,
      "lng": 127.407697546367,
      "address": "대전 중구 문화동 1-17",
      "roadAddress": "대전 중구 계백로 1690",
      "phone": "042-252-3331",
      "placeUrl": "http://place.map.kakao.com/238311219",
      "source": "kakao",
      "kakaoId": "238311219"
    },
    {
      "id": "kakao:1819391968",
      "name": "느리세상",
      "type": "mart",
      "tags": [
        "mart",
        "homeplus"
      ],
      "lat": 35.8065932699193,
      "lng": 127.114215730085,
      "address": "전북특별자치도 전주시 완산구 효자동1가 431-5",
      "roadAddress": "전북특별자치도 전주시 완산구 용머리로 31",
      "phone": "063-229-3670",
      "placeUrl": "http://place.map.kakao.com/1819391968",
      "source": "kakao",
      "kakaoId": "1819391968"
    },
    {
      "id": "kakao:40181435",
      "name": "니콜밀러",
      "type": "mart",
      "tags": [
        "mart",
        "homeplus"
      ],
      "lat": 36.5873463076757,
      "lng": 128.190310871031,
      "address": "경북 문경시 모전동 859-2",
      "roadAddress": "경북 문경시 모전로 65",
      "phone": "",
      "placeUrl": "http://place.map.kakao.com/40181435",
      "source": "kakao",
      "kakaoId": "40181435"
    },
    {
      "id": "kakao:1819454962",
      "name": "닉스 홈플러스천안신방점",
      "type": "mart",
      "tags": [
        "mart",
        "homeplus"
      ],
      "lat": 36.7871448882703,
      "lng": 127.120547807494,
      "address": "충남 천안시 동남구 신방동 784-9",
      "roadAddress": "충남 천안시 동남구 신촌1길 23",
      "phone": "070-7752-4451",
      "placeUrl": "http://place.map.kakao.com/1819454962",
      "source": "kakao",
      "kakaoId": "1819454962"
    },
    {
      "id": "kakao:26101296",
      "name": "다비치안경 가오동홈플러스앞점",
      "type": "mart",
      "tags": [
        "mart",
        "homeplus"
      ],
      "lat": 36.30705847791553,
      "lng": 127.45617038648534,
      "address": "대전 동구 가오동 604",
      "roadAddress": "대전 동구 동구청로 101",
      "phone": "042-282-1357",
      "placeUrl": "http://place.map.kakao.com/26101296",
      "source": "kakao",
      "kakaoId": "26101296"
    },
    {
      "id": "kakao:1523580497",
      "name": "다비치안경 영주홈플러스앞점",
      "type": "mart",
      "tags": [
        "mart",
        "homeplus"
      ],
      "lat": 36.8093312249292,
      "lng": 128.620055499631,
      "address": "경북 영주시 휴천동 642-843",
      "roadAddress": "경북 영주시 대학로 38",
      "phone": "054-632-1357",
      "placeUrl": "http://place.map.kakao.com/1523580497",
      "source": "kakao",
      "kakaoId": "1523580497"
    },
    {
      "id": "kakao:76311118",
      "name": "다비치안경 영주홈플러스앞점 주차장",
      "type": "mart",
      "tags": [
        "mart",
        "homeplus"
      ],
      "lat": 36.8094408868319,
      "lng": 128.619876284795,
      "address": "경북 영주시 휴천동 642-843",
      "roadAddress": "",
      "phone": "",
      "placeUrl": "http://place.map.kakao.com/76311118",
      "source": "kakao",
      "kakaoId": "76311118"
    },
    {
      "id": "kakao:139264746",
      "name": "다비치히어링 보청기 영주홈플러스앞점",
      "type": "mart",
      "tags": [
        "mart",
        "homeplus"
      ],
      "lat": 36.8093312249292,
      "lng": 128.620055499631,
      "address": "경북 영주시 휴천동 642-843",
      "roadAddress": "경북 영주시 대학로 38",
      "phone": "054-632-1357",
      "placeUrl": "http://place.map.kakao.com/139264746",
      "source": "kakao",
      "kakaoId": "139264746"
    },
    {
      "id": "kakao:17725452",
      "name": "다이소 패션아일랜드대전점",
      "type": "mart",
      "tags": [
        "mart",
        "homeplus"
      ],
      "lat": 36.3069418240645,
      "lng": 127.45792556073049,
      "address": "대전 동구 가오동 557",
      "roadAddress": "대전 동구 은어송로 72",
      "phone": "1522-4400",
      "placeUrl": "http://place.map.kakao.com/17725452",
      "source": "kakao",
      "kakaoId": "17725452"
    },
    {
      "id": "kakao:1498072238",
      "name": "다이소 홈플러스 연수점",
      "type": "mart",
      "tags": [
        "mart",
        "homeplus"
      ],
      "lat": 37.40599635891313,
      "lng": 126.68362127732324,
      "address": "인천 연수구 동춘동 926",
      "roadAddress": "인천 연수구 청능대로 210",
      "phone": "1522-4400",
      "placeUrl": "http://place.map.kakao.com/1498072238",
      "source": "kakao",
      "kakaoId": "1498072238"
    },
    {
      "id": "kakao:381878954",
      "name": "다이소 홈플러스 전주효자점",
      "type": "mart",
      "tags": [
        "mart",
        "homeplus"
      ],
      "lat": 35.8064329631054,
      "lng": 127.11409158424,
      "address": "전북특별자치도 전주시 완산구 효자동1가 431-5",
      "roadAddress": "전북특별자치도 전주시 완산구 용머리로 31",
      "phone": "1522-4400",
      "placeUrl": "http://place.map.kakao.com/381878954",
      "source": "kakao",
      "kakaoId": "381878954"
    },
    {
      "id": "kakao:102518007",
      "name": "다이소 홈플러스감만점",
      "type": "mart",
      "tags": [
        "mart",
        "homeplus"
      ],
      "lat": 35.1216158109305,
      "lng": 129.082289885108,
      "address": "부산 남구 감만동 8",
      "roadAddress": "부산 남구 우암로 124",
      "phone": "1522-4400",
      "placeUrl": "http://place.map.kakao.com/102518007",
      "source": "kakao",
      "kakaoId": "102518007"
    },
    {
      "id": "kakao:1122845983",
      "name": "다이소 홈플러스강동점",
      "type": "mart",
      "tags": [
        "mart",
        "homeplus"
      ],
      "lat": 37.5455490055326,
      "lng": 127.142236667784,
      "address": "서울 강동구 천호동 42",
      "roadAddress": "서울 강동구 양재대로 1571",
      "phone": "",
      "placeUrl": "http://place.map.kakao.com/1122845983",
      "source": "kakao",
      "kakaoId": "1122845983"
    },
    {
      "id": "kakao:26855800",
      "name": "다이소 홈플러스경산점",
      "type": "mart",
      "tags": [
        "mart",
        "homeplus"
      ],
      "lat": 35.8328304688217,
      "lng": 128.735643075912,
      "address": "경북 경산시 중방동 896",
      "roadAddress": "경북 경산시 경안로 288",
      "phone": "053-812-6016",
      "placeUrl": "http://place.map.kakao.com/26855800",
      "source": "kakao",
      "kakaoId": "26855800"
    },
    {
      "id": "kakao:26855887",
      "name": "다이소 홈플러스광양점",
      "type": "mart",
      "tags": [
        "mart",
        "homeplus"
      ],
      "lat": 34.9284905147453,
      "lng": 127.694144517157,
      "address": "전남 광양시 중동 1811-1",
      "roadAddress": "전남 광양시 항만11로 70",
      "phone": "1522-4400",
      "placeUrl": "http://place.map.kakao.com/26855887",
      "source": "kakao",
      "kakaoId": "26855887"
    },
    {
      "id": "kakao:1580563016",
      "name": "다이소 홈플러스김해점",
      "type": "mart",
      "tags": [
        "mart",
        "homeplus"
      ],
      "lat": 35.2419040480837,
      "lng": 128.870262058531,
      "address": "경남 김해시 내동 1131-2",
      "roadAddress": "경남 김해시 김해대로 2078",
      "phone": "1522-4400",
      "placeUrl": "http://place.map.kakao.com/1580563016",
      "source": "kakao",
      "kakaoId": "1580563016"
    },
    {
      "id": "kakao:1086258790",
      "name": "다이소 홈플러스동래점",
      "type": "mart",
      "tags": [
        "mart",
        "homeplus"
      ],
      "lat": 35.22171374348052,
      "lng": 129.0862008407879,
      "address": "부산 동래구 온천동 153-8",
      "roadAddress": "부산 동래구 중앙대로 1523",
      "phone": "1522-4400",
      "placeUrl": "http://place.map.kakao.com/1086258790",
      "source": "kakao",
      "kakaoId": "1086258790"
    },
    {
      "id": "kakao:26855889",
      "name": "다이소 홈플러스동촌점",
      "type": "mart",
      "tags": [
        "mart",
        "homeplus"
      ],
      "lat": 35.886126833052,
      "lng": 128.655729842788,
      "address": "대구 동구 검사동 908-5",
      "roadAddress": "대구 동구 동촌로 127",
      "phone": "1522-4400",
      "placeUrl": "http://place.map.kakao.com/26855889",
      "source": "kakao",
      "kakaoId": "26855889"
    },
    {
      "id": "kakao:1033759529",
      "name": "다이소 홈플러스병점점",
      "type": "mart",
      "tags": [
        "mart",
        "homeplus"
      ],
      "lat": 37.2037457437674,
      "lng": 127.036754166454,
      "address": "경기 화성시 병점동 399-4",
      "roadAddress": "경기 화성시 경기대로 985",
      "phone": "1522-4400",
      "placeUrl": "http://place.map.kakao.com/1033759529",
      "source": "kakao",
      "kakaoId": "1033759529"
    },
    {
      "id": "kakao:11793202",
      "name": "다이소 홈플러스삼척점",
      "type": "mart",
      "tags": [
        "mart",
        "homeplus"
      ],
      "lat": 37.4464018116362,
      "lng": 129.168283003946,
      "address": "강원특별자치도 삼척시 당저동 33-3",
      "roadAddress": "강원특별자치도 삼척시 중앙로 258",
      "phone": "1522-4400",
      "placeUrl": "http://place.map.kakao.com/11793202",
      "source": "kakao",
      "kakaoId": "11793202"
    },
    {
      "id": "kakao:1489515954",
      "name": "다이소 홈플러스서귀포점",
      "type": "mart",
      "tags": [
        "mart",
        "homeplus"
      ],
      "lat": 33.2604855388415,
      "lng": 126.559934772955,
      "address": "제주특별자치도 서귀포시 동홍동 1558",
      "roadAddress": "제주특별자치도 서귀포시 중앙로 180",
      "phone": "1522-4400",
      "placeUrl": "http://place.map.kakao.com/1489515954",
      "source": "kakao",
      "kakaoId": "1489515954"
    },
    {
      "id": "kakao:126724467",
      "name": "다이소 홈플러스성서점",
      "type": "mart",
      "tags": [
        "mart",
        "homeplus"
      ],
      "lat": 35.8494529455235,
      "lng": 128.527408121798,
      "address": "대구 달서구 용산동 230-11",
      "roadAddress": "대구 달서구 달구벌대로 1467",
      "phone": "053-567-6016",
      "placeUrl": "http://place.map.kakao.com/126724467",
      "source": "kakao",
      "kakaoId": "126724467"
    },
    {
      "id": "kakao:426209710",
      "name": "다이소 홈플러스센텀시티점",
      "type": "mart",
      "tags": [
        "mart",
        "homeplus"
      ],
      "lat": 35.1708744071565,
      "lng": 129.133671203703,
      "address": "부산 해운대구 우동 1499",
      "roadAddress": "부산 해운대구 센텀동로 6",
      "phone": "1522-4400",
      "placeUrl": "http://place.map.kakao.com/426209710",
      "source": "kakao",
      "kakaoId": "426209710"
    },
    {
      "id": "kakao:249460107",
      "name": "다이소 홈플러스송도점",
      "type": "mart",
      "tags": [
        "mart",
        "homeplus"
      ],
      "lat": 37.380225967869094,
      "lng": 126.65637171251346,
      "address": "인천 연수구 송도동 168-3",
      "roadAddress": "인천 연수구 송도국제대로 165",
      "phone": "032-817-6016",
      "placeUrl": "http://place.map.kakao.com/249460107",
      "source": "kakao",
      "kakaoId": "249460107"
    },
    {
      "id": "kakao:1938030941",
      "name": "다이소 홈플러스야탑점",
      "type": "mart",
      "tags": [
        "mart",
        "homeplus"
      ],
      "lat": 37.4130907140286,
      "lng": 127.127327167546,
      "address": "경기 성남시 분당구 야탑동 341",
      "roadAddress": "경기 성남시 분당구 성남대로925번길 16",
      "phone": "1522-4400",
      "placeUrl": "http://place.map.kakao.com/1938030941",
      "source": "kakao",
      "kakaoId": "1938030941"
    },
    {
      "id": "kakao:27556468",
      "name": "다이소 홈플러스오산점",
      "type": "mart",
      "tags": [
        "mart",
        "homeplus"
      ],
      "lat": 37.1700466643829,
      "lng": 127.06191881783,
      "address": "경기 오산시 수청동 610",
      "roadAddress": "경기 오산시 청학로 238",
      "phone": "1522-4400",
      "placeUrl": "http://place.map.kakao.com/27556468",
      "source": "kakao",
      "kakaoId": "27556468"
    },
    {
      "id": "kakao:771707012",
      "name": "다이소 홈플러스오창점",
      "type": "mart",
      "tags": [
        "mart",
        "homeplus"
      ],
      "lat": 36.7130752986234,
      "lng": 127.428293612289,
      "address": "충북 청주시 청원구 오창읍 양청리 820",
      "roadAddress": "충북 청주시 청원구 오창읍 중심상업1로 8-11",
      "phone": "1522-4400",
      "placeUrl": "http://place.map.kakao.com/771707012",
      "source": "kakao",
      "kakaoId": "771707012"
    },
    {
      "id": "kakao:1438526138",
      "name": "다이소 홈플러스울산점",
      "type": "mart",
      "tags": [
        "mart",
        "homeplus"
      ],
      "lat": 35.5643867520544,
      "lng": 129.334860484711,
      "address": "울산 중구 복산동 100",
      "roadAddress": "울산 중구 번영로 475",
      "phone": "1522-4400",
      "placeUrl": "http://place.map.kakao.com/1438526138",
      "source": "kakao",
      "kakaoId": "1438526138"
    },
    {
      "id": "kakao:1781708886",
      "name": "다이소 홈플러스유성점",
      "type": "mart",
      "tags": [
        "mart",
        "homeplus"
      ],
      "lat": 36.3584680309225,
      "lng": 127.354340568125,
      "address": "대전 유성구 봉명동 669",
      "roadAddress": "대전 유성구 한밭대로 502",
      "phone": "042-826-6016",
      "placeUrl": "http://place.map.kakao.com/1781708886",
      "source": "kakao",
      "kakaoId": "1781708886"
    },
    {
      "id": "kakao:1497168530",
      "name": "다이소 홈플러스의정부점",
      "type": "mart",
      "tags": [
        "mart",
        "homeplus"
      ],
      "lat": 37.7521637150194,
      "lng": 127.071001888144,
      "address": "경기 의정부시 금오동 475-1",
      "roadAddress": "경기 의정부시 청사로 38",
      "phone": "1522-4400",
      "placeUrl": "http://place.map.kakao.com/1497168530",
      "source": "kakao",
      "kakaoId": "1497168530"
    },
    {
      "id": "kakao:27556271",
      "name": "다이소 홈플러스인천논현점",
      "type": "mart",
      "tags": [
        "mart",
        "homeplus"
      ],
      "lat": 37.400563972820756,
      "lng": 126.72538208568162,
      "address": "인천 남동구 논현동 650-1",
      "roadAddress": "인천 남동구 청능대로 596",
      "phone": "1522-4400",
      "placeUrl": "http://place.map.kakao.com/27556271",
      "source": "kakao",
      "kakaoId": "27556271"
    },
    {
      "id": "kakao:576512004",
      "name": "다이소 홈플러스중계점",
      "type": "mart",
      "tags": [
        "mart",
        "homeplus"
      ],
      "lat": 37.6398232957186,
      "lng": 127.068685465984,
      "address": "서울 노원구 중계동 509-2",
      "roadAddress": "서울 노원구 동일로204가길 12",
      "phone": "02-971-6016",
      "placeUrl": "http://place.map.kakao.com/576512004",
      "source": "kakao",
      "kakaoId": "576512004"
    },
    {
      "id": "kakao:1483579311",
      "name": "다이소 홈플러스진접점",
      "type": "mart",
      "tags": [
        "mart",
        "homeplus"
      ],
      "lat": 37.7217472368002,
      "lng": 127.18860448927,
      "address": "경기 남양주시 진접읍 장현리 215",
      "roadAddress": "경기 남양주시 진접읍 금강로 1447",
      "phone": "1522-4400",
      "placeUrl": "http://place.map.kakao.com/1483579311",
      "source": "kakao",
      "kakaoId": "1483579311"
    },
    {
      "id": "kakao:18664330",
      "name": "다이소 홈플러스진주점",
      "type": "mart",
      "tags": [
        "mart",
        "homeplus"
      ],
      "lat": 35.18753490908143,
      "lng": 128.11772924195333,
      "address": "경남 진주시 상대동 181-1",
      "roadAddress": "경남 진주시 대신로 304",
      "phone": "1522-4400",
      "placeUrl": "http://place.map.kakao.com/18664330",
      "source": "kakao",
      "kakaoId": "18664330"
    },
    {
      "id": "kakao:1093952551",
      "name": "다이소 홈플러스창원점",
      "type": "mart",
      "tags": [
        "mart",
        "homeplus"
      ],
      "lat": 35.2340380700859,
      "lng": 128.643616558084,
      "address": "경남 창원시 의창구 팔용동 30-3",
      "roadAddress": "경남 창원시 의창구 창원대로 415",
      "phone": "1522-4400",
      "placeUrl": "http://place.map.kakao.com/1093952551",
      "source": "kakao",
      "kakaoId": "1093952551"
    },
    {
      "id": "kakao:21878974",
      "name": "다이소 홈플러스천안신방점",
      "type": "mart",
      "tags": [
        "mart",
        "homeplus"
      ],
      "lat": 36.7870764037006,
      "lng": 127.120547700216,
      "address": "충남 천안시 동남구 신방동 784-9",
      "roadAddress": "충남 천안시 동남구 신촌1길 23",
      "phone": "1522-4400",
      "placeUrl": "http://place.map.kakao.com/21878974",
      "source": "kakao",
      "kakaoId": "21878974"
    },
    {
      "id": "kakao:26856253",
      "name": "다이소 홈플러스천안점",
      "type": "mart",
      "tags": [
        "mart",
        "homeplus"
      ],
      "lat": 36.798941191045884,
      "lng": 127.16498306196233,
      "address": "충남 천안시 동남구 구성동 50-4",
      "roadAddress": "충남 천안시 동남구 천안대로 568",
      "phone": "1522-4400",
      "placeUrl": "http://place.map.kakao.com/26856253",
      "source": "kakao",
      "kakaoId": "26856253"
    },
    {
      "id": "kakao:1011236963",
      "name": "다이소 홈플러스청주점",
      "type": "mart",
      "tags": [
        "mart",
        "homeplus"
      ],
      "lat": 36.6154342005075,
      "lng": 127.442240095814,
      "address": "충북 청주시 흥덕구 가경동 1696",
      "roadAddress": "충북 청주시 흥덕구 서부로 1291",
      "phone": "1522-4400",
      "placeUrl": "http://place.map.kakao.com/1011236963",
      "source": "kakao",
      "kakaoId": "1011236963"
    },
    {
      "id": "kakao:1498008466",
      "name": "다이소 홈플러스춘천점",
      "type": "mart",
      "tags": [
        "mart",
        "homeplus"
      ],
      "lat": 37.8506126687908,
      "lng": 127.734790499173,
      "address": "강원특별자치도 춘천시 퇴계동 141",
      "roadAddress": "강원특별자치도 춘천시 김유정로 1840",
      "phone": "1522-4400",
      "placeUrl": "http://place.map.kakao.com/1498008466",
      "source": "kakao",
      "kakaoId": "1498008466"
    },
    {
      "id": "kakao:1494110606",
      "name": "다이소 홈플러스칠곡점",
      "type": "mart",
      "tags": [
        "mart",
        "homeplus"
      ],
      "lat": 35.9448492727368,
      "lng": 128.555967537945,
      "address": "대구 북구 동천동 968",
      "roadAddress": "대구 북구 동암로12길 8",
      "phone": "053-314-6016",
      "placeUrl": "http://place.map.kakao.com/1494110606",
      "source": "kakao",
      "kakaoId": "1494110606"
    },
    {
      "id": "kakao:590617715",
      "name": "다이소 홈플러스화성동탄점",
      "type": "mart",
      "tags": [
        "mart",
        "homeplus"
      ],
      "lat": 37.2023690919742,
      "lng": 127.06877481834,
      "address": "경기 화성시 반송동 98",
      "roadAddress": "경기 화성시 동탄중앙로 200",
      "phone": "1522-4400",
      "placeUrl": "http://place.map.kakao.com/590617715",
      "source": "kakao",
      "kakaoId": "590617715"
    },
    {
      "id": "kakao:1389586452",
      "name": "다이소 홈플러스화성향남점",
      "type": "mart",
      "tags": [
        "mart",
        "homeplus"
      ],
      "lat": 37.1307328690194,
      "lng": 126.921853772149,
      "address": "경기 화성시 향남읍 행정리 487-1",
      "roadAddress": "경기 화성시 향남읍 향남로 402",
      "phone": "1522-4400",
      "placeUrl": "http://place.map.kakao.com/1389586452",
      "source": "kakao",
      "kakaoId": "1389586452"
    },
    {
      "id": "kakao:170929801",
      "name": "다이소 홈플러스e메트로시티점",
      "type": "mart",
      "tags": [
        "mart",
        "homeplus"
      ],
      "lat": 35.1272665487958,
      "lng": 129.109040874894,
      "address": "부산 남구 용호동 176-30",
      "roadAddress": "부산 남구 분포로 113",
      "phone": "1522-4400",
      "placeUrl": "http://place.map.kakao.com/170929801",
      "source": "kakao",
      "kakaoId": "170929801"
    },
    {
      "id": "kakao:8841538",
      "name": "다이애나",
      "type": "mart",
      "tags": [
        "mart",
        "homeplus"
      ],
      "lat": 35.9589017239973,
      "lng": 126.972220512651,
      "address": "전북특별자치도 익산시 영등동 831-1",
      "roadAddress": "전북특별자치도 익산시 무왕로 1035",
      "phone": "",
      "placeUrl": "http://place.map.kakao.com/8841538",
      "source": "kakao",
      "kakaoId": "8841538"
    },
    {
      "id": "kakao:442727840",
      "name": "다채원",
      "type": "mart",
      "tags": [
        "mart",
        "homeplus"
      ],
      "lat": 36.7992891248787,
      "lng": 127.164907613635,
      "address": "충남 천안시 동남구 구성동 50",
      "roadAddress": "충남 천안시 동남구 천안대로 574",
      "phone": "",
      "placeUrl": "http://place.map.kakao.com/442727840",
      "source": "kakao",
      "kakaoId": "442727840"
    },
    {
      "id": "kakao:1952877142",
      "name": "다채원 홈플러스 전주점",
      "type": "mart",
      "tags": [
        "mart",
        "homeplus"
      ],
      "lat": 35.847503636598,
      "lng": 127.152787913249,
      "address": "전북특별자치도 전주시 덕진구 우아동3가 733-1",
      "roadAddress": "전북특별자치도 전주시 덕진구 백제대로 771",
      "phone": "",
      "placeUrl": "http://place.map.kakao.com/1952877142",
      "source": "kakao",
      "kakaoId": "1952877142"
    },
    {
      "id": "kakao:973211038",
      "name": "달콤커피 홈플러스영주점",
      "type": "mart",
      "tags": [
        "mart",
        "homeplus"
      ],
      "lat": 36.8092309945672,
      "lng": 128.621261315583,
      "address": "경북 영주시 휴천동 329-1",
      "roadAddress": "경북 영주시 대학로 29",
      "phone": "",
      "placeUrl": "http://place.map.kakao.com/973211038",
      "source": "kakao",
      "kakaoId": "973211038"
    },
    {
      "id": "kakao:623657845",
      "name": "달퐁",
      "type": "mart",
      "tags": [
        "mart",
        "homeplus"
      ],
      "lat": 35.823652523668,
      "lng": 127.150112827955,
      "address": "전북특별자치도 전주시 완산구 중노송동 495-6",
      "roadAddress": "전북특별자치도 전주시 완산구 기린대로 170",
      "phone": "",
      "placeUrl": "http://place.map.kakao.com/623657845",
      "source": "kakao",
      "kakaoId": "623657845"
    },
    {
      "id": "kakao:96138265",
      "name": "닭발공작소 하남점",
      "type": "mart",
      "tags": [
        "mart",
        "homeplus"
      ],
      "lat": 35.1783214263638,
      "lng": 126.806514984381,
      "address": "광주 광산구 하남동 832",
      "roadAddress": "광주 광산구 용아로 390",
      "phone": "",
      "placeUrl": "http://place.map.kakao.com/96138265",
      "source": "kakao",
      "kakaoId": "96138265"
    },
    {
      "id": "kakao:1427006955",
      "name": "대구칠성동주상복합2차힐스테이트아파트 (예정)",
      "type": "mart",
      "tags": [
        "mart",
        "homeplus"
      ],
      "lat": 35.8816879243299,
      "lng": 128.595886336473,
      "address": "대구 북구 칠성동2가 378-21",
      "roadAddress": "대구 북구 중앙대로 543",
      "phone": "",
      "placeUrl": "http://place.map.kakao.com/1427006955",
      "source": "kakao",
      "kakaoId": "1427006955"
    },
    {
      "id": "kakao:484172598",
      "name": "댑코리아",
      "type": "mart",
      "tags": [
        "mart",
        "homeplus"
      ],
      "lat": 34.9612175598401,
      "lng": 127.520323427927,
      "address": "전남 순천시 조례동 975-1",
      "roadAddress": "전남 순천시 신월큰길 10",
      "phone": "",
      "placeUrl": "http://place.map.kakao.com/484172598",
      "source": "kakao",
      "kakaoId": "484172598"
    },
    {
      "id": "kakao:1105103277",
      "name": "더돈까스 홈플러스울산북구점",
      "type": "mart",
      "tags": [
        "mart",
        "homeplus"
      ],
      "lat": 35.6300822549348,
      "lng": 129.344835861044,
      "address": "울산 북구 상안동 322-9",
      "roadAddress": "울산 북구 신답로 26",
      "phone": "070-7768-7805",
      "placeUrl": "http://place.map.kakao.com/1105103277",
      "source": "kakao",
      "kakaoId": "1105103277"
    },
    {
      "id": "kakao:559917526",
      "name": "더모스트헤어 홈플러스 구미점",
      "type": "mart",
      "tags": [
        "mart",
        "homeplus"
      ],
      "lat": 36.1027589407948,
      "lng": 128.363721260848,
      "address": "경북 구미시 광평동 792-21",
      "roadAddress": "경북 구미시 구미대로 174",
      "phone": "",
      "placeUrl": "http://place.map.kakao.com/559917526",
      "source": "kakao",
      "kakaoId": "559917526"
    },
    {
      "id": "kakao:12629511",
      "name": "더바디샵 디큐브거제점",
      "type": "mart",
      "tags": [
        "mart",
        "homeplus"
      ],
      "lat": 34.89105681675924,
      "lng": 128.6164007171443,
      "address": "경남 거제시 장평동 1211",
      "roadAddress": "경남 거제시 장평로 12",
      "phone": "055-680-0116",
      "placeUrl": "http://place.map.kakao.com/12629511",
      "source": "kakao",
      "kakaoId": "12629511"
    },
    {
      "id": "kakao:652813054",
      "name": "더샘 홈플러스김해점",
      "type": "mart",
      "tags": [
        "mart",
        "homeplus"
      ],
      "lat": 35.2419040141788,
      "lng": 128.870264254718,
      "address": "경남 김해시 내동 1131-2",
      "roadAddress": "경남 김해시 김해대로 2078",
      "phone": "055-331-7083",
      "placeUrl": "http://place.map.kakao.com/652813054",
      "source": "kakao",
      "kakaoId": "652813054"
    },
    {
      "id": "kakao:25971000",
      "name": "더샘 홈플러스대전유성점",
      "type": "mart",
      "tags": [
        "mart",
        "homeplus"
      ],
      "lat": 36.3582583707741,
      "lng": 127.353930725214,
      "address": "대전 유성구 봉명동 669",
      "roadAddress": "대전 유성구 한밭대로 502",
      "phone": "042-822-7083",
      "placeUrl": "http://place.map.kakao.com/25971000",
      "source": "kakao",
      "kakaoId": "25971000"
    },
    {
      "id": "kakao:777161531",
      "name": "더샘 홈플러스천안점",
      "type": "mart",
      "tags": [
        "mart",
        "homeplus"
      ],
      "lat": 36.799317910652,
      "lng": 127.164943531634,
      "address": "충남 천안시 동남구 구성동 50",
      "roadAddress": "충남 천안시 동남구 천안대로 574",
      "phone": "041-551-2277",
      "placeUrl": "http://place.map.kakao.com/777161531",
      "source": "kakao",
      "kakaoId": "777161531"
    },
    {
      "id": "kakao:25884008",
      "name": "더스토아",
      "type": "mart",
      "tags": [
        "mart",
        "homeplus"
      ],
      "lat": 35.9589017239973,
      "lng": 126.972220512651,
      "address": "전북특별자치도 익산시 영등동 831-1",
      "roadAddress": "전북특별자치도 익산시 무왕로 1035",
      "phone": "070-8628-2627",
      "placeUrl": "http://place.map.kakao.com/25884008",
      "source": "kakao",
      "kakaoId": "25884008"
    },
    {
      "id": "kakao:17697070",
      "name": "더페이스샵 홈플러스 문화점",
      "type": "mart",
      "tags": [
        "mart",
        "homeplus"
      ],
      "lat": 36.3203023310427,
      "lng": 127.407751166189,
      "address": "대전 중구 문화동 1-17",
      "roadAddress": "대전 중구 계백로 1690",
      "phone": "042-255-2111",
      "placeUrl": "http://place.map.kakao.com/17697070",
      "source": "kakao",
      "kakaoId": "17697070"
    },
    {
      "id": "kakao:17697352",
      "name": "더페이스샵 홈플러스 울산북구점",
      "type": "mart",
      "tags": [
        "mart",
        "homeplus"
      ],
      "lat": 35.6300964916012,
      "lng": 129.344845106315,
      "address": "울산 북구 상안동 322-9",
      "roadAddress": "울산 북구 신답로 26",
      "phone": "052-285-3120",
      "placeUrl": "http://place.map.kakao.com/17697352",
      "source": "kakao",
      "kakaoId": "17697352"
    },
    {
      "id": "kakao:273895629",
      "name": "더페이스샵 홈플러스강릉점",
      "type": "mart",
      "tags": [
        "mart",
        "homeplus"
      ],
      "lat": 37.75571076314258,
      "lng": 128.89866915135522,
      "address": "강원특별자치도 강릉시 옥천동 189",
      "roadAddress": "강원특별자치도 강릉시 경강로 2120",
      "phone": "033-641-7402",
      "placeUrl": "http://place.map.kakao.com/273895629",
      "source": "kakao",
      "kakaoId": "273895629"
    },
    {
      "id": "kakao:17697296",
      "name": "더페이스샵 홈플러스거제점",
      "type": "mart",
      "tags": [
        "mart",
        "homeplus"
      ],
      "lat": 34.89106511519488,
      "lng": 128.61638665989094,
      "address": "경남 거제시 장평동 1211",
      "roadAddress": "경남 거제시 장평로 12",
      "phone": "055-635-0978",
      "placeUrl": "http://place.map.kakao.com/17697296",
      "source": "kakao",
      "kakaoId": "17697296"
    },
    {
      "id": "kakao:17697298",
      "name": "더페이스샵 홈플러스경남진주점",
      "type": "mart",
      "tags": [
        "mart",
        "homeplus"
      ],
      "lat": 35.1876005637599,
      "lng": 128.117744413458,
      "address": "경남 진주시 상대동 181-1",
      "roadAddress": "경남 진주시 대신로 304",
      "phone": "055-752-2779",
      "placeUrl": "http://place.map.kakao.com/17697298",
      "source": "kakao",
      "kakaoId": "17697298"
    },
    {
      "id": "kakao:17697232",
      "name": "더페이스샵 홈플러스경주점",
      "type": "mart",
      "tags": [
        "mart",
        "homeplus"
      ],
      "lat": 35.87334874076004,
      "lng": 129.22474819484776,
      "address": "경북 경주시 용강동 800-11",
      "roadAddress": "경북 경주시 공단로 97",
      "phone": "054-775-6521",
      "placeUrl": "http://place.map.kakao.com/17697232",
      "source": "kakao",
      "kakaoId": "17697232"
    },
    {
      "id": "kakao:17697493",
      "name": "더페이스샵 홈플러스광양점",
      "type": "mart",
      "tags": [
        "mart",
        "homeplus"
      ],
      "lat": 34.9284977753863,
      "lng": 127.694135822688,
      "address": "전남 광양시 중동 1811-1",
      "roadAddress": "전남 광양시 항만11로 70",
      "phone": "061-791-5906",
      "placeUrl": "http://place.map.kakao.com/17697493",
      "source": "kakao",
      "kakaoId": "17697493"
    },
    {
      "id": "kakao:17697465",
      "name": "더페이스샵 홈플러스광주하남점",
      "type": "mart",
      "tags": [
        "mart",
        "homeplus"
      ],
      "lat": 35.17796808592021,
      "lng": 126.80538397718104,
      "address": "광주 광산구 하남동 831",
      "roadAddress": "광주 광산구 용아로 390",
      "phone": "062-951-7891",
      "placeUrl": "http://place.map.kakao.com/17697465",
      "source": "kakao",
      "kakaoId": "17697465"
    },
    {
      "id": "kakao:17697224",
      "name": "더페이스샵 홈플러스구미점",
      "type": "mart",
      "tags": [
        "mart",
        "homeplus"
      ],
      "lat": 36.10282155847836,
      "lng": 128.36360352610714,
      "address": "경북 구미시 광평동 792-21",
      "roadAddress": "경북 구미시 구미대로 174",
      "phone": "054-462-2853",
      "placeUrl": "http://place.map.kakao.com/17697224",
      "source": "kakao",
      "kakaoId": "17697224"
    },
    {
      "id": "kakao:17697498",
      "name": "더페이스샵 홈플러스김제점",
      "type": "mart",
      "tags": [
        "mart",
        "homeplus"
      ],
      "lat": 35.799708215695,
      "lng": 126.902866588378,
      "address": "전북특별자치도 김제시 검산동 838",
      "roadAddress": "전북특별자치도 김제시 금성로 114",
      "phone": "063-547-8999",
      "placeUrl": "http://place.map.kakao.com/17697498",
      "source": "kakao",
      "kakaoId": "17697498"
    },
    {
      "id": "kakao:17697271",
      "name": "더페이스샵 홈플러스김해점",
      "type": "mart",
      "tags": [
        "mart",
        "homeplus"
      ],
      "lat": 35.2418816465163,
      "lng": 128.87031207402,
      "address": "경남 김해시 내동 1131-2",
      "roadAddress": "경남 김해시 김해대로 2078",
      "phone": "055-321-4199",
      "placeUrl": "http://place.map.kakao.com/17697271",
      "source": "kakao",
      "kakaoId": "17697271"
    },
    {
      "id": "kakao:17696919",
      "name": "더페이스샵 홈플러스남양주진접점",
      "type": "mart",
      "tags": [
        "mart",
        "homeplus"
      ],
      "lat": 37.721714634993155,
      "lng": 127.18870875824157,
      "address": "경기 남양주시 진접읍 장현리 215",
      "roadAddress": "경기 남양주시 진접읍 금강로 1447",
      "phone": "031-527-0746",
      "placeUrl": "http://place.map.kakao.com/17696919",
      "source": "kakao",
      "kakaoId": "17696919"
    },
    {
      "id": "kakao:17697461",
      "name": "더페이스샵 홈플러스동광주점",
      "type": "mart",
      "tags": [
        "mart",
        "homeplus"
      ],
      "lat": 35.1793339547531,
      "lng": 126.930520364299,
      "address": "광주 북구 두암동 575-1",
      "roadAddress": "광주 북구 동문대로 200",
      "phone": "062-262-6375",
      "placeUrl": "http://place.map.kakao.com/17697461",
      "source": "kakao",
      "kakaoId": "17697461"
    },
    {
      "id": "kakao:17697504",
      "name": "더페이스샵 홈플러스목포점",
      "type": "mart",
      "tags": [
        "mart",
        "homeplus"
      ],
      "lat": 34.80591248230239,
      "lng": 126.3997002551296,
      "address": "전남 목포시 용당동 1087-1",
      "roadAddress": "전남 목포시 영산로 313",
      "phone": "061-279-4397",
      "placeUrl": "http://place.map.kakao.com/17697504",
      "source": "kakao",
      "kakaoId": "17697504"
    },
    {
      "id": "kakao:17697241",
      "name": "더페이스샵 홈플러스문경점",
      "type": "mart",
      "tags": [
        "mart",
        "homeplus"
      ],
      "lat": 36.58733182264844,
      "lng": 128.19040785959814,
      "address": "경북 문경시 모전동 859-2",
      "roadAddress": "경북 문경시 모전로 65",
      "phone": "054-553-7240",
      "placeUrl": "http://place.map.kakao.com/17697241",
      "source": "kakao",
      "kakaoId": "17697241"
    },
    {
      "id": "kakao:26855940",
      "name": "더페이스샵 홈플러스밀양점",
      "type": "mart",
      "tags": [
        "mart",
        "homeplus"
      ],
      "lat": 35.48889709897478,
      "lng": 128.7407102319378,
      "address": "경남 밀양시 내이동 1402-1",
      "roadAddress": "경남 밀양시 점필재로 45",
      "phone": "055-351-0609",
      "placeUrl": "http://place.map.kakao.com/26855940",
      "source": "kakao",
      "kakaoId": "26855940"
    },
    {
      "id": "kakao:17697100",
      "name": "더페이스샵 홈플러스보령점",
      "type": "mart",
      "tags": [
        "mart",
        "homeplus"
      ],
      "lat": 36.3439926984754,
      "lng": 126.61402772403453,
      "address": "충남 보령시 동대동 400-43",
      "roadAddress": "충남 보령시 명암1길 17",
      "phone": "041-931-7652",
      "placeUrl": "http://place.map.kakao.com/17697100",
      "source": "kakao",
      "kakaoId": "17697100"
    },
    {
      "id": "kakao:17697045",
      "name": "더페이스샵 홈플러스삼척점",
      "type": "mart",
      "tags": [
        "mart",
        "homeplus"
      ],
      "lat": 37.4463829893077,
      "lng": 129.16817964177605,
      "address": "강원특별자치도 삼척시 당저동 33-3",
      "roadAddress": "강원특별자치도 삼척시 중앙로 258",
      "phone": "033-575-2162",
      "placeUrl": "http://place.map.kakao.com/17697045",
      "source": "kakao",
      "kakaoId": "17697045"
    },
    {
      "id": "kakao:17697538",
      "name": "더페이스샵 홈플러스서귀포점",
      "type": "mart",
      "tags": [
        "mart",
        "homeplus"
      ],
      "lat": 33.2605035862851,
      "lng": 126.559938975288,
      "address": "제주특별자치도 서귀포시 동홍동 1558",
      "roadAddress": "제주특별자치도 서귀포시 중앙로 180",
      "phone": "064-732-0587",
      "placeUrl": "http://place.map.kakao.com/17697538",
      "source": "kakao",
      "kakaoId": "17697538"
    },
    {
      "id": "kakao:26855057",
      "name": "더페이스샵 홈플러스세종점",
      "type": "mart",
      "tags": [
        "mart",
        "homeplus"
      ],
      "lat": 36.5074541041944,
      "lng": 127.258827042426,
      "address": "세종특별자치시 어진동 503",
      "roadAddress": "세종특별자치시 절재로 154",
      "phone": "044-862-6321",
      "placeUrl": "http://place.map.kakao.com/26855057",
      "source": "kakao",
      "kakaoId": "26855057"
    },
    {
      "id": "kakao:17696884",
      "name": "더페이스샵 홈플러스송우점",
      "type": "mart",
      "tags": [
        "mart",
        "homeplus"
      ],
      "lat": 37.8242890410445,
      "lng": 127.141287694233,
      "address": "경기 포천시 소흘읍 송우리 730-60",
      "roadAddress": "경기 포천시 소흘읍 솔모루로 9",
      "phone": "031-544-4009",
      "placeUrl": "http://place.map.kakao.com/17696884",
      "source": "kakao",
      "kakaoId": "17696884"
    },
    {
      "id": "kakao:17697487",
      "name": "더페이스샵 홈플러스순천점",
      "type": "mart",
      "tags": [
        "mart",
        "homeplus"
      ],
      "lat": 34.961183313202774,
      "lng": 127.52032211654861,
      "address": "전남 순천시 조례동 975-1",
      "roadAddress": "전남 순천시 신월큰길 10",
      "phone": "061-724-9342",
      "placeUrl": "http://place.map.kakao.com/17697487",
      "source": "kakao",
      "kakaoId": "17697487"
    },
    {
      "id": "kakao:17697269",
      "name": "더페이스샵 홈플러스안동점",
      "type": "mart",
      "tags": [
        "mart",
        "homeplus"
      ],
      "lat": 36.56257999570528,
      "lng": 128.72963271526785,
      "address": "경북 안동시 운흥동 247-28",
      "roadAddress": "경북 안동시 경동로 656",
      "phone": "054-854-0981",
      "placeUrl": "http://place.map.kakao.com/17697269",
      "source": "kakao",
      "kakaoId": "17697269"
    },
    {
      "id": "kakao:17697237",
      "name": "더페이스샵 홈플러스영주점",
      "type": "mart",
      "tags": [
        "mart",
        "homeplus"
      ],
      "lat": 36.80914696464928,
      "lng": 128.62134470335005,
      "address": "경북 영주시 휴천동 329-1",
      "roadAddress": "경북 영주시 대학로 29",
      "phone": "054-631-9997",
      "placeUrl": "http://place.map.kakao.com/17697237",
      "source": "kakao",
      "kakaoId": "17697237"
    },
    {
      "id": "kakao:17697128",
      "name": "더페이스샵 홈플러스오창점",
      "type": "mart",
      "tags": [
        "mart",
        "homeplus"
      ],
      "lat": 36.7129942639828,
      "lng": 127.428275254562,
      "address": "충북 청주시 청원구 오창읍 양청리 820",
      "roadAddress": "충북 청주시 청원구 오창읍 중심상업1로 8-11",
      "phone": "043-211-3367",
      "placeUrl": "http://place.map.kakao.com/17697128",
      "source": "kakao",
      "kakaoId": "17697128"
    },
    {
      "id": "kakao:17697353",
      "name": "더페이스샵 홈플러스울산동구점",
      "type": "mart",
      "tags": [
        "mart",
        "homeplus"
      ],
      "lat": 35.4990657691902,
      "lng": 129.427515568824,
      "address": "울산 동구 일산동 577-1",
      "roadAddress": "울산 동구 방어진순환도로 637",
      "phone": "052-232-0655",
      "placeUrl": "http://place.map.kakao.com/17697353",
      "source": "kakao",
      "kakaoId": "17697353"
    },
    {
      "id": "kakao:19630524",
      "name": "더페이스샵 홈플러스원주점",
      "type": "mart",
      "tags": [
        "mart",
        "homeplus"
      ],
      "lat": 37.3177545095648,
      "lng": 127.967353374458,
      "address": "강원특별자치도 원주시 관설동 1453",
      "roadAddress": "강원특별자치도 원주시 치악로 1489",
      "phone": "033-762-7106",
      "placeUrl": "http://place.map.kakao.com/19630524",
      "source": "kakao",
      "kakaoId": "19630524"
    },
    {
      "id": "kakao:17697499",
      "name": "더페이스샵 홈플러스익산점",
      "type": "mart",
      "tags": [
        "mart",
        "homeplus"
      ],
      "lat": 35.9588909060392,
      "lng": 126.972207214213,
      "address": "전북특별자치도 익산시 영등동 831-1",
      "roadAddress": "전북특별자치도 익산시 무왕로 1035",
      "phone": "",
      "placeUrl": "http://place.map.kakao.com/17697499",
      "source": "kakao",
      "kakaoId": "17697499"
    },
    {
      "id": "kakao:17697502",
      "name": "더페이스샵 홈플러스전북전주점",
      "type": "mart",
      "tags": [
        "mart",
        "homeplus"
      ],
      "lat": 35.8475394388662,
      "lng": 127.152982807928,
      "address": "전북특별자치도 전주시 덕진구 우아동3가 733-1",
      "roadAddress": "전북특별자치도 전주시 덕진구 백제대로 771",
      "phone": "063-247-2004",
      "placeUrl": "http://place.map.kakao.com/17697502",
      "source": "kakao",
      "kakaoId": "17697502"
    },
    {
      "id": "kakao:17697532",
      "name": "더페이스샵 홈플러스전주효자점",
      "type": "mart",
      "tags": [
        "mart",
        "homeplus"
      ],
      "lat": 35.8066186942644,
      "lng": 127.114016614775,
      "address": "전북특별자치도 전주시 완산구 효자동1가 431-5",
      "roadAddress": "전북특별자치도 전주시 완산구 용머리로 31",
      "phone": "063-221-8410",
      "placeUrl": "http://place.map.kakao.com/17697532",
      "source": "kakao",
      "kakaoId": "17697532"
    },
    {
      "id": "kakao:17697122",
      "name": "더페이스샵 홈플러스조치원점",
      "type": "mart",
      "tags": [
        "mart",
        "homeplus"
      ],
      "lat": 36.5863113320586,
      "lng": 127.297636597102,
      "address": "세종특별자치시 조치원읍 번암리 53",
      "roadAddress": "세종특별자치시 조치원읍 허만석로 60",
      "phone": "044-862-2167",
      "placeUrl": "http://place.map.kakao.com/17697122",
      "source": "kakao",
      "kakaoId": "17697122"
    },
    {
      "id": "kakao:17697303",
      "name": "더페이스샵 홈플러스진해점",
      "type": "mart",
      "tags": [
        "mart",
        "homeplus"
      ],
      "lat": 35.1531997472787,
      "lng": 128.691140104585,
      "address": "경남 창원시 진해구 이동 536-10",
      "roadAddress": "경남 창원시 진해구 충장로 356",
      "phone": "",
      "placeUrl": "http://place.map.kakao.com/17697303",
      "source": "kakao",
      "kakaoId": "17697303"
    },
    {
      "id": "kakao:17697278",
      "name": "더페이스샵 홈플러스창원점",
      "type": "mart",
      "tags": [
        "mart",
        "homeplus"
      ],
      "lat": 35.2341273324871,
      "lng": 128.643679870508,
      "address": "경남 창원시 의창구 팔용동 30-3",
      "roadAddress": "경남 창원시 의창구 창원대로 415",
      "phone": "055-265-7999",
      "placeUrl": "http://place.map.kakao.com/17697278",
      "source": "kakao",
      "kakaoId": "17697278"
    },
    {
      "id": "kakao:11555654",
      "name": "더페이스샵 홈플러스청주점",
      "type": "mart",
      "tags": [
        "mart",
        "homeplus"
      ],
      "lat": 36.6153650685592,
      "lng": 127.442414082981,
      "address": "충북 청주시 흥덕구 가경동 1696",
      "roadAddress": "충북 청주시 흥덕구 서부로 1291",
      "phone": "043-231-9685",
      "placeUrl": "http://place.map.kakao.com/11555654",
      "source": "kakao",
      "kakaoId": "11555654"
    },
    {
      "id": "kakao:17697053",
      "name": "더페이스샵 홈플러스춘천점",
      "type": "mart",
      "tags": [
        "mart",
        "homeplus"
      ],
      "lat": 37.8506058587641,
      "lng": 127.734726804006,
      "address": "강원특별자치도 춘천시 퇴계동 141",
      "roadAddress": "강원특별자치도 춘천시 김유정로 1840",
      "phone": "033-261-4721",
      "placeUrl": "http://place.map.kakao.com/17697053",
      "source": "kakao",
      "kakaoId": "17697053"
    },
    {
      "id": "kakao:17696905",
      "name": "더페이스샵 홈플러스파주문산점",
      "type": "mart",
      "tags": [
        "mart",
        "homeplus"
      ],
      "lat": 37.8696072177337,
      "lng": 126.785047478766,
      "address": "경기 파주시 문산읍 당동리 880",
      "roadAddress": "경기 파주시 문산읍 방촌로 1759",
      "phone": "031-952-0562",
      "placeUrl": "http://place.map.kakao.com/17696905",
      "source": "kakao",
      "kakaoId": "17696905"
    },
    {
      "id": "kakao:17696972",
      "name": "더페이스샵 홈플러스평택안중점",
      "type": "mart",
      "tags": [
        "mart",
        "homeplus"
      ],
      "lat": 36.99004459117792,
      "lng": 126.91634435765889,
      "address": "경기 평택시 안중읍 현화리 637-19",
      "roadAddress": "경기 평택시 안중읍 서동대로 1489",
      "phone": "031-681-1492",
      "placeUrl": "http://place.map.kakao.com/17696972",
      "source": "kakao",
      "kakaoId": "17696972"
    },
    {
      "id": "kakao:22218704",
      "name": "더플러스",
      "type": "mart",
      "tags": [
        "mart",
        "homeplus"
      ],
      "lat": 37.8243142677485,
      "lng": 127.141287742326,
      "address": "경기 포천시 소흘읍 송우리 730-60",
      "roadAddress": "경기 포천시 소흘읍 솔모루로 9",
      "phone": "",
      "placeUrl": "http://place.map.kakao.com/22218704",
      "source": "kakao",
      "kakaoId": "22218704"
    },
    {
      "id": "kakao:597951402",
      "name": "더플러스몰",
      "type": "mart",
      "tags": [
        "mart",
        "homeplus"
      ],
      "lat": 36.507391939517,
      "lng": 127.258820137762,
      "address": "세종특별자치시 어진동 503",
      "roadAddress": "세종특별자치시 절재로 154",
      "phone": "",
      "placeUrl": "http://place.map.kakao.com/597951402",
      "source": "kakao",
      "kakaoId": "597951402"
    },
    {
      "id": "kakao:527794769",
      "name": "더피치 천안신방점",
      "type": "mart",
      "tags": [
        "mart",
        "homeplus"
      ],
      "lat": 36.7871448882703,
      "lng": 127.120547807494,
      "address": "충남 천안시 동남구 신방동 784-9",
      "roadAddress": "충남 천안시 동남구 신촌1길 23",
      "phone": "010-9369-1378",
      "placeUrl": "http://place.map.kakao.com/527794769",
      "source": "kakao",
      "kakaoId": "527794769"
    },
    {
      "id": "kakao:1010552554",
      "name": "더하기약국",
      "type": "mart",
      "tags": [
        "mart",
        "homeplus"
      ],
      "lat": 37.7215423867955,
      "lng": 127.188810404153,
      "address": "경기 남양주시 진접읍 장현리 216-1",
      "roadAddress": "경기 남양주시 진접읍 금강로 1447",
      "phone": "031-575-1727",
      "placeUrl": "http://place.map.kakao.com/1010552554",
      "source": "kakao",
      "kakaoId": "1010552554"
    },
    {
      "id": "kakao:12323827",
      "name": "던킨 거제고현점",
      "type": "mart",
      "tags": [
        "mart",
        "homeplus"
      ],
      "lat": 34.89003059509805,
      "lng": 128.62246333712662,
      "address": "경남 거제시 고현동 978-12",
      "roadAddress": "경남 거제시 거제중앙로 1928",
      "phone": "055-638-3337",
      "placeUrl": "http://place.map.kakao.com/12323827",
      "source": "kakao",
      "kakaoId": "12323827"
    },
    {
      "id": "kakao:12323533",
      "name": "던킨 대전유성홈플러스점",
      "type": "mart",
      "tags": [
        "mart",
        "homeplus"
      ],
      "lat": 36.3586456777325,
      "lng": 127.354605427914,
      "address": "대전 유성구 봉명동 669",
      "roadAddress": "대전 유성구 한밭대로 502",
      "phone": "042-823-4949",
      "placeUrl": "http://place.map.kakao.com/12323533",
      "source": "kakao",
      "kakaoId": "12323533"
    },
    {
      "id": "kakao:13042049",
      "name": "던킨 수성홈플러스점",
      "type": "mart",
      "tags": [
        "mart",
        "homeplus"
      ],
      "lat": 35.8395521130686,
      "lng": 128.623538617474,
      "address": "대구 수성구 두산동 113",
      "roadAddress": "대구 수성구 동대구로 95",
      "phone": "053-763-8799",
      "placeUrl": "http://place.map.kakao.com/13042049",
      "source": "kakao",
      "kakaoId": "13042049"
    },
    {
      "id": "kakao:12323664",
      "name": "던킨 울산동구홈플러스점",
      "type": "mart",
      "tags": [
        "mart",
        "homeplus"
      ],
      "lat": 35.499063319926535,
      "lng": 129.42745819934916,
      "address": "울산 동구 일산동 577-1",
      "roadAddress": "울산 동구 방어진순환도로 637",
      "phone": "052-209-1100",
      "placeUrl": "http://place.map.kakao.com/12323664",
      "source": "kakao",
      "kakaoId": "12323664"
    },
    {
      "id": "kakao:565282609",
      "name": "던킨 전주효자홈플러스점",
      "type": "mart",
      "tags": [
        "mart",
        "homeplus"
      ],
      "lat": 35.806361187215224,
      "lng": 127.11374849919571,
      "address": "전북특별자치도 전주시 완산구 효자동1가 431-5",
      "roadAddress": "전북특별자치도 전주시 완산구 용머리로 31",
      "phone": "063-227-1110",
      "placeUrl": "http://place.map.kakao.com/565282609",
      "source": "kakao",
      "kakaoId": "565282609"
    },
    {
      "id": "kakao:179726443",
      "name": "던킨 진접홈플러스점",
      "type": "mart",
      "tags": [
        "mart",
        "homeplus"
      ],
      "lat": 37.721395769976155,
      "lng": 127.18922176548547,
      "address": "경기 남양주시 진접읍 장현리 216-1",
      "roadAddress": "경기 남양주시 진접읍 금강로 1447",
      "phone": "",
      "placeUrl": "http://place.map.kakao.com/179726443",
      "source": "kakao",
      "kakaoId": "179726443"
    },
    {
      "id": "kakao:42712421",
      "name": "던킨 홈플러스기장정관점",
      "type": "mart",
      "tags": [
        "mart",
        "homeplus"
      ],
      "lat": 35.3230509891413,
      "lng": 129.176379469569,
      "address": "부산 기장군 정관읍 매학리 712-1",
      "roadAddress": "부산 기장군 정관읍 정관5로 50",
      "phone": "051-727-1197",
      "placeUrl": "http://place.map.kakao.com/42712421",
      "source": "kakao",
      "kakaoId": "42712421"
    },
    {
      "id": "kakao:12151502",
      "name": "데코플라워 오창점",
      "type": "mart",
      "tags": [
        "mart",
        "homeplus"
      ],
      "lat": 36.7130197202797,
      "lng": 127.428212718026,
      "address": "충북 청주시 청원구 오창읍 양청리 820",
      "roadAddress": "충북 청주시 청원구 오창읍 중심상업1로 8-11",
      "phone": "",
      "placeUrl": "http://place.map.kakao.com/12151502",
      "source": "kakao",
      "kakaoId": "12151502"
    },
    {
      "id": "kakao:26484252",
      "name": "데코플라워세종점",
      "type": "mart",
      "tags": [
        "mart",
        "homeplus"
      ],
      "lat": 36.50747574048088,
      "lng": 127.25840739082402,
      "address": "세종특별자치시 어진동 503",
      "roadAddress": "세종특별자치시 절재로 154",
      "phone": "044-863-5639",
      "placeUrl": "http://place.map.kakao.com/26484252",
      "source": "kakao",
      "kakaoId": "26484252"
    },
    {
      "id": "kakao:8890670",
      "name": "도그플러스 동물병원",
      "type": "mart",
      "tags": [
        "mart",
        "homeplus"
      ],
      "lat": 34.890898640974,
      "lng": 128.616366991159,
      "address": "경남 거제시 장평동 59",
      "roadAddress": "경남 거제시 장평로 12",
      "phone": "055-680-0975",
      "placeUrl": "http://place.map.kakao.com/8890670",
      "source": "kakao",
      "kakaoId": "8890670"
    },
    {
      "id": "kakao:16467152",
      "name": "도그플러스 풍무점",
      "type": "mart",
      "tags": [
        "mart",
        "homeplus"
      ],
      "lat": 37.60996575532492,
      "lng": 126.7241224482297,
      "address": "경기 김포시 풍무동 38-1",
      "roadAddress": "경기 김포시 풍무로 167",
      "phone": "031-996-0975",
      "placeUrl": "http://place.map.kakao.com/16467152",
      "source": "kakao",
      "kakaoId": "16467152"
    },
    {
      "id": "kakao:12375449",
      "name": "도그플러스동물병원",
      "type": "mart",
      "tags": [
        "mart",
        "homeplus"
      ],
      "lat": 35.2418427501787,
      "lng": 128.870029970438,
      "address": "경남 김해시 내동 1131-2",
      "roadAddress": "경남 김해시 김해대로 2078",
      "phone": "",
      "placeUrl": "http://place.map.kakao.com/12375449",
      "source": "kakao",
      "kakaoId": "12375449"
    },
    {
      "id": "kakao:15452463",
      "name": "도그플러스동물병원",
      "type": "mart",
      "tags": [
        "mart",
        "homeplus"
      ],
      "lat": 37.75213666687024,
      "lng": 127.07103363452623,
      "address": "경기 의정부시 금오동 475-1",
      "roadAddress": "경기 의정부시 청사로 38",
      "phone": "031-851-7373",
      "placeUrl": "http://place.map.kakao.com/15452463",
      "source": "kakao",
      "kakaoId": "15452463"
    },
    {
      "id": "kakao:14624039",
      "name": "도그플러스동물병원",
      "type": "mart",
      "tags": [
        "mart",
        "homeplus"
      ],
      "lat": 36.102755033657104,
      "lng": 128.36374784386524,
      "address": "경북 구미시 광평동 792-21",
      "roadAddress": "경북 구미시 구미대로 174",
      "phone": "054-462-0075",
      "placeUrl": "http://place.map.kakao.com/14624039",
      "source": "kakao",
      "kakaoId": "14624039"
    },
    {
      "id": "kakao:783370551",
      "name": "돈풍휴게소 원주점",
      "type": "mart",
      "tags": [
        "mart",
        "homeplus"
      ],
      "lat": 37.3177152570487,
      "lng": 127.967305490481,
      "address": "강원특별자치도 원주시 관설동 1453",
      "roadAddress": "강원특별자치도 원주시 치악로 1489",
      "phone": "",
      "placeUrl": "http://place.map.kakao.com/783370551",
      "source": "kakao",
      "kakaoId": "783370551"
    },
    {
      "id": "kakao:293255084",
      "name": "두끼떡볶이 홈플러스 거제점",
      "type": "mart",
      "tags": [
        "mart",
        "homeplus"
      ],
      "lat": 34.8910651274519,
      "lng": 128.616589019162,
      "address": "경남 거제시 장평동 1211",
      "roadAddress": "경남 거제시 장평로 12",
      "phone": "055-638-0042",
      "placeUrl": "http://place.map.kakao.com/293255084",
      "source": "kakao",
      "kakaoId": "293255084"
    },
    {
      "id": "kakao:1805852333",
      "name": "두끼떡볶이 홈플러스센텀시티점",
      "type": "mart",
      "tags": [
        "mart",
        "homeplus"
      ],
      "lat": 35.170914630775,
      "lng": 129.133689814366,
      "address": "부산 해운대구 우동 1499",
      "roadAddress": "부산 해운대구 센텀동로 6",
      "phone": "051-744-2990",
      "placeUrl": "http://place.map.kakao.com/1805852333",
      "source": "kakao",
      "kakaoId": "1805852333"
    },
    {
      "id": "kakao:1301345931",
      "name": "두끼떡볶이 홈플러스영주점",
      "type": "mart",
      "tags": [
        "mart",
        "homeplus"
      ],
      "lat": 36.8091469646493,
      "lng": 128.62134470335,
      "address": "경북 영주시 휴천동 329-1",
      "roadAddress": "경북 영주시 대학로 29",
      "phone": "054-635-2771",
      "placeUrl": "http://place.map.kakao.com/1301345931",
      "source": "kakao",
      "kakaoId": "1301345931"
    },
    {
      "id": "kakao:490641765",
      "name": "두드림독서실 홈플러스점",
      "type": "mart",
      "tags": [
        "mart",
        "homeplus"
      ],
      "lat": 37.851217545793,
      "lng": 127.736032705642,
      "address": "강원특별자치도 춘천시 퇴계동 111-23",
      "roadAddress": "강원특별자치도 춘천시 김유정로 1852-35",
      "phone": "",
      "placeUrl": "http://place.map.kakao.com/490641765",
      "source": "kakao",
      "kakaoId": "490641765"
    },
    {
      "id": "kakao:722156047",
      "name": "두쏠아이 홈플러스창원점",
      "type": "mart",
      "tags": [
        "mart",
        "homeplus"
      ],
      "lat": 35.2340371839814,
      "lng": 128.64361544178,
      "address": "경남 창원시 의창구 팔용동 30-3",
      "roadAddress": "경남 창원시 의창구 창원대로 415",
      "phone": "0503-7150-7612",
      "placeUrl": "http://place.map.kakao.com/722156047",
      "source": "kakao",
      "kakaoId": "722156047"
    },
    {
      "id": "kakao:1002419028",
      "name": "두쏠헤어 송탄점",
      "type": "mart",
      "tags": [
        "mart",
        "homeplus"
      ],
      "lat": 37.0449943919802,
      "lng": 127.059465462832,
      "address": "경기 평택시 장당동 390-1",
      "roadAddress": "경기 평택시 경기대로 1103",
      "phone": "",
      "placeUrl": "http://place.map.kakao.com/1002419028",
      "source": "kakao",
      "kakaoId": "1002419028"
    },
    {
      "id": "kakao:1976859938",
      "name": "두쏠헤어 홈플러스 김해점",
      "type": "mart",
      "tags": [
        "mart",
        "homeplus"
      ],
      "lat": 35.2419040480837,
      "lng": 128.870262058531,
      "address": "경남 김해시 내동 1131-2",
      "roadAddress": "경남 김해시 김해대로 2078",
      "phone": "055-328-2003",
      "placeUrl": "http://place.map.kakao.com/1976859938",
      "source": "kakao",
      "kakaoId": "1976859938"
    },
    {
      "id": "kakao:1623550984",
      "name": "두쏠헤어 홈플러스 포천송우점",
      "type": "mart",
      "tags": [
        "mart",
        "homeplus"
      ],
      "lat": 37.8242854535781,
      "lng": 127.141274057487,
      "address": "경기 포천시 소흘읍 송우리 730-60",
      "roadAddress": "경기 포천시 소흘읍 솔모루로 9",
      "phone": "",
      "placeUrl": "http://place.map.kakao.com/1623550984",
      "source": "kakao",
      "kakaoId": "1623550984"
    },
    {
      "id": "kakao:15454890",
      "name": "두쏠헤어 홈플러스구미점",
      "type": "mart",
      "tags": [
        "mart",
        "homeplus"
      ],
      "lat": 36.10275972804232,
      "lng": 128.3637312684188,
      "address": "경북 구미시 광평동 792-21",
      "roadAddress": "경북 구미시 구미대로 174",
      "phone": "054-463-5620",
      "placeUrl": "http://place.map.kakao.com/15454890",
      "source": "kakao",
      "kakaoId": "15454890"
    },
    {
      "id": "kakao:321373233",
      "name": "두원리퍼브",
      "type": "mart",
      "tags": [
        "mart",
        "homeplus"
      ],
      "lat": 35.1873082869798,
      "lng": 128.11767453848,
      "address": "경남 진주시 상대동 181-1",
      "roadAddress": "경남 진주시 대신로 304",
      "phone": "",
      "placeUrl": "http://place.map.kakao.com/321373233",
      "source": "kakao",
      "kakaoId": "321373233"
    },
    {
      "id": "kakao:2087311768",
      "name": "두원리퍼브 목포점",
      "type": "mart",
      "tags": [
        "mart",
        "homeplus"
      ],
      "lat": 34.8059364794128,
      "lng": 126.399631232391,
      "address": "전남 목포시 용당동 1087-1",
      "roadAddress": "전남 목포시 영산로 313",
      "phone": "",
      "placeUrl": "http://place.map.kakao.com/2087311768",
      "source": "kakao",
      "kakaoId": "2087311768"
    },
    {
      "id": "kakao:4991313",
      "name": "두원리퍼브 평택안중점",
      "type": "mart",
      "tags": [
        "mart",
        "homeplus"
      ],
      "lat": 36.9902302403796,
      "lng": 126.916381223384,
      "address": "경기 평택시 안중읍 현화리 637-19",
      "roadAddress": "경기 평택시 안중읍 서동대로 1489",
      "phone": "031-681-7746",
      "placeUrl": "http://place.map.kakao.com/4991313",
      "source": "kakao",
      "kakaoId": "4991313"
    },
    {
      "id": "kakao:1165673496",
      "name": "두원리퍼브 홈플러스논산점",
      "type": "mart",
      "tags": [
        "mart",
        "homeplus"
      ],
      "lat": 36.1835971507622,
      "lng": 127.09831664641,
      "address": "충남 논산시 내동 436-8",
      "roadAddress": "충남 논산시 시민로 187",
      "phone": "010-3656-6635",
      "placeUrl": "http://place.map.kakao.com/1165673496",
      "source": "kakao",
      "kakaoId": "1165673496"
    },
    {
      "id": "kakao:715038815",
      "name": "두원리퍼브마켓 홈플러스 조치원점",
      "type": "mart",
      "tags": [
        "mart",
        "homeplus"
      ],
      "lat": 36.5863113432191,
      "lng": 127.297632127468,
      "address": "세종특별자치시 조치원읍 번암리 53",
      "roadAddress": "세종특별자치시 조치원읍 허만석로 60",
      "phone": "",
      "placeUrl": "http://place.map.kakao.com/715038815",
      "source": "kakao",
      "kakaoId": "715038815"
    },
    {
      "id": "kakao:1796741100",
      "name": "드고아by에끌라 강릉점",
      "type": "mart",
      "tags": [
        "mart",
        "homeplus"
      ],
      "lat": 37.7556894077223,
      "lng": 128.898652720725,
      "address": "강원특별자치도 강릉시 옥천동 189",
      "roadAddress": "강원특별자치도 강릉시 경강로 2120",
      "phone": "",
      "placeUrl": "http://place.map.kakao.com/1796741100",
      "source": "kakao",
      "kakaoId": "1796741100"
    },
    {
      "id": "kakao:1789028087",
      "name": "디스커버리 패션아일랜드",
      "type": "mart",
      "tags": [
        "mart",
        "homeplus"
      ],
      "lat": 36.306939796649395,
      "lng": 127.45751358576041,
      "address": "대전 동구 가오동 557",
      "roadAddress": "대전 동구 은어송로 72",
      "phone": "042-335-0817",
      "placeUrl": "http://place.map.kakao.com/1789028087",
      "source": "kakao",
      "kakaoId": "1789028087"
    },
    {
      "id": "kakao:793366544",
      "name": "디즈니골프 홈플러스진주점",
      "type": "mart",
      "tags": [
        "mart",
        "homeplus"
      ],
      "lat": 35.1875791379977,
      "lng": 128.117722162567,
      "address": "경남 진주시 상대동 181-1",
      "roadAddress": "경남 진주시 대신로 304",
      "phone": "055-761-1730",
      "placeUrl": "http://place.map.kakao.com/793366544",
      "source": "kakao",
      "kakaoId": "793366544"
    },
    {
      "id": "kakao:15429035",
      "name": "디큐브 거제백화점",
      "type": "mart",
      "tags": [
        "mart",
        "homeplus"
      ],
      "lat": 34.8910702443539,
      "lng": 128.61647536082,
      "address": "경남 거제시 장평동 1211",
      "roadAddress": "경남 거제시 장평로 12",
      "phone": "055-680-0001",
      "placeUrl": "http://place.map.kakao.com/15429035",
      "source": "kakao",
      "kakaoId": "15429035"
    },
    {
      "id": "kakao:25853531",
      "name": "디펄스의류",
      "type": "mart",
      "tags": [
        "mart",
        "homeplus"
      ],
      "lat": 34.9283604734444,
      "lng": 127.694187199894,
      "address": "전남 광양시 중동 1811-1",
      "roadAddress": "전남 광양시 항만11로 70",
      "phone": "",
      "placeUrl": "http://place.map.kakao.com/25853531",
      "source": "kakao",
      "kakaoId": "25853531"
    },
    {
      "id": "kakao:1898172249",
      "name": "또바기",
      "type": "mart",
      "tags": [
        "mart",
        "homeplus"
      ],
      "lat": 37.8697333103495,
      "lng": 126.785025518529,
      "address": "경기 파주시 문산읍 당동리 880",
      "roadAddress": "경기 파주시 문산읍 방촌로 1759",
      "phone": "010-9468-9592",
      "placeUrl": "http://place.map.kakao.com/1898172249",
      "source": "kakao",
      "kakaoId": "1898172249"
    },
    {
      "id": "kakao:413025134",
      "name": "라브리지 진해홈플러스점",
      "type": "mart",
      "tags": [
        "mart",
        "homeplus"
      ],
      "lat": 35.1532038385399,
      "lng": 128.691169816875,
      "address": "경남 창원시 진해구 이동 536-10",
      "roadAddress": "경남 창원시 진해구 충장로 356",
      "phone": "055-547-6708",
      "placeUrl": "http://place.map.kakao.com/413025134",
      "source": "kakao",
      "kakaoId": "413025134"
    },
    {
      "id": "kakao:1062848574",
      "name": "라온북스",
      "type": "mart",
      "tags": [
        "mart",
        "homeplus"
      ],
      "lat": 36.3069677273569,
      "lng": 127.457985836554,
      "address": "대전 동구 가오동 557",
      "roadAddress": "대전 동구 은어송로 72",
      "phone": "070-8224-1000",
      "placeUrl": "http://place.map.kakao.com/1062848574",
      "source": "kakao",
      "kakaoId": "1062848574"
    },
    {
      "id": "kakao:969672851",
      "name": "라피네토탈뷰티살롱",
      "type": "mart",
      "tags": [
        "mart",
        "homeplus"
      ],
      "lat": 37.7556616624872,
      "lng": 128.898697396183,
      "address": "강원특별자치도 강릉시 옥천동 189",
      "roadAddress": "강원특별자치도 강릉시 경강로 2120",
      "phone": "033-642-8584",
      "placeUrl": "http://place.map.kakao.com/969672851",
      "source": "kakao",
      "kakaoId": "969672851"
    },
    {
      "id": "kakao:27445907",
      "name": "런던포그 문화점",
      "type": "mart",
      "tags": [
        "mart",
        "homeplus"
      ],
      "lat": 36.3203207037222,
      "lng": 127.407648810106,
      "address": "대전 중구 문화동 1-17",
      "roadAddress": "대전 중구 계백로 1690",
      "phone": "070-4403-0116",
      "placeUrl": "http://place.map.kakao.com/27445907",
      "source": "kakao",
      "kakaoId": "27445907"
    },
    {
      "id": "kakao:27445588",
      "name": "런던포그 안동점",
      "type": "mart",
      "tags": [
        "mart",
        "homeplus"
      ],
      "lat": 36.5625721873132,
      "lng": 128.729549888132,
      "address": "경북 안동시 운흥동 247-28",
      "roadAddress": "경북 안동시 경동로 656",
      "phone": "054-854-6824",
      "placeUrl": "http://place.map.kakao.com/27445588",
      "source": "kakao",
      "kakaoId": "27445588"
    },
    {
      "id": "kakao:27446006",
      "name": "런던포그 진주점",
      "type": "mart",
      "tags": [
        "mart",
        "homeplus"
      ],
      "lat": 35.1875828643149,
      "lng": 128.117709039124,
      "address": "경남 진주시 상대동 181-1",
      "roadAddress": "경남 진주시 대신로 304",
      "phone": "055-755-6506",
      "placeUrl": "http://place.map.kakao.com/27446006",
      "source": "kakao",
      "kakaoId": "27446006"
    },
    {
      "id": "kakao:27445106",
      "name": "런던포그 춘천점",
      "type": "mart",
      "tags": [
        "mart",
        "homeplus"
      ],
      "lat": 37.8506199041742,
      "lng": 127.734786026154,
      "address": "강원특별자치도 춘천시 퇴계동 141",
      "roadAddress": "강원특별자치도 춘천시 김유정로 1840",
      "phone": "070-4107-2590",
      "placeUrl": "http://place.map.kakao.com/27445106",
      "source": "kakao",
      "kakaoId": "27445106"
    },
    {
      "id": "kakao:262442482",
      "name": "런던포그 홈플러스논산점",
      "type": "mart",
      "tags": [
        "mart",
        "homeplus"
      ],
      "lat": 36.1835971508535,
      "lng": 127.098316535243,
      "address": "충남 논산시 내동 436-8",
      "roadAddress": "충남 논산시 시민로 187",
      "phone": "041-735-2133",
      "placeUrl": "http://place.map.kakao.com/262442482",
      "source": "kakao",
      "kakaoId": "262442482"
    },
    {
      "id": "kakao:1158740892",
      "name": "런던포그 홈플러스문산점",
      "type": "mart",
      "tags": [
        "mart",
        "homeplus"
      ],
      "lat": 37.8696931982705,
      "lng": 126.784915960783,
      "address": "경기 파주시 문산읍 당동리 880",
      "roadAddress": "경기 파주시 문산읍 방촌로 1759",
      "phone": "031-952-7608",
      "placeUrl": "http://place.map.kakao.com/1158740892",
      "source": "kakao",
      "kakaoId": "1158740892"
    },
    {
      "id": "kakao:377630491",
      "name": "런던포그 홈플러스삼척점",
      "type": "mart",
      "tags": [
        "mart",
        "homeplus"
      ],
      "lat": 37.4464266902896,
      "lng": 129.168301800306,
      "address": "강원특별자치도 삼척시 당저동 33-3",
      "roadAddress": "강원특별자치도 삼척시 중앙로 258",
      "phone": "033-575-1688",
      "placeUrl": "http://place.map.kakao.com/377630491",
      "source": "kakao",
      "kakaoId": "377630491"
    },
    {
      "id": "kakao:490151609",
      "name": "런던포그 홈플러스영주점",
      "type": "mart",
      "tags": [
        "mart",
        "homeplus"
      ],
      "lat": 36.8091469646493,
      "lng": 128.62134470335,
      "address": "경북 영주시 휴천동 329-1",
      "roadAddress": "경북 영주시 대학로 29",
      "phone": "054-635-7337",
      "placeUrl": "http://place.map.kakao.com/490151609",
      "source": "kakao",
      "kakaoId": "490151609"
    },
    {
      "id": "kakao:201929688",
      "name": "런던포그 홈플러스익산점",
      "type": "mart",
      "tags": [
        "mart",
        "homeplus"
      ],
      "lat": 35.9589016338734,
      "lng": 126.972220512683,
      "address": "전북특별자치도 익산시 영등동 831-1",
      "roadAddress": "전북특별자치도 익산시 무왕로 1035",
      "phone": "",
      "placeUrl": "http://place.map.kakao.com/201929688",
      "source": "kakao",
      "kakaoId": "201929688"
    },
    {
      "id": "kakao:26081216",
      "name": "레드아이 홈플러스 구미광평점",
      "type": "mart",
      "tags": [
        "mart",
        "homeplus"
      ],
      "lat": 36.1027550336571,
      "lng": 128.363747843865,
      "address": "경북 구미시 광평동 792-21",
      "roadAddress": "경북 구미시 구미대로 174",
      "phone": "",
      "placeUrl": "http://place.map.kakao.com/26081216",
      "source": "kakao",
      "kakaoId": "26081216"
    },
    {
      "id": "kakao:14742208",
      "name": "레드페이스 홈플러스 서귀포점",
      "type": "mart",
      "tags": [
        "mart",
        "homeplus"
      ],
      "lat": 33.2605252553705,
      "lng": 126.559947452292,
      "address": "제주특별자치도 서귀포시 동홍동 1558",
      "roadAddress": "제주특별자치도 서귀포시 중앙로 180",
      "phone": "064-732-9532",
      "placeUrl": "http://place.map.kakao.com/14742208",
      "source": "kakao",
      "kakaoId": "14742208"
    },
    {
      "id": "kakao:17742228",
      "name": "레드페이스 홈플러스 전주완산점",
      "type": "mart",
      "tags": [
        "mart",
        "homeplus"
      ],
      "lat": 35.8236921900409,
      "lng": 127.150104049565,
      "address": "전북특별자치도 전주시 완산구 중노송동 495-6",
      "roadAddress": "전북특별자치도 전주시 완산구 기린대로 170",
      "phone": "063-285-4450",
      "placeUrl": "http://place.map.kakao.com/17742228",
      "source": "kakao",
      "kakaoId": "17742228"
    },
    {
      "id": "kakao:1512582785",
      "name": "레드페이스 홈플러스 진접점",
      "type": "mart",
      "tags": [
        "mart",
        "homeplus"
      ],
      "lat": 37.7215405848608,
      "lng": 127.188810399579,
      "address": "경기 남양주시 진접읍 장현리 216-1",
      "roadAddress": "경기 남양주시 진접읍 금강로 1447",
      "phone": "031-528-1576",
      "placeUrl": "http://place.map.kakao.com/1512582785",
      "source": "kakao",
      "kakaoId": "1512582785"
    },
    {
      "id": "kakao:9779270",
      "name": "레드페이스 홈플러스 창원점",
      "type": "mart",
      "tags": [
        "mart",
        "homeplus"
      ],
      "lat": 35.233784835983094,
      "lng": 128.64361584238276,
      "address": "경남 창원시 의창구 팔용동 30-3",
      "roadAddress": "경남 창원시 의창구 창원대로 415",
      "phone": "055-265-9800",
      "placeUrl": "http://place.map.kakao.com/9779270",
      "source": "kakao",
      "kakaoId": "9779270"
    },
    {
      "id": "kakao:1790395227",
      "name": "레드페이스 홈플러스광주하남점",
      "type": "mart",
      "tags": [
        "mart",
        "homeplus"
      ],
      "lat": 35.1779644734577,
      "lng": 126.805379594542,
      "address": "광주 광산구 하남동 831",
      "roadAddress": "광주 광산구 용아로 390",
      "phone": "062-961-3553",
      "placeUrl": "http://place.map.kakao.com/1790395227",
      "source": "kakao",
      "kakaoId": "1790395227"
    },
    {
      "id": "kakao:27347443",
      "name": "레드페이스 홈플러스논산점",
      "type": "mart",
      "tags": [
        "mart",
        "homeplus"
      ],
      "lat": 36.1835899593813,
      "lng": 127.098294403907,
      "address": "충남 논산시 내동 436-8",
      "roadAddress": "충남 논산시 시민로 187",
      "phone": "041-736-7788",
      "placeUrl": "http://place.map.kakao.com/27347443",
      "source": "kakao",
      "kakaoId": "27347443"
    },
    {
      "id": "kakao:10375048",
      "name": "레드페이스 홈플러스순천조례점",
      "type": "mart",
      "tags": [
        "mart",
        "homeplus"
      ],
      "lat": 34.9612285637263,
      "lng": 127.520279701474,
      "address": "전남 순천시 조례동 975-1",
      "roadAddress": "전남 순천시 신월큰길 10",
      "phone": "061-721-3400",
      "placeUrl": "http://place.map.kakao.com/10375048",
      "source": "kakao",
      "kakaoId": "10375048"
    },
    {
      "id": "kakao:17480996",
      "name": "레드페이스 홈플러스안동점",
      "type": "mart",
      "tags": [
        "mart",
        "homeplus"
      ],
      "lat": 36.5625180782773,
      "lng": 128.729553149355,
      "address": "경북 안동시 운흥동 247-28",
      "roadAddress": "경북 안동시 경동로 656",
      "phone": "054-841-4554",
      "placeUrl": "http://place.map.kakao.com/17480996",
      "source": "kakao",
      "kakaoId": "17480996"
    },
    {
      "id": "kakao:10265384",
      "name": "레드페이스 홈플러스영주점",
      "type": "mart",
      "tags": [
        "mart",
        "homeplus"
      ],
      "lat": 36.8092129795737,
      "lng": 128.621260935646,
      "address": "경북 영주시 휴천동 329-1",
      "roadAddress": "경북 영주시 대학로 29",
      "phone": "054-631-7337",
      "placeUrl": "http://place.map.kakao.com/10265384",
      "source": "kakao",
      "kakaoId": "10265384"
    },
    {
      "id": "kakao:769455887",
      "name": "레드페이스 홈플러스평택안중점",
      "type": "mart",
      "tags": [
        "mart",
        "homeplus"
      ],
      "lat": 36.990147369228,
      "lng": 126.916421753004,
      "address": "경기 평택시 안중읍 현화리 637-19",
      "roadAddress": "경기 평택시 안중읍 서동대로 1489",
      "phone": "031-686-9889",
      "placeUrl": "http://place.map.kakao.com/769455887",
      "source": "kakao",
      "kakaoId": "769455887"
    },
    {
      "id": "kakao:19669392",
      "name": "레드페이스홈플러스화성향남점",
      "type": "mart",
      "tags": [
        "mart",
        "homeplus"
      ],
      "lat": 37.1308012784501,
      "lng": 126.921745665467,
      "address": "경기 화성시 향남읍 행정리 487-1",
      "roadAddress": "경기 화성시 향남읍 향남로 402",
      "phone": "031-353-0079",
      "placeUrl": "http://place.map.kakao.com/19669392",
      "source": "kakao",
      "kakaoId": "19669392"
    },
    {
      "id": "kakao:20246846",
      "name": "렌즈맨 천안점",
      "type": "mart",
      "tags": [
        "mart",
        "homeplus"
      ],
      "lat": 36.79922876454589,
      "lng": 127.16489739966333,
      "address": "충남 천안시 동남구 구성동 50",
      "roadAddress": "충남 천안시 동남구 천안대로 574",
      "phone": "041-555-2046",
      "placeUrl": "http://place.map.kakao.com/20246846",
      "source": "kakao",
      "kakaoId": "20246846"
    },
    {
      "id": "kakao:12072722",
      "name": "렌즈맨안경 홈플러스 부산정관점",
      "type": "mart",
      "tags": [
        "mart",
        "homeplus"
      ],
      "lat": 35.3230698735894,
      "lng": 129.176331597556,
      "address": "부산 기장군 정관읍 매학리 712-1",
      "roadAddress": "부산 기장군 정관읍 정관5로 50",
      "phone": "051-727-5972",
      "placeUrl": "http://place.map.kakao.com/12072722",
      "source": "kakao",
      "kakaoId": "12072722"
    },
    {
      "id": "kakao:18022916",
      "name": "렌즈맨안경원 원주관설점",
      "type": "mart",
      "tags": [
        "mart",
        "homeplus"
      ],
      "lat": 37.3177077362693,
      "lng": 127.96734375005,
      "address": "강원특별자치도 원주시 관설동 1453",
      "roadAddress": "강원특별자치도 원주시 치악로 1489",
      "phone": "",
      "placeUrl": "http://place.map.kakao.com/18022916",
      "source": "kakao",
      "kakaoId": "18022916"
    },
    {
      "id": "kakao:6885668",
      "name": "롯데렌터카 픽업존 울산북구홈플러스지점",
      "type": "mart",
      "tags": [
        "mart",
        "homeplus"
      ],
      "lat": 35.6300822978544,
      "lng": 129.344833654962,
      "address": "울산 북구 상안동 322-9",
      "roadAddress": "울산 북구 신답로 26",
      "phone": "052-293-8000",
      "placeUrl": "http://place.map.kakao.com/6885668",
      "source": "kakao",
      "kakaoId": "6885668"
    },
    {
      "id": "kakao:256639323",
      "name": "롯데렌터카 픽업존 청주율량동점",
      "type": "mart",
      "tags": [
        "mart",
        "homeplus"
      ],
      "lat": 36.6662843643518,
      "lng": 127.495701983946,
      "address": "충북 청주시 청원구 율량동 500-3",
      "roadAddress": "",
      "phone": "043-213-8000",
      "placeUrl": "http://place.map.kakao.com/256639323",
      "source": "kakao",
      "kakaoId": "256639323"
    },
    {
      "id": "kakao:828374766",
      "name": "롯데렌터카 픽업존 홈플러스동구점지점",
      "type": "mart",
      "tags": [
        "mart",
        "homeplus"
      ],
      "lat": 35.498971992751,
      "lng": 129.427474181407,
      "address": "울산 동구 일산동 577-1",
      "roadAddress": "울산 동구 방어진순환도로 637",
      "phone": "052-293-8000",
      "placeUrl": "http://place.map.kakao.com/828374766",
      "source": "kakao",
      "kakaoId": "828374766"
    },
    {
      "id": "kakao:118690188",
      "name": "롯데리아 경북신영주점",
      "type": "mart",
      "tags": [
        "mart",
        "homeplus"
      ],
      "lat": 36.81032739622352,
      "lng": 128.62292155256125,
      "address": "경북 영주시 휴천동 320-19",
      "roadAddress": "경북 영주시 대학로12번길 4",
      "phone": "054-631-7171",
      "placeUrl": "http://place.map.kakao.com/118690188",
      "source": "kakao",
      "kakaoId": "118690188"
    },
    {
      "id": "kakao:1710728571",
      "name": "롯데리아 원주단관점",
      "type": "mart",
      "tags": [
        "mart",
        "homeplus"
      ],
      "lat": 37.320357089098,
      "lng": 127.959769421675,
      "address": "강원특별자치도 원주시 관설동 1675-8",
      "roadAddress": "강원특별자치도 원주시 단관길 125",
      "phone": "033-762-1188",
      "placeUrl": "http://place.map.kakao.com/1710728571",
      "source": "kakao",
      "kakaoId": "1710728571"
    },
    {
      "id": "kakao:7854777",
      "name": "롯데리아 홈플러스 유성점",
      "type": "mart",
      "tags": [
        "mart",
        "homeplus"
      ],
      "lat": 36.3590496034448,
      "lng": 127.35453818234082,
      "address": "대전 유성구 봉명동 669",
      "roadAddress": "대전 유성구 한밭대로 502",
      "phone": "042-825-6227",
      "placeUrl": "http://place.map.kakao.com/7854777",
      "source": "kakao",
      "kakaoId": "7854777"
    },
    {
      "id": "kakao:12714904",
      "name": "롯데리아 홈플러스 창원점",
      "type": "mart",
      "tags": [
        "mart",
        "homeplus"
      ],
      "lat": 35.23374635669205,
      "lng": 128.6438611105123,
      "address": "경남 창원시 의창구 팔용동 30-3",
      "roadAddress": "경남 창원시 의창구 창원대로 415",
      "phone": "055-277-9931",
      "placeUrl": "http://place.map.kakao.com/12714904",
      "source": "kakao",
      "kakaoId": "12714904"
    },
    {
      "id": "kakao:21979188",
      "name": "롯데리아 홈플러스거제점",
      "type": "mart",
      "tags": [
        "mart",
        "homeplus"
      ],
      "lat": 34.89105681675924,
      "lng": 128.6164007171443,
      "address": "경남 거제시 장평동 1211",
      "roadAddress": "경남 거제시 장평로 12",
      "phone": "055-680-0995",
      "placeUrl": "http://place.map.kakao.com/21979188",
      "source": "kakao",
      "kakaoId": "21979188"
    },
    {
      "id": "kakao:7858819",
      "name": "롯데리아 홈플러스광주하남점",
      "type": "mart",
      "tags": [
        "mart",
        "homeplus"
      ],
      "lat": 35.17844178743104,
      "lng": 126.80512815421159,
      "address": "광주 광산구 하남동 831",
      "roadAddress": "광주 광산구 용아로 390",
      "phone": "062-955-5333",
      "placeUrl": "http://place.map.kakao.com/7858819",
      "source": "kakao",
      "kakaoId": "7858819"
    },
    {
      "id": "kakao:20014447",
      "name": "롯데리아 홈플러스동광주점",
      "type": "mart",
      "tags": [
        "mart",
        "homeplus"
      ],
      "lat": 35.17920926922594,
      "lng": 126.93000229424494,
      "address": "광주 북구 두암동 575-1",
      "roadAddress": "광주 북구 동문대로 200",
      "phone": "062-266-3338",
      "placeUrl": "http://place.map.kakao.com/20014447",
      "source": "kakao",
      "kakaoId": "20014447"
    },