{
  "icn-t1": { "id": "icn-t1", "name": "인천공항 제1터미널", "type": "airport", "tags": ["airport", "lounge", "valet", "cafe"], "lat": 37.4492, "lng": 126.4502 },
  "icn-t2": { "id": "icn-t2", "name": "인천공항 제2터미널", "type": "airport", "tags": ["airport", "lounge", "valet", "cafe"], "lat": 37.4629, "lng": 126.4407 },
  "gmp": { "id": "gmp", "name": "김포공항", "type": "airport", "tags": ["airport", "lounge", "valet"], "lat": 37.5583, "lng": 126.7906 },
  "pus": { "id": "pus", "name": "김해공항", "type": "airport", "tags": ["airport", "lounge"], "lat": 35.1796, "lng": 128.9383 },
  "cju": { "id": "cju", "name": "제주공항", "type": "airport", "tags": ["airport", "lounge"], "lat": 33.5068, "lng": 126.4892 },
  "tae": { "id": "tae", "name": "대구공항", "type": "airport", "tags": ["airport", "lounge"], "lat": 35.8941, "lng": 128.6590 },
  "cjj": { "id": "cjj", "name": "청주공항", "type": "airport", "tags": ["airport", "lounge"], "lat": 36.7098, "lng": 127.4928 },

  "matina-t1-east": { "id": "matina-t1-east", "name": "마티나라운지 T1 동편", "type": "lounge", "tags": ["lounge", "airport"], "lat": 37.4491, "lng": 126.4501 },
  "matina-t1-west": { "id": "matina-t1-west", "name": "마티나라운지 T1 서편", "type": "lounge", "tags": ["lounge", "airport"], "lat": 37.4491, "lng": 126.4501 },
  "matina-t2": { "id": "matina-t2", "name": "마티나라운지 T2", "type": "lounge", "tags": ["lounge", "airport"], "lat": 37.4602, "lng": 126.4407 },
  "skyhub-t1": { "id": "skyhub-t1", "name": "스카이허브라운지 T1", "type": "lounge", "tags": ["lounge", "airport"], "lat": 37.4491, "lng": 126.4501 },
  "skyhub-t2": { "id": "skyhub-t2", "name": "스카이허브라운지 T2", "type": "lounge", "tags": ["lounge", "airport"], "lat": 37.4602, "lng": 126.4407 },
  "skyhub-gimpo": { "id": "skyhub-gimpo", "name": "스카이허브라운지 김포", "type": "lounge", "tags": ["lounge", "airport"], "lat": 37.5583, "lng": 126.7910 },

  "shilla-seoul": { "id": "shilla-seoul", "name": "서울신라호텔", "type": "hotel", "tags": ["hotel", "valet", "fnb", "luxury"], "lat": 37.5545, "lng": 127.0058 },
  "grand-hyatt": { "id": "grand-hyatt", "name": "그랜드하얏트 서울", "type": "hotel", "tags": ["hotel", "valet", "fnb", "luxury"], "lat": 37.5396, "lng": 126.9975 },
  "park-hyatt-seoul": { "id": "park-hyatt-seoul", "name": "파크하얏트 서울", "type": "hotel", "tags": ["hotel", "valet", "fnb", "luxury"], "lat": 37.5086, "lng": 127.0615 },
  "jw-marriott-seoul": { "id": "jw-marriott-seoul", "name": "JW메리어트 서울", "type": "hotel", "tags": ["hotel", "valet", "fnb", "marriott", "luxury"], "lat": 37.5041, "lng": 127.0031 },
  "jw-marriott-dongdaemun": { "id": "jw-marriott-dongdaemun", "name": "JW메리어트 동대문", "type": "hotel", "tags": ["hotel", "valet", "fnb", "marriott", "luxury"], "lat": 37.5704, "lng": 127.0094 },
  "four-seasons-seoul": { "id": "four-seasons-seoul", "name": "포시즌스 서울", "type": "hotel", "tags": ["hotel", "valet", "fnb", "luxury"], "lat": 37.5718, "lng": 126.9768 },
  "signiel-seoul": { "id": "signiel-seoul", "name": "시그니엘 서울", "type": "hotel", "tags": ["hotel", "valet", "fnb", "lotte", "luxury"], "lat": 37.5112, "lng": 127.0980 },
  "conrad-seoul": { "id": "conrad-seoul", "name": "콘래드 서울", "type": "hotel", "tags": ["hotel", "valet", "fnb", "hilton", "luxury"], "lat": 37.5249, "lng": 126.9264 },
  "lotte-hotel-seoul": { "id": "lotte-hotel-seoul", "name": "롯데호텔 서울", "type": "hotel", "tags": ["hotel", "valet", "fnb", "lotte", "luxury"], "lat": 37.5656, "lng": 126.9816 },
  "westin-josun-seoul": { "id": "westin-josun-seoul", "name": "웨스틴조선 서울", "type": "hotel", "tags": ["hotel", "valet", "fnb", "marriott", "luxury"], "lat": 37.5659, "lng": 126.9806 },
  "grand-intercontinental-parnas": { "id": "grand-intercontinental-parnas", "name": "그랜드인터컨티넨탈 파르나스", "type": "hotel", "tags": ["hotel", "valet", "fnb", "ihg", "luxury", "parnas"], "lat": 37.5085, "lng": 127.0601 },
  "intercontinental-coex": { "id": "intercontinental-coex", "name": "인터컨티넨탈 코엑스", "type": "hotel", "tags": ["hotel", "valet", "fnb", "ihg", "luxury"], "lat": 37.5062, "lng": 127.0566 },
  "andaz-seoul": { "id": "andaz-seoul", "name": "안다즈 서울 강남", "type": "hotel", "tags": ["hotel", "valet", "fnb", "hyatt", "luxury"], "lat": 37.5146, "lng": 127.0221 },
  "josun-palace": { "id": "josun-palace", "name": "조선팰리스", "type": "hotel", "tags": ["hotel", "valet", "fnb", "luxury"], "lat": 37.5248, "lng": 127.0378 },
  "plaza-seoul": { "id": "plaza-seoul", "name": "더플라자 서울", "type": "hotel", "tags": ["hotel", "valet", "fnb", "luxury"], "lat": 37.5659, "lng": 126.9780 },
  "banyan-tree-seoul": { "id": "banyan-tree-seoul", "name": "반얀트리 서울", "type": "hotel", "tags": ["hotel", "valet", "fnb", "luxury"], "lat": 37.5533, "lng": 127.0010 },
  "w-seoul": { "id": "w-seoul", "name": "W서울 워커힐", "type": "hotel", "tags": ["hotel", "valet", "fnb", "marriott", "luxury"], "lat": 37.5516, "lng": 127.1083 },
  "grand-walkerhill": { "id": "grand-walkerhill", "name": "그랜드워커힐 서울", "type": "hotel", "tags": ["hotel", "valet", "fnb", "luxury"], "lat": 37.5516, "lng": 127.1083 },
  "fairmont-seoul": { "id": "fairmont-seoul", "name": "페어몬트 앰배서더 서울", "type": "hotel", "tags": ["hotel", "valet", "fnb", "luxury"], "lat": 37.5260, "lng": 126.9280 },
  "mondrian-seoul": { "id": "mondrian-seoul", "name": "몬드리안 서울 이태원", "type": "hotel", "tags": ["hotel", "valet", "fnb", "luxury"], "lat": 37.5388, "lng": 126.9971 },
  "lescape-hotel": { "id": "lescape-hotel", "name": "레스케이프 호텔", "type": "hotel", "tags": ["hotel", "valet", "fnb", "luxury"], "lat": 37.5648, "lng": 126.9816 },
  "imperial-palace": { "id": "imperial-palace", "name": "임피리얼팰리스 서울", "type": "hotel", "tags": ["hotel", "valet", "fnb", "luxury"], "lat": 37.5225, "lng": 127.0440 },

  "park-hyatt-busan": { "id": "park-hyatt-busan", "name": "파크하얏트 부산", "type": "hotel", "tags": ["hotel", "valet", "fnb", "hyatt", "luxury"], "lat": 35.1561, "lng": 129.1454 },
  "signiel-busan": { "id": "signiel-busan", "name": "시그니엘 부산", "type": "hotel", "tags": ["hotel", "valet", "fnb", "lotte", "luxury"], "lat": 35.1578, "lng": 129.1427 },
  "westin-josun-busan": { "id": "westin-josun-busan", "name": "웨스틴조선 부산", "type": "hotel", "tags": ["hotel", "valet", "fnb", "marriott", "luxury"], "lat": 35.1597, "lng": 129.1511 },
  "grand-josun-busan": { "id": "grand-josun-busan", "name": "그랜드조선 부산", "type": "hotel", "tags": ["hotel", "valet", "fnb", "luxury"], "lat": 35.1590, "lng": 129.1603 },
  "paradise-busan": { "id": "paradise-busan", "name": "파라다이스호텔 부산", "type": "hotel", "tags": ["hotel", "valet", "fnb", "luxury"], "lat": 35.1592, "lng": 129.1607 },
  "lotte-hotel-busan": { "id": "lotte-hotel-busan", "name": "롯데호텔 부산", "type": "hotel", "tags": ["hotel", "valet", "fnb", "lotte", "luxury"], "lat": 35.1555, "lng": 129.0593 },
  "ananti-busan": { "id": "ananti-busan", "name": "아난티 앳 부산", "type": "hotel", "tags": ["hotel", "valet", "fnb", "luxury"], "lat": 35.2439, "lng": 129.2221 },

  "shilla-jeju": { "id": "shilla-jeju", "name": "신라호텔 제주", "type": "hotel", "tags": ["hotel", "valet", "fnb", "golf", "luxury"], "lat": 33.2476, "lng": 126.4125 },
  "grand-hyatt-jeju": { "id": "grand-hyatt-jeju", "name": "그랜드하얏트 제주", "type": "hotel", "tags": ["hotel", "valet", "fnb", "hyatt", "luxury"], "lat": 33.4888, "lng": 126.4939 },
  "lotte-hotel-jeju": { "id": "lotte-hotel-jeju", "name": "롯데호텔 제주", "type": "hotel", "tags": ["hotel", "valet", "fnb", "lotte", "luxury"], "lat": 33.2485, "lng": 126.4102 },
  "jw-marriott-jeju": { "id": "jw-marriott-jeju", "name": "JW메리어트 제주", "type": "hotel", "tags": ["hotel", "valet", "fnb", "marriott", "luxury"], "lat": 33.2520, "lng": 126.5616 },
  "grand-josun-jeju": { "id": "grand-josun-jeju", "name": "그랜드조선 제주", "type": "hotel", "tags": ["hotel", "valet", "fnb", "luxury"], "lat": 33.2480, "lng": 126.4115 },
  "haevichi-jeju": { "id": "haevichi-jeju", "name": "해비치호텔 제주", "type": "hotel", "tags": ["hotel", "valet", "fnb", "luxury"], "lat": 33.3287, "lng": 126.8421 },
  "parnas-jeju": { "id": "parnas-jeju", "name": "파르나스호텔 제주", "type": "hotel", "tags": ["hotel", "valet", "fnb", "parnas", "luxury"], "lat": 33.4346, "lng": 126.9245 },
  "paradise-city": { "id": "paradise-city", "name": "파라다이스시티", "type": "hotel", "tags": ["hotel", "valet", "fnb", "luxury"], "lat": 37.4446, "lng": 126.4505 },

  "lotte-jamsil": { "id": "lotte-jamsil", "name": "롯데백화점 잠실", "type": "department", "tags": ["shopping", "valet", "fnb", "entertainment", "lotte"], "lat": 37.5128, "lng": 127.1026 },
  "lotte-main": { "id": "lotte-main", "name": "롯데백화점 본점", "type": "department", "tags": ["shopping", "valet", "fnb", "lotte"], "lat": 37.5648, "lng": 126.9816 },
  "lotte-gangnam": { "id": "lotte-gangnam", "name": "롯데백화점 강남", "type": "department", "tags": ["shopping", "valet", "fnb", "lotte"], "lat": 37.4970, "lng": 127.0483 },
  "lotte-yeongdeungpo": { "id": "lotte-yeongdeungpo", "name": "롯데백화점 영등포", "type": "department", "tags": ["shopping", "valet", "fnb", "lotte"], "lat": 37.5164, "lng": 126.9073 },
  "lotte-centum": { "id": "lotte-centum", "name": "롯데백화점 센텀시티", "type": "department", "tags": ["shopping", "valet", "fnb", "lotte"], "lat": 35.1696, "lng": 129.1313 },
  "lotte-gwangbok": { "id": "lotte-gwangbok", "name": "롯데백화점 광복", "type": "department", "tags": ["shopping", "valet", "fnb", "lotte"], "lat": 35.0987, "lng": 129.0316 },

  "shinsegae-gangnam": { "id": "shinsegae-gangnam", "name": "신세계 강남", "type": "department", "tags": ["shopping", "valet", "fnb", "shinsegae"], "lat": 37.5048, "lng": 127.0041 },
  "shinsegae-main": { "id": "shinsegae-main", "name": "신세계백화점 본점", "type": "department", "tags": ["shopping", "valet", "fnb", "shinsegae"], "lat": 37.5607, "lng": 126.9810 },
  "shinsegae-centum": { "id": "shinsegae-centum", "name": "신세계 센텀시티", "type": "department", "tags": ["shopping", "valet", "fnb", "shinsegae"], "lat": 35.1696, "lng": 129.1296 },
  "shinsegae-yeongdeungpo": { "id": "shinsegae-yeongdeungpo", "name": "신세계 영등포", "type": "department", "tags": ["shopping", "valet", "fnb", "shinsegae"], "lat": 37.5175, "lng": 126.9025 },

  "hyundai-main": { "id": "hyundai-main", "name": "현대백화점 압구정본점", "type": "department", "tags": ["shopping", "valet", "fnb", "hyundai-dept"], "lat": 37.5272, "lng": 127.0282 },
  "hyundai-pangyo": { "id": "hyundai-pangyo", "name": "현대백화점 판교", "type": "department", "tags": ["shopping", "valet", "fnb", "cafe", "hyundai-dept"], "lat": 37.3947, "lng": 127.1119 },
  "hyundai-seoul": { "id": "hyundai-seoul", "name": "더현대 서울", "type": "department", "tags": ["shopping", "valet", "fnb", "cafe", "hyundai-dept"], "lat": 37.5258, "lng": 126.9281 },
  "hyundai-trade": { "id": "hyundai-trade", "name": "현대백화점 무역센터", "type": "department", "tags": ["shopping", "valet", "fnb", "hyundai-dept"], "lat": 37.5086, "lng": 127.0601 },
  "hyundai-daegu": { "id": "hyundai-daegu", "name": "더현대 대구", "type": "department", "tags": ["shopping", "valet", "fnb", "hyundai-dept"], "lat": 35.8656, "lng": 128.5867 },

  "galleria-luxury": { "id": "galleria-luxury", "name": "갤러리아 명품관", "type": "department", "tags": ["shopping", "valet", "fnb", "galleria"], "lat": 37.5279, "lng": 127.0405 },
  "galleria-timeworld": { "id": "galleria-timeworld", "name": "갤러리아 타임월드", "type": "department", "tags": ["shopping", "valet", "fnb", "galleria"], "lat": 36.3529, "lng": 127.3787 },
  "galleria-gwanggyo": { "id": "galleria-gwanggyo", "name": "갤러리아 광교", "type": "department", "tags": ["shopping", "valet", "fnb", "galleria"], "lat": 37.2861, "lng": 127.0547 },

  "lotte-dutyfree-main": { "id": "lotte-dutyfree-main", "name": "롯데면세점 본점", "type": "dutyfree", "tags": ["shopping", "dutyfree"], "lat": 37.5656, "lng": 126.9815 },
  "lotte-dutyfree-world": { "id": "lotte-dutyfree-world", "name": "롯데면세점 월드타워", "type": "dutyfree", "tags": ["shopping", "dutyfree"], "lat": 37.5112, "lng": 127.0980 },
  "shilla-dutyfree-main": { "id": "shilla-dutyfree-main", "name": "신라면세점 서울", "type": "dutyfree", "tags": ["shopping", "dutyfree"], "lat": 37.5572, "lng": 127.0056 },
  "shinsegae-dutyfree": { "id": "shinsegae-dutyfree", "name": "신세계면세점 명동", "type": "dutyfree", "tags": ["shopping", "dutyfree"], "lat": 37.5607, "lng": 126.9810 },
  "hyundai-dutyfree": { "id": "hyundai-dutyfree", "name": "현대백화점면세점", "type": "dutyfree", "tags": ["shopping", "dutyfree"], "lat": 37.5086, "lng": 127.0601 },

  "jack-nicklaus": { "id": "jack-nicklaus", "name": "잭니클라우스GC", "type": "golf", "tags": ["golf", "fnb"], "lat": 37.4650, "lng": 126.6531 },
  "sky72": { "id": "sky72", "name": "스카이72 GC", "type": "golf", "tags": ["golf", "fnb"], "lat": 37.4575, "lng": 126.4989 },
  "nine-bridges": { "id": "nine-bridges", "name": "클럽나인브릿지", "type": "golf", "tags": ["golf", "fnb"], "lat": 33.3500, "lng": 126.3800 },
  "southcape": { "id": "southcape", "name": "사우스케이프", "type": "golf", "tags": ["golf", "fnb"], "lat": 34.7645, "lng": 127.9127 },
  "pine-beach": { "id": "pine-beach", "name": "파인비치골프링크스", "type": "golf", "tags": ["golf", "fnb"], "lat": 34.6213, "lng": 126.5432 },
  "anyang-cc": { "id": "anyang-cc", "name": "안양컨트리클럽", "type": "golf", "tags": ["golf", "fnb"], "lat": 37.3361, "lng": 126.8986 },
  "haesley": { "id": "haesley", "name": "헤슬리나인브릿지", "type": "golf", "tags": ["golf", "fnb"], "lat": 37.3518, "lng": 127.5328 },
  "phoenix-golf": { "id": "phoenix-golf", "name": "휘닉스파크GC", "type": "golf", "tags": ["golf", "fnb"], "lat": 37.5887, "lng": 128.3247 },
  "high1-golf": { "id": "high1-golf", "name": "하이원골프클럽", "type": "golf", "tags": ["golf", "fnb"], "lat": 37.2043, "lng": 128.8379 },
  "pinx": { "id": "pinx", "name": "핀크스골프클럽", "type": "golf", "tags": ["golf", "fnb"], "lat": 33.2958, "lng": 126.5012 },

  "starbucks-reserve": { "id": "starbucks-reserve", "name": "스타벅스 리저브", "type": "cafe", "tags": ["cafe", "starbucks"], "lat": 37.5720, "lng": 126.9794 },
  "starbucks-hyundai": { "id": "starbucks-hyundai", "name": "스타벅스 더현대", "type": "cafe", "tags": ["cafe", "starbucks", "shopping"], "lat": 37.5262, "lng": 126.9281 },
  "coffeebean": { "id": "coffeebean", "name": "커피빈", "type": "cafe", "tags": ["cafe"], "lat": 37.5048, "lng": 127.0041 },
  "twosome": { "id": "twosome", "name": "투썸플레이스", "type": "cafe", "tags": ["cafe"], "lat": 37.5665, "lng": 126.9780 },

  "cgv-yongsan": { "id": "cgv-yongsan", "name": "CGV 용산", "type": "entertainment", "tags": ["entertainment", "movie", "cgv"], "lat": 37.5296, "lng": 126.9651 },
  "cgv-yeongdeungpo": { "id": "cgv-yeongdeungpo", "name": "CGV 영등포", "type": "entertainment", "tags": ["entertainment", "movie", "cgv"], "lat": 37.5175, "lng": 126.9060 },
  "megabox-coex": { "id": "megabox-coex", "name": "메가박스 코엑스", "type": "entertainment", "tags": ["entertainment", "movie", "megabox"], "lat": 37.5128, "lng": 127.0590 },
  "lotte-cinema-world": { "id": "lotte-cinema-world", "name": "롯데시네마 월드타워", "type": "entertainment", "tags": ["entertainment", "movie", "lotte-cinema"], "lat": 37.5112, "lng": 127.0980 },

  "cu-conv": { "id": "cu-conv", "name": "CU 편의점", "type": "convenience", "tags": ["convenience", "points", "mpoint", "okcashbag"], "lat": 37.5665, "lng": 126.9780 },
  "gs25-conv": { "id": "gs25-conv", "name": "GS25 편의점", "type": "convenience", "tags": ["convenience", "points", "gspoint"], "lat": 37.5665, "lng": 126.9780 },
  "seven-eleven": { "id": "seven-eleven", "name": "세븐일레븐", "type": "convenience", "tags": ["convenience", "points"], "lat": 37.5665, "lng": 126.9780 },
  "emart24": { "id": "emart24", "name": "이마트24", "type": "convenience", "tags": ["convenience", "points", "shinsegae-point"], "lat": 37.5665, "lng": 126.9780 },

  "coupang": { "id": "coupang", "name": "쿠팡", "type": "online", "tags": ["online", "shopping", "points"], "lat": 37.5665, "lng": 126.9780 },
  "ssg": { "id": "ssg", "name": "SSG닷컴", "type": "online", "tags": ["online", "shopping", "points", "shinsegae-point"], "lat": 37.5665, "lng": 126.9780 },
  "gmarket": { "id": "gmarket", "name": "G마켓", "type": "online", "tags": ["online", "shopping", "points", "smilepoint"], "lat": 37.5665, "lng": 126.9780 },
  "auction": { "id": "auction", "name": "옥션", "type": "online", "tags": ["online", "shopping", "points", "smilepoint"], "lat": 37.5665, "lng": 126.9780 },
  "11st": { "id": "11st", "name": "11번가", "type": "online", "tags": ["online", "shopping", "points", "skpay"], "lat": 37.5665, "lng": 126.9780 },
  "naver-shopping": { "id": "naver-shopping", "name": "네이버쇼핑", "type": "online", "tags": ["online", "shopping", "points", "naverpay"], "lat": 37.5665, "lng": 126.9780 },
  "kakao-shopping": { "id": "kakao-shopping", "name": "카카오쇼핑", "type": "online", "tags": ["online", "shopping", "points", "kakaopay"], "lat": 37.5665, "lng": 126.9780 },

  "emart": { "id": "emart", "name": "이마트", "type": "mart", "tags": ["mart", "shopping", "points", "shinsegae-point"], "lat": 37.5091, "lng": 127.0590 },
  "homeplus": { "id": "homeplus", "name": "홈플러스", "type": "mart", "tags": ["mart", "shopping", "points", "mpoint"], "lat": 37.5407, "lng": 127.0696 },
  "costco": { "id": "costco", "name": "코스트코", "type": "mart", "tags": ["mart", "shopping"], "lat": 37.5014, "lng": 127.0374 },
  "lottemart": { "id": "lottemart", "name": "롯데마트", "type": "mart", "tags": ["mart", "shopping", "points", "lpoint"], "lat": 37.5648, "lng": 126.9816 },

  "gs-caltex": { "id": "gs-caltex", "name": "GS칼텍스 주유소", "type": "gas", "tags": ["gas", "points", "gspoint", "bonuspoint"], "lat": 37.5665, "lng": 126.9780 },
  "sk-energy": { "id": "sk-energy", "name": "SK에너지 주유소", "type": "gas", "tags": ["gas", "points", "okcashbag", "skpay"], "lat": 37.5665, "lng": 126.9780 },
  "s-oil": { "id": "s-oil", "name": "S-OIL 주유소", "type": "gas", "tags": ["gas", "points", "bonuspoint"], "lat": 37.5665, "lng": 126.9780 },
  "hyundai-oilbank": { "id": "hyundai-oilbank", "name": "현대오일뱅크", "type": "gas", "tags": ["gas", "points", "hpoint", "bluemembers"], "lat": 37.5665, "lng": 126.9780 },

  "ediya-coffee": { "id": "ediya-coffee", "name": "이디야커피", "type": "cafe", "tags": ["cafe", "ediya"], "lat": 37.5665, "lng": 126.9780 },
  "mega-coffee": { "id": "mega-coffee", "name": "메가커피", "type": "cafe", "tags": ["cafe", "mega"], "lat": 37.5665, "lng": 126.9780 },
  "hollys-coffee": { "id": "hollys-coffee", "name": "할리스커피", "type": "cafe", "tags": ["cafe", "hollys"], "lat": 37.5665, "lng": 126.9780 },
  "paul-bassett": { "id": "paul-bassett", "name": "폴바셋", "type": "cafe", "tags": ["cafe", "paulbassett"], "lat": 37.5665, "lng": 126.9780 },
  "blue-bottle": { "id": "blue-bottle", "name": "블루보틀", "type": "cafe", "tags": ["cafe", "bluebottle"], "lat": 37.5665, "lng": 126.9780 },
  "angelinus": { "id": "angelinus", "name": "엔제리너스", "type": "cafe", "tags": ["cafe", "angelinus"], "lat": 37.5665, "lng": 126.9780 },
  "compose-coffee": { "id": "compose-coffee", "name": "컴포즈커피", "type": "cafe", "tags": ["cafe", "compose"], "lat": 37.5665, "lng": 126.9780 },

  "vips": { "id": "vips", "name": "빕스", "type": "restaurant", "tags": ["restaurant", "fnb", "vips", "buffet"], "lat": 37.5665, "lng": 126.9780 },
  "ashley": { "id": "ashley", "name": "애슐리", "type": "restaurant", "tags": ["restaurant", "fnb", "ashley", "buffet"], "lat": 37.5665, "lng": 126.9780 },
  "outback": { "id": "outback", "name": "아웃백 스테이크하우스", "type": "restaurant", "tags": ["restaurant", "fnb", "outback", "steak"], "lat": 37.5665, "lng": 126.9780 },
  "tgif": { "id": "tgif", "name": "TGI 프라이데이스", "type": "restaurant", "tags": ["restaurant", "fnb", "tgif"], "lat": 37.5665, "lng": 126.9780 },
  "bennigans": { "id": "bennigans", "name": "베니건스", "type": "restaurant", "tags": ["restaurant", "fnb", "bennigans"], "lat": 37.5665, "lng": 126.9780 },
  "mad-for-garlic": { "id": "mad-for-garlic", "name": "매드포갈릭", "type": "restaurant", "tags": ["restaurant", "fnb", "italian"], "lat": 37.5665, "lng": 126.9780 },
  "pizzahut": { "id": "pizzahut", "name": "피자헛", "type": "restaurant", "tags": ["restaurant", "fnb", "pizza"], "lat": 37.5665, "lng": 126.9780 },
  "dominos": { "id": "dominos", "name": "도미노피자", "type": "restaurant", "tags": ["restaurant", "fnb", "pizza"], "lat": 37.5665, "lng": 126.9780 },
  "burgerking": { "id": "burgerking", "name": "버거킹", "type": "restaurant", "tags": ["restaurant", "fnb", "burger"], "lat": 37.5665, "lng": 126.9780 },
  "mcdonalds": { "id": "mcdonalds", "name": "맥도날드", "type": "restaurant", "tags": ["restaurant", "fnb", "burger"], "lat": 37.5665, "lng": 126.9780 },
  "kfc": { "id": "kfc", "name": "KFC", "type": "restaurant", "tags": ["restaurant", "fnb", "chicken"], "lat": 37.5665, "lng": 126.9780 },
  "bbq": { "id": "bbq", "name": "BBQ치킨", "type": "restaurant", "tags": ["restaurant", "fnb", "chicken", "bbq"], "lat": 37.5665, "lng": 126.9780 },
  "kyochon": { "id": "kyochon", "name": "교촌치킨", "type": "restaurant", "tags": ["restaurant", "fnb", "chicken", "kyochon"], "lat": 37.5665, "lng": 126.9780 },
  "bhc": { "id": "bhc", "name": "BHC", "type": "restaurant", "tags": ["restaurant", "fnb", "chicken", "bhc"], "lat": 37.5665, "lng": 126.9780 },

  "olleh-square": { "id": "olleh-square", "name": "KT올레스퀘어", "type": "entertainment", "tags": ["entertainment"], "lat": 37.5665, "lng": 126.9780 },
  "megabox-central": { "id": "megabox-central", "name": "메가박스 센트럴", "type": "entertainment", "tags": ["entertainment", "movie", "megabox"], "lat": 37.5665, "lng": 126.9780 },
  "lotte-cinema-jamsil": { "id": "lotte-cinema-jamsil", "name": "롯데시네마 잠실", "type": "entertainment", "tags": ["entertainment", "movie", "lotte-cinema"], "lat": 37.5112, "lng": 127.0980 },
  "cgv-gangnam": { "id": "cgv-gangnam", "name": "CGV 강남", "type": "entertainment", "tags": ["entertainment", "movie", "cgv"], "lat": 37.5010, "lng": 127.0263 },

  "marriott-executive": { "id": "marriott-executive", "name": "메리어트 이그제큐티브 아파트먼트", "type": "hotel", "tags": ["hotel", "marriott", "luxury"], "lat": 37.5265, "lng": 126.9266 },
  "courtyard-seoul": { "id": "courtyard-seoul", "name": "코트야드 메리어트 서울", "type": "hotel", "tags": ["hotel", "marriott"], "lat": 37.5020, "lng": 127.0374 },
  "le-meridien-seoul": { "id": "le-meridien-seoul", "name": "르메르디앙 서울", "type": "hotel", "tags": ["hotel", "marriott", "luxury"], "lat": 37.5086, "lng": 127.0615 },
  "aloft-seoul": { "id": "aloft-seoul", "name": "알로프트 서울 강남", "type": "hotel", "tags": ["hotel", "marriott"], "lat": 37.5150, "lng": 127.0200 },
  "novotel-ambassador": { "id": "novotel-ambassador", "name": "노보텔 앰배서더 동대문", "type": "hotel", "tags": ["hotel", "accor"], "lat": 37.5704, "lng": 127.0094 },
  "ibis-styles": { "id": "ibis-styles", "name": "이비스 스타일 명동", "type": "hotel", "tags": ["hotel", "accor"], "lat": 37.5607, "lng": 126.9862 },
  "l7-hongdae": { "id": "l7-hongdae", "name": "L7 홍대", "type": "hotel", "tags": ["hotel", "lotte"], "lat": 37.5566, "lng": 126.9233 },
  "l7-gangnam": { "id": "l7-gangnam", "name": "L7 강남", "type": "hotel", "tags": ["hotel", "lotte"], "lat": 37.4970, "lng": 127.0383 },

  "kyobo-gwanghwamun": { "id": "kyobo-gwanghwamun", "name": "교보문고 광화문점", "type": "entertainment", "tags": ["shopping", "books", "kyobo"], "lat": 37.5710, "lng": 126.9769 },
  "yes24-live": { "id": "yes24-live", "name": "예스24라이브홀", "type": "entertainment", "tags": ["entertainment", "concert"], "lat": 37.5665, "lng": 127.0078 },
  "coex-aquarium": { "id": "coex-aquarium", "name": "코엑스 아쿠아리움", "type": "entertainment", "tags": ["entertainment", "aquarium"], "lat": 37.5132, "lng": 127.0589 },
  "lotte-world": { "id": "lotte-world", "name": "롯데월드", "type": "entertainment", "tags": ["entertainment", "themepark", "lotte"], "lat": 37.5112, "lng": 127.0980 },
  "everland": { "id": "everland", "name": "에버랜드", "type": "entertainment", "tags": ["entertainment", "themepark", "samsung"], "lat": 37.2939, "lng": 127.2025 },
  "caribbean-bay": { "id": "caribbean-bay", "name": "캐리비안베이", "type": "entertainment", "tags": ["entertainment", "waterpark", "samsung"], "lat": 37.2939, "lng": 127.2025 },

  "traders-goyang": { "id": "traders-goyang", "name": "트레이더스 고양점", "type": "mart", "tags": ["mart", "shopping", "traders", "emart"], "lat": 37.6500, "lng": 126.8700 },
  "traders-hanam": { "id": "traders-hanam", "name": "트레이더스 하남점", "type": "mart", "tags": ["mart", "shopping", "traders", "emart"], "lat": 37.5400, "lng": 127.2200 },

  "musinsa": { "id": "musinsa", "name": "무신사", "type": "online", "tags": ["online", "shopping", "fashion"], "lat": 37.5665, "lng": 126.9780 },
  "zigzag": { "id": "zigzag", "name": "지그재그", "type": "online", "tags": ["online", "shopping", "fashion"], "lat": 37.5665, "lng": 126.9780 },
  "kurly": { "id": "kurly", "name": "마켓컬리", "type": "online", "tags": ["online", "shopping", "grocery"], "lat": 37.5665, "lng": 126.9780 },
  "baemin": { "id": "baemin", "name": "배달의민족", "type": "online", "tags": ["online", "delivery", "food"], "lat": 37.5665, "lng": 126.9780 },
  "yogiyo": { "id": "yogiyo", "name": "요기요", "type": "online", "tags": ["online", "delivery", "food"], "lat": 37.5665, "lng": 126.9780 },
  "coupangeats": { "id": "coupangeats", "name": "쿠팡이츠", "type": "online", "tags": ["online", "delivery", "food"], "lat": 37.5665, "lng": 126.9780 }
}
