{
  "icn-t1": {
    "id": "icn-t1",
    "name": "인천공항 제1터미널",
    "type": "airport",
    "tags": [
      "airport",
      "lounge",
      "valet",
      "cafe"
    ],
    "lat": 37.4492,
    "lng": 126.4502
  },
  "icn-t2": {
    "id": "icn-t2",
    "name": "인천공항 제2터미널",
    "type": "airport",
    "tags": [
      "airport",
      "lounge",
      "valet",
      "cafe"
    ],
    "lat": 37.4677,
    "lng": 126.4345
  },
  "gmp": {
    "id": "gmp",
    "name": "김포공항",
    "type": "airport",
    "tags": [
      "airport",
      "lounge",
      "valet"
    ],
    "lat": 37.5587,
    "lng": 126.8028
  },
  "pus": {
    "id": "pus",
    "name": "김해공항",
    "type": "airport",
    "tags": [
      "airport",
      "lounge"
    ],
    "lat": 35.1725,
    "lng": 128.9468
  },
  "cju": {
    "id": "cju",
    "name": "제주공항",
    "type": "airport",
    "tags": [
      "airport",
      "lounge"
    ],
    "lat": 33.5068,
    "lng": 126.4892
  },
  "tae": {
    "id": "tae",
    "name": "대구공항",
    "type": "airport",
    "tags": [
      "airport",
      "lounge"
    ],
    "lat": 35.8998,
    "lng": 128.6378
  },
  "cjj": {
    "id": "cjj",
    "name": "청주공항",
    "type": "airport",
    "tags": [
      "airport",
      "lounge"
    ],
    "lat": 36.722,
    "lng": 127.4959
  },
  "matina-t1-east": {
    "id": "matina-t1-east",
    "name": "마티나라운지 T1 동편",
    "type": "lounge",
    "tags": [
      "lounge",
      "airport"
    ],
    "lat": 37.4495,
    "lng": 126.452
  },
  "matina-t1-west": {
    "id": "matina-t1-west",
    "name": "마티나라운지 T1 서편",
    "type": "lounge",
    "tags": [
      "lounge",
      "airport"
    ],
    "lat": 37.4488,
    "lng": 126.448
  },
  "matina-t2": {
    "id": "matina-t2",
    "name": "마티나라운지 T2",
    "type": "lounge",
    "tags": [
      "lounge",
      "airport"
    ],
    "lat": 37.4605,
    "lng": 126.4415
  },
  "skyhub-t1": {
    "id": "skyhub-t1",
    "name": "스카이허브라운지 T1",
    "type": "lounge",
    "tags": [
      "lounge",
      "airport"
    ],
    "lat": 37.4485,
    "lng": 126.451
  },
  "skyhub-t2": {
    "id": "skyhub-t2",
    "name": "스카이허브라운지 T2",
    "type": "lounge",
    "tags": [
      "lounge",
      "airport"
    ],
    "lat": 37.4685,
    "lng": 126.438
  },
  "skyhub-gimpo": {
    "id": "skyhub-gimpo",
    "name": "스카이허브라운지 김포",
    "type": "lounge",
    "tags": [
      "lounge",
      "airport"
    ],
    "lat": 37.5664,
    "lng": 126.8005
  },
  "shilla-seoul": {
    "id": "shilla-seoul",
    "name": "서울신라호텔",
    "type": "hotel",
    "tags": [
      "hotel",
      "valet",
      "fnb",
      "shilla",
      "luxury"
    ],
    "lat": 37.5561,
    "lng": 127.0055
  },
  "grand-hyatt": {
    "id": "grand-hyatt",
    "name": "그랜드하얏트 서울",
    "type": "hotel",
    "tags": [
      "hotel",
      "valet",
      "fnb",
      "hyatt",
      "luxury"
    ],
    "lat": 37.5387,
    "lng": 126.9976
  },
  "park-hyatt-seoul": {
    "id": "park-hyatt-seoul",
    "name": "파크하얏트 서울",
    "type": "hotel",
    "tags": [
      "hotel",
      "valet",
      "fnb",
      "hyatt",
      "luxury"
    ],
    "lat": 37.5089,
    "lng": 127.0632
  },
  "jw-marriott-seoul": {
    "id": "jw-marriott-seoul",
    "name": "JW메리어트 서울",
    "type": "hotel",
    "tags": [
      "hotel",
      "valet",
      "fnb",
      "marriott",
      "luxury"
    ],
    "lat": 37.50404,
    "lng": 127.00469
  },
  "jw-marriott-dongdaemun": {
    "id": "jw-marriott-dongdaemun",
    "name": "JW메리어트 동대문",
    "type": "hotel",
    "tags": [
      "hotel",
      "valet",
      "fnb",
      "marriott",
      "luxury"
    ],
    "lat": 37.569,
    "lng": 127.005
  },
  "four-seasons-seoul": {
    "id": "four-seasons-seoul",
    "name": "포시즌스 서울",
    "type": "hotel",
    "tags": [
      "hotel",
      "valet",
      "fnb",
      "fourseasons",
      "luxury"
    ],
    "lat": 37.5705,
    "lng": 126.9755
  },
  "signiel-seoul": {
    "id": "signiel-seoul",
    "name": "시그니엘 서울",
    "type": "hotel",
    "tags": [
      "hotel",
      "valet",
      "fnb",
      "lotte",
      "luxury"
    ],
    "lat": 37.5128,
    "lng": 127.1026
  },
  "conrad-seoul": {
    "id": "conrad-seoul",
    "name": "콘래드 서울",
    "type": "hotel",
    "tags": [
      "hotel",
      "valet",
      "fnb",
      "hilton",
      "luxury"
    ],
    "lat": 37.5254,
    "lng": 126.9266
  },
  "lotte-hotel-seoul": {
    "id": "lotte-hotel-seoul",
    "name": "롯데호텔 서울",
    "type": "hotel",
    "tags": [
      "hotel",
      "valet",
      "fnb",
      "lotte",
      "luxury"
    ],
    "lat": 37.5656,
    "lng": 126.9816
  },
  "westin-josun-seoul": {
    "id": "westin-josun-seoul",
    "name": "웨스틴조선 서울",
    "type": "hotel",
    "tags": [
      "hotel",
      "valet",
      "fnb",
      "marriott",
      "luxury"
    ],
    "lat": 37.56447,
    "lng": 126.98002
  },
  "grand-intercontinental-parnas": {
    "id": "grand-intercontinental-parnas",
    "name": "그랜드인터컨티넨탈 파르나스",
    "type": "hotel",
    "tags": [
      "hotel",
      "valet",
      "fnb",
      "ihg",
      "luxury",
      "parnas"
    ],
    "lat": 37.5089,
    "lng": 127.0611
  },
  "intercontinental-coex": {
    "id": "intercontinental-coex",
    "name": "인터컨티넨탈 코엑스",
    "type": "hotel",
    "tags": [
      "hotel",
      "valet",
      "fnb",
      "ihg",
      "luxury"
    ],
    "lat": 37.5119,
    "lng": 127.0589
  },
  "andaz-seoul": {
    "id": "andaz-seoul",
    "name": "안다즈 서울 강남",
    "type": "hotel",
    "tags": [
      "hotel",
      "valet",
      "fnb",
      "hyatt",
      "luxury"
    ],
    "lat": 37.5253,
    "lng": 127.0289
  },
  "josun-palace": {
    "id": "josun-palace",
    "name": "조선팰리스",
    "type": "hotel",
    "tags": [
      "hotel",
      "valet",
      "fnb",
      "marriott",
      "luxury"
    ],
    "lat": 37.5033,
    "lng": 127.0414
  },
  "plaza-seoul": {
    "id": "plaza-seoul",
    "name": "더플라자 서울",
    "type": "hotel",
    "tags": [
      "hotel",
      "valet",
      "fnb",
      "marriott",
      "luxury"
    ],
    "lat": 37.56469,
    "lng": 126.97811
  },
  "banyan-tree-seoul": {
    "id": "banyan-tree-seoul",
    "name": "반얀트리 서울",
    "type": "hotel",
    "tags": [
      "hotel",
      "valet",
      "fnb",
      "accor",
      "luxury"
    ],
    "lat": 37.5507,
    "lng": 127.0012
  },
  "w-seoul": {
    "id": "w-seoul",
    "name": "비스타 워커힐 서울",
    "type": "hotel",
    "tags": [
      "hotel",
      "valet",
      "fnb",
      "walkerhill",
      "luxury"
    ],
    "lat": 37.5568,
    "lng": 127.1048
  },
  "grand-walkerhill": {
    "id": "grand-walkerhill",
    "name": "그랜드워커힐 서울",
    "type": "hotel",
    "tags": [
      "hotel",
      "valet",
      "fnb",
      "walkerhill",
      "luxury"
    ],
    "lat": 37.5557,
    "lng": 127.1112
  },
  "fairmont-seoul": {
    "id": "fairmont-seoul",
    "name": "페어몬트 앰배서더 서울",
    "type": "hotel",
    "tags": [
      "hotel",
      "valet",
      "fnb",
      "luxury"
    ],
    "lat": 37.526,
    "lng": 126.928
  },
  "mondrian-seoul": {
    "id": "mondrian-seoul",
    "name": "몬드리안 서울 이태원",
    "type": "hotel",
    "tags": [
      "hotel",
      "valet",
      "fnb",
      "accor",
      "luxury"
    ],
    "lat": 37.5286,
    "lng": 126.993
  },
  "lescape-hotel": {
    "id": "lescape-hotel",
    "name": "레스케이프 호텔",
    "type": "hotel",
    "tags": [
      "hotel",
      "valet",
      "fnb",
      "luxury"
    ],
    "lat": 37.56,
    "lng": 126.9795
  },
  "imperial-palace": {
    "id": "imperial-palace",
    "name": "임피리얼팰리스 서울",
    "type": "hotel",
    "tags": [
      "hotel",
      "valet",
      "fnb",
      "accor",
      "luxury"
    ],
    "lat": 37.5144,
    "lng": 127.0358
  },
  "park-hyatt-busan": {
    "id": "park-hyatt-busan",
    "name": "파크하얏트 부산",
    "type": "hotel",
    "tags": [
      "hotel",
      "valet",
      "fnb",
      "hyatt",
      "luxury"
    ],
    "lat": 35.1564,
    "lng": 129.1417
  },
  "signiel-busan": {
    "id": "signiel-busan",
    "name": "시그니엘 부산",
    "type": "hotel",
    "tags": [
      "hotel",
      "valet",
      "fnb",
      "lotte",
      "luxury"
    ],
    "lat": 35.1603,
    "lng": 129.1692
  },
  "westin-josun-busan": {
    "id": "westin-josun-busan",
    "name": "웨스틴조선 부산",
    "type": "hotel",
    "tags": [
      "hotel",
      "valet",
      "fnb",
      "marriott",
      "luxury"
    ],
    "lat": 35.1597,
    "lng": 129.1511
  },
  "grand-josun-busan": {
    "id": "grand-josun-busan",
    "name": "그랜드조선 부산",
    "type": "hotel",
    "tags": [
      "hotel",
      "valet",
      "fnb",
      "luxury"
    ],
    "lat": 35.159,
    "lng": 129.1603
  },
  "paradise-busan": {
    "id": "paradise-busan",
    "name": "파라다이스호텔 부산",
    "type": "hotel",
    "tags": [
      "hotel",
      "valet",
      "fnb",
      "luxury"
    ],
    "lat": 35.1592,
    "lng": 129.1607
  },
  "lotte-hotel-busan": {
    "id": "lotte-hotel-busan",
    "name": "롯데호텔 부산",
    "type": "hotel",
    "tags": [
      "hotel",
      "valet",
      "fnb",
      "lotte",
      "luxury"
    ],
    "lat": 35.1555,
    "lng": 129.0593
  },
  "ananti-busan": {
    "id": "ananti-busan",
    "name": "아난티 앳 부산",
    "type": "hotel",
    "tags": [
      "hotel",
      "valet",
      "fnb",
      "luxury"
    ],
    "lat": 35.198,
    "lng": 129.2289
  },
  "shilla-jeju": {
    "id": "shilla-jeju",
    "name": "신라호텔 제주",
    "type": "hotel",
    "tags": [
      "hotel",
      "valet",
      "fnb",
      "shilla",
      "golf",
      "luxury"
    ],
    "lat": 33.2476,
    "lng": 126.4081
  },
  "grand-hyatt-jeju": {
    "id": "grand-hyatt-jeju",
    "name": "그랜드하얏트 제주",
    "type": "hotel",
    "tags": [
      "hotel",
      "valet",
      "fnb",
      "hyatt",
      "luxury"
    ],
    "lat": 33.4853,
    "lng": 126.4815
  },
  "lotte-hotel-jeju": {
    "id": "lotte-hotel-jeju",
    "name": "롯데호텔 제주",
    "type": "hotel",
    "tags": [
      "hotel",
      "valet",
      "fnb",
      "lotte",
      "luxury"
    ],
    "lat": 33.2485,
    "lng": 126.4102
  },
  "jw-marriott-jeju": {
    "id": "jw-marriott-jeju",
    "name": "JW메리어트 제주",
    "type": "hotel",
    "tags": [
      "hotel",
      "valet",
      "fnb",
      "marriott",
      "luxury"
    ],
    "lat": 33.2438,
    "lng": 126.5385
  },
  "grand-josun-jeju": {
    "id": "grand-josun-jeju",
    "name": "그랜드조선 제주",
    "type": "hotel",
    "tags": [
      "hotel",
      "valet",
      "fnb",
      "luxury"
    ],
    "lat": 33.248,
    "lng": 126.4115
  },
  "haevichi-jeju": {
    "id": "haevichi-jeju",
    "name": "해비치호텔 제주",
    "type": "hotel",
    "tags": [
      "hotel",
      "valet",
      "fnb",
      "luxury"
    ],
    "lat": 33.3235,
    "lng": 126.8448
  },
  "parnas-jeju": {
    "id": "parnas-jeju",
    "name": "파르나스호텔 제주",
    "type": "hotel",
    "tags": [
      "hotel",
      "valet",
      "fnb",
      "parnas",
      "luxury"
    ],
    "lat": 33.2446,
    "lng": 126.4058
  },
  "paradise-city": {
    "id": "paradise-city",
    "name": "파라다이스시티",
    "type": "hotel",
    "tags": [
      "hotel",
      "valet",
      "fnb",
      "luxury"
    ],
    "lat": 37.4372,
    "lng": 126.4558
  },
  "lotte-jamsil": {
    "id": "lotte-jamsil",
    "name": "롯데백화점 잠실",
    "type": "department",
    "tags": [
      "shopping",
      "valet",
      "fnb",
      "entertainment",
      "lotte"
    ],
    "lat": 37.5129,
    "lng": 127.1016
  },
  "lotte-main": {
    "id": "lotte-main",
    "name": "롯데백화점 본점",
    "type": "department",
    "tags": [
      "shopping",
      "valet",
      "fnb",
      "lotte"
    ],
    "lat": 37.5648,
    "lng": 126.9816
  },
  "lotte-gangnam": {
    "id": "lotte-gangnam",
    "name": "롯데백화점 강남",
    "type": "department",
    "tags": [
      "shopping",
      "valet",
      "fnb",
      "lotte"
    ],
    "lat": 37.497,
    "lng": 127.0535
  },
  "lotte-yeongdeungpo": {
    "id": "lotte-yeongdeungpo",
    "name": "롯데백화점 영등포",
    "type": "department",
    "tags": [
      "shopping",
      "valet",
      "fnb",
      "lotte"
    ],
    "lat": 37.5158,
    "lng": 126.9074
  },
  "lotte-centum": {
    "id": "lotte-centum",
    "name": "롯데백화점 센텀시티",
    "type": "department",
    "tags": [
      "shopping",
      "valet",
      "fnb",
      "lotte"
    ],
    "lat": 35.1696,
    "lng": 129.1313
  },
  "lotte-gwangbok": {
    "id": "lotte-gwangbok",
    "name": "롯데백화점 광복",
    "type": "department",
    "tags": [
      "shopping",
      "valet",
      "fnb",
      "lotte"
    ],
    "lat": 35.098,
    "lng": 129.0366
  },
  "shinsegae-gangnam": {
    "id": "shinsegae-gangnam",
    "name": "신세계 강남",
    "type": "department",
    "tags": [
      "shopping",
      "valet",
      "fnb",
      "shinsegae"
    ],
    "lat": 37.5048,
    "lng": 127.0048
  },
  "shinsegae-main": {
    "id": "shinsegae-main",
    "name": "신세계백화점 본점",
    "type": "department",
    "tags": [
      "shopping",
      "valet",
      "fnb",
      "shinsegae"
    ],
    "lat": 37.5607,
    "lng": 126.981
  },
  "shinsegae-centum": {
    "id": "shinsegae-centum",
    "name": "신세계 센텀시티",
    "type": "department",
    "tags": [
      "shopping",
      "valet",
      "fnb",
      "shinsegae"
    ],
    "lat": 35.1696,
    "lng": 129.1296
  },
  "shinsegae-yeongdeungpo": {
    "id": "shinsegae-yeongdeungpo",
    "name": "신세계 영등포",
    "type": "department",
    "tags": [
      "shopping",
      "valet",
      "fnb",
      "shinsegae"
    ],
    "lat": 37.5175,
    "lng": 126.9025
  },
  "hyundai-main": {
    "id": "hyundai-main",
    "name": "현대백화점 압구정본점",
    "type": "department",
    "tags": [
      "shopping",
      "valet",
      "fnb",
      "hyundai-dept"
    ],
    "lat": 37.5272,
    "lng": 127.0282
  },
  "hyundai-pangyo": {
    "id": "hyundai-pangyo",
    "name": "현대백화점 판교",
    "type": "department",
    "tags": [
      "shopping",
      "valet",
      "fnb",
      "cafe",
      "hyundai-dept"
    ],
    "lat": 37.3947,
    "lng": 127.1112
  },
  "hyundai-seoul": {
    "id": "hyundai-seoul",
    "name": "더현대 서울",
    "type": "department",
    "tags": [
      "shopping",
      "valet",
      "fnb",
      "cafe",
      "hyundai-dept"
    ],
    "lat": 37.5258,
    "lng": 126.9281
  },
  "hyundai-trade": {
    "id": "hyundai-trade",
    "name": "현대백화점 무역센터",
    "type": "department",
    "tags": [
      "shopping",
      "valet",
      "fnb",
      "hyundai-dept"
    ],
    "lat": 37.5118,
    "lng": 127.0593
  },
  "hyundai-daegu": {
    "id": "hyundai-daegu",
    "name": "더현대 대구",
    "type": "department",
    "tags": [
      "shopping",
      "valet",
      "fnb",
      "hyundai-dept"
    ],
    "lat": 35.8656,
    "lng": 128.5867
  },
  "galleria-luxury": {
    "id": "galleria-luxury",
    "name": "갤러리아 명품관",
    "type": "department",
    "tags": [
      "shopping",
      "valet",
      "fnb",
      "galleria"
    ],
    "lat": 37.5284,
    "lng": 127.0401
  },
  "galleria-timeworld": {
    "id": "galleria-timeworld",
    "name": "갤러리아 타임월드",
    "type": "department",
    "tags": [
      "shopping",
      "valet",
      "fnb",
      "galleria"
    ],
    "lat": 36.3529,
    "lng": 127.3787
  },
  "galleria-gwanggyo": {
    "id": "galleria-gwanggyo",
    "name": "갤러리아 광교",
    "type": "department",
    "tags": [
      "shopping",
      "valet",
      "fnb",
      "galleria"
    ],
    "lat": 37.2861,
    "lng": 127.0547
  },
  "lotte-dutyfree-main": {
    "id": "lotte-dutyfree-main",
    "name": "롯데면세점 본점",
    "type": "dutyfree",
    "tags": [
      "shopping",
      "dutyfree"
    ],
    "lat": 37.5656,
    "lng": 126.9815
  },
  "lotte-dutyfree-world": {
    "id": "lotte-dutyfree-world",
    "name": "롯데면세점 월드타워",
    "type": "dutyfree",
    "tags": [
      "shopping",
      "dutyfree"
    ],
    "lat": 37.513,
    "lng": 127.102
  },
  "shilla-dutyfree-main": {
    "id": "shilla-dutyfree-main",
    "name": "신라면세점 서울",
    "type": "dutyfree",
    "tags": [
      "shopping",
      "dutyfree"
    ],
    "lat": 37.5572,
    "lng": 127.0056
  },
  "shinsegae-dutyfree": {
    "id": "shinsegae-dutyfree",
    "name": "신세계면세점 명동",
    "type": "dutyfree",
    "tags": [
      "shopping",
      "dutyfree"
    ],
    "lat": 37.5612,
    "lng": 126.9815
  },
  "hyundai-dutyfree": {
    "id": "hyundai-dutyfree",
    "name": "현대백화점면세점",
    "type": "dutyfree",
    "tags": [
      "shopping",
      "dutyfree"
    ],
    "lat": 37.5086,
    "lng": 127.0601
  },
  "jack-nicklaus": {
    "id": "jack-nicklaus",
    "name": "잭니클라우스GC",
    "type": "golf",
    "tags": [
      "golf",
      "fnb"
    ],
    "lat": 37.3797,
    "lng": 126.6239
  },
  "sky72": {
    "id": "sky72",
    "name": "스카이72 GC",
    "type": "golf",
    "tags": [
      "golf",
      "fnb"
    ],
    "lat": 37.4834,
    "lng": 126.4688
  },
  "nine-bridges": {
    "id": "nine-bridges",
    "name": "클럽나인브릿지",
    "type": "golf",
    "tags": [
      "golf",
      "fnb"
    ],
    "lat": 33.3416,
    "lng": 126.4028
  },
  "southcape": {
    "id": "southcape",
    "name": "사우스케이프",
    "type": "golf",
    "tags": [
      "golf",
      "fnb"
    ],
    "lat": 34.8365,
    "lng": 128.0744
  },
  "pine-beach": {
    "id": "pine-beach",
    "name": "파인비치골프링크스",
    "type": "golf",
    "tags": [
      "golf",
      "fnb"
    ],
    "lat": 34.6971,
    "lng": 126.2638
  },
  "anyang-cc": {
    "id": "anyang-cc",
    "name": "안양컨트리클럽",
    "type": "golf",
    "tags": [
      "golf",
      "fnb"
    ],
    "lat": 37.34,
    "lng": 126.94
  },
  "haesley": {
    "id": "haesley",
    "name": "헤슬리나인브릿지",
    "type": "golf",
    "tags": [
      "golf",
      "fnb"
    ],
    "lat": 37.2507,
    "lng": 127.6176
  },
  "phoenix-golf": {
    "id": "phoenix-golf",
    "name": "휘닉스파크GC",
    "type": "golf",
    "tags": [
      "golf",
      "fnb"
    ],
    "lat": 37.5893,
    "lng": 128.3356
  },
  "high1-golf": {
    "id": "high1-golf",
    "name": "하이원골프클럽",
    "type": "golf",
    "tags": [
      "golf",
      "fnb"
    ],
    "lat": 37.1737,
    "lng": 128.8432
  },
  "pinx": {
    "id": "pinx",
    "name": "핀크스골프클럽",
    "type": "golf",
    "tags": [
      "golf",
      "fnb"
    ],
    "lat": 33.3153,
    "lng": 126.3886
  },
  "cgv-yongsan": {
    "id": "cgv-yongsan",
    "name": "CGV 용산",
    "type": "entertainment",
    "tags": [
      "entertainment",
      "movie",
      "cgv"
    ],
    "lat": 37.5296,
    "lng": 126.9651
  },
  "cgv-yeongdeungpo": {
    "id": "cgv-yeongdeungpo",
    "name": "CGV 영등포",
    "type": "entertainment",
    "tags": [
      "entertainment",
      "movie",
      "cgv"
    ],
    "lat": 37.5175,
    "lng": 126.906
  },
  "megabox-coex": {
    "id": "megabox-coex",
    "name": "메가박스 코엑스",
    "type": "entertainment",
    "tags": [
      "entertainment",
      "movie",
      "megabox"
    ],
    "lat": 37.5134,
    "lng": 127.0588
  },
  "lotte-cinema-world": {
    "id": "lotte-cinema-world",
    "name": "롯데시네마 월드타워",
    "type": "entertainment",
    "tags": [
      "entertainment",
      "movie",
      "lotte-cinema"
    ],
    "lat": 37.5132,
    "lng": 127.1015
  },
  "cu-conv": {
    "id": "cu-conv",
    "name": "CU 편의점",
    "type": "convenience",
    "tags": [
      "convenience",
      "points",
      "mpoint",
      "okcashbag"
    ],
    "lat": 37.5665,
    "lng": 126.978
  },
  "gs25-conv": {
    "id": "gs25-conv",
    "name": "GS25 편의점",
    "type": "convenience",
    "tags": [
      "convenience",
      "points",
      "gspoint"
    ],
    "lat": 37.5665,
    "lng": 126.978
  },
  "seven-eleven": {
    "id": "seven-eleven",
    "name": "세븐일레븐",
    "type": "convenience",
    "tags": [
      "convenience",
      "points"
    ],
    "lat": 37.5665,
    "lng": 126.978
  },
  "emart24": {
    "id": "emart24",
    "name": "이마트24",
    "type": "convenience",
    "tags": [
      "convenience",
      "points",
      "shinsegae-point"
    ],
    "lat": 37.5665,
    "lng": 126.978
  },
  "coupang": {
    "id": "coupang",
    "name": "쿠팡",
    "type": "online",
    "tags": [
      "online",
      "shopping",
      "points"
    ],
    "lat": 37.5665,
    "lng": 126.978
  },
  "ssg": {
    "id": "ssg",
    "name": "SSG닷컴",
    "type": "online",
    "tags": [
      "online",
      "shopping",
      "points",
      "shinsegae-point"
    ],
    "lat": 37.5665,
    "lng": 126.978
  },
  "gmarket": {
    "id": "gmarket",
    "name": "G마켓",
    "type": "online",
    "tags": [
      "online",
      "shopping",
      "points",
      "smilepoint"
    ],
    "lat": 37.5665,
    "lng": 126.978
  },
  "auction": {
    "id": "auction",
    "name": "옥션",
    "type": "online",
    "tags": [
      "online",
      "shopping",
      "points",
      "smilepoint"
    ],
    "lat": 37.5665,
    "lng": 126.978
  },
  "11st": {
    "id": "11st",
    "name": "11번가",
    "type": "online",
    "tags": [
      "online",
      "shopping",
      "points",
      "skpay"
    ],
    "lat": 37.5665,
    "lng": 126.978
  },
  "naver-shopping": {
    "id": "naver-shopping",
    "name": "네이버쇼핑",
    "type": "online",
    "tags": [
      "online",
      "shopping",
      "points",
      "naverpay"
    ],
    "lat": 37.5665,
    "lng": 126.978
  },
  "kakao-shopping": {
    "id": "kakao-shopping",
    "name": "카카오쇼핑",
    "type": "online",
    "tags": [
      "online",
      "shopping",
      "points",
      "kakaopay"
    ],
    "lat": 37.5665,
    "lng": 126.978
  },
  "costco": {
    "id": "costco",
    "name": "코스트코 양재",
    "type": "mart",
    "tags": [
      "mart",
      "shopping"
    ],
    "lat": 37.462,
    "lng": 127.0363
  },
  "lottemart": {
    "id": "lottemart",
    "name": "롯데마트 서울역",
    "type": "mart",
    "tags": [
      "mart",
      "shopping",
      "points",
      "lpoint"
    ],
    "lat": 37.5546,
    "lng": 126.9706
  },
  "gs-caltex": {
    "id": "gs-caltex",
    "name": "GS칼텍스 주유소",
    "type": "gas",
    "tags": [
      "gas",
      "points",
      "gspoint",
      "bonuspoint"
    ],
    "lat": 37.5665,
    "lng": 126.978
  },
  "sk-energy": {
    "id": "sk-energy",
    "name": "SK에너지 주유소",
    "type": "gas",
    "tags": [
      "gas",
      "points",
      "okcashbag",
      "skpay"
    ],
    "lat": 37.5665,
    "lng": 126.978
  },
  "s-oil": {
    "id": "s-oil",
    "name": "S-OIL 주유소",
    "type": "gas",
    "tags": [
      "gas",
      "points",
      "bonuspoint"
    ],
    "lat": 37.5665,
    "lng": 126.978
  },
  "hyundai-oilbank": {
    "id": "hyundai-oilbank",
    "name": "현대오일뱅크",
    "type": "gas",
    "tags": [
      "gas",
      "points",
      "hpoint",
      "bluemembers"
    ],
    "lat": 37.5665,
    "lng": 126.978
  },
  "ediya-coffee": {
    "id": "ediya-coffee",
    "name": "이디야커피",
    "type": "cafe",
    "tags": [
      "cafe",
      "ediya"
    ],
    "lat": 37.5665,
    "lng": 126.978
  },
  "mega-coffee": {
    "id": "mega-coffee",
    "name": "메가커피",
    "type": "cafe",
    "tags": [
      "cafe",
      "mega"
    ],
    "lat": 37.5665,
    "lng": 126.978
  },
  "hollys-coffee": {
    "id": "hollys-coffee",
    "name": "할리스커피",
    "type": "cafe",
    "tags": [
      "cafe",
      "hollys"
    ],
    "lat": 37.5665,
    "lng": 126.978
  },
  "paul-bassett": {
    "id": "paul-bassett",
    "name": "폴바셋",
    "type": "cafe",
    "tags": [
      "cafe",
      "paulbassett"
    ],
    "lat": 37.5665,
    "lng": 126.978
  },
  "blue-bottle": {
    "id": "blue-bottle",
    "name": "블루보틀",
    "type": "cafe",
    "tags": [
      "cafe",
      "bluebottle"
    ],
    "lat": 37.5665,
    "lng": 126.978
  },
  "angelinus": {
    "id": "angelinus",
    "name": "엔제리너스",
    "type": "cafe",
    "tags": [
      "cafe",
      "angelinus"
    ],
    "lat": 37.5665,
    "lng": 126.978
  },
  "compose-coffee": {
    "id": "compose-coffee",
    "name": "컴포즈커피",
    "type": "cafe",
    "tags": [
      "cafe",
      "compose"
    ],
    "lat": 37.5665,
    "lng": 126.978
  },
  "vips": {
    "id": "vips",
    "name": "빕스",
    "type": "restaurant",
    "tags": [
      "restaurant",
      "fnb",
      "vips",
      "buffet"
    ],
    "lat": 37.5665,
    "lng": 126.978
  },
  "ashley": {
    "id": "ashley",
    "name": "애슐리",
    "type": "restaurant",
    "tags": [
      "restaurant",
      "fnb",
      "ashley",
      "buffet"
    ],
    "lat": 37.5665,
    "lng": 126.978
  },
  "outback": {
    "id": "outback",
    "name": "아웃백 스테이크하우스",
    "type": "restaurant",
    "tags": [
      "restaurant",
      "fnb",
      "outback",
      "steak"
    ],
    "lat": 37.5665,
    "lng": 126.978
  },
  "tgif": {
    "id": "tgif",
    "name": "TGI 프라이데이스",
    "type": "restaurant",
    "tags": [
      "restaurant",
      "fnb",
      "tgif"
    ],
    "lat": 37.5665,
    "lng": 126.978
  },
  "bennigans": {
    "id": "bennigans",
    "name": "베니건스",
    "type": "restaurant",
    "tags": [
      "restaurant",
      "fnb",
      "bennigans"
    ],
    "lat": 37.5665,
    "lng": 126.978
  },
  "mad-for-garlic": {
    "id": "mad-for-garlic",
    "name": "매드포갈릭",
    "type": "restaurant",
    "tags": [
      "restaurant",
      "fnb",
      "italian"
    ],
    "lat": 37.5665,
    "lng": 126.978
  },
  "pizzahut": {
    "id": "pizzahut",
    "name": "피자헛",
    "type": "restaurant",
    "tags": [
      "restaurant",
      "fnb",
      "pizza"
    ],
    "lat": 37.5665,
    "lng": 126.978
  },
  "dominos": {
    "id": "dominos",
    "name": "도미노피자",
    "type": "restaurant",
    "tags": [
      "restaurant",
      "fnb",
      "pizza"
    ],
    "lat": 37.5665,
    "lng": 126.978
  },
  "burgerking": {
    "id": "burgerking",
    "name": "버거킹",
    "type": "restaurant",
    "tags": [
      "restaurant",
      "fnb",
      "burger"
    ],
    "lat": 37.5665,
    "lng": 126.978
  },
  "mcdonalds": {
    "id": "mcdonalds",
    "name": "맥도날드",
    "type": "restaurant",
    "tags": [
      "restaurant",
      "fnb",
      "burger"
    ],
    "lat": 37.5665,
    "lng": 126.978
  },
  "kfc": {
    "id": "kfc",
    "name": "KFC",
    "type": "restaurant",
    "tags": [
      "restaurant",
      "fnb",
      "chicken"
    ],
    "lat": 37.5665,
    "lng": 126.978
  },
  "bbq": {
    "id": "bbq",
    "name": "BBQ치킨",
    "type": "restaurant",
    "tags": [
      "restaurant",
      "fnb",
      "chicken",
      "bbq"
    ],
    "lat": 37.5665,
    "lng": 126.978
  },
  "kyochon": {
    "id": "kyochon",
    "name": "교촌치킨",
    "type": "restaurant",
    "tags": [
      "restaurant",
      "fnb",
      "chicken",
      "kyochon"
    ],
    "lat": 37.5665,
    "lng": 126.978
  },
  "bhc": {
    "id": "bhc",
    "name": "BHC",
    "type": "restaurant",
    "tags": [
      "restaurant",
      "fnb",
      "chicken",
      "bhc"
    ],
    "lat": 37.5665,
    "lng": 126.978
  },
  "olleh-square": {
    "id": "olleh-square",
    "name": "KT올레스퀘어",
    "type": "entertainment",
    "tags": [
      "entertainment"
    ],
    "lat": 37.5665,
    "lng": 126.978
  },
  "megabox-central": {
    "id": "megabox-central",
    "name": "메가박스 센트럴",
    "type": "entertainment",
    "tags": [
      "entertainment",
      "movie",
      "megabox"
    ],
    "lat": 37.5665,
    "lng": 126.978
  },
  "lotte-cinema-jamsil": {
    "id": "lotte-cinema-jamsil",
    "name": "롯데시네마 잠실",
    "type": "entertainment",
    "tags": [
      "entertainment",
      "movie",
      "lotte-cinema"
    ],
    "lat": 37.5125,
    "lng": 127.1002
  },
  "cgv-gangnam": {
    "id": "cgv-gangnam",
    "name": "CGV 강남",
    "type": "entertainment",
    "tags": [
      "entertainment",
      "movie",
      "cgv"
    ],
    "lat": 37.501,
    "lng": 127.0263
  },
  "marriott-executive": {
    "id": "marriott-executive",
    "name": "메리어트 이그제큐티브 아파트먼트",
    "type": "hotel",
    "tags": [
      "hotel",
      "marriott",
      "luxury"
    ],
    "lat": 37.5213,
    "lng": 126.9186
  },
  "courtyard-seoul": {
    "id": "courtyard-seoul",
    "name": "코트야드 메리어트 서울",
    "type": "hotel",
    "tags": [
      "hotel",
      "marriott"
    ],
    "lat": 37.502,
    "lng": 127.0374
  },
  "le-meridien-seoul": {
    "id": "le-meridien-seoul",
    "name": "르메르디앙 서울 명동",
    "type": "hotel",
    "tags": [
      "hotel",
      "marriott",
      "luxury"
    ],
    "lat": 37.559,
    "lng": 126.985
  },
  "aloft-seoul": {
    "id": "aloft-seoul",
    "name": "알로프트 서울 강남",
    "type": "hotel",
    "tags": [
      "hotel",
      "marriott"
    ],
    "lat": 37.5237,
    "lng": 127.0557
  },
  "novotel-ambassador": {
    "id": "novotel-ambassador",
    "name": "노보텔 앰배서더 동대문",
    "type": "hotel",
    "tags": [
      "hotel",
      "accor"
    ],
    "lat": 37.5664,
    "lng": 127.0043
  },
  "ibis-styles": {
    "id": "ibis-styles",
    "name": "이비스 스타일 명동",
    "type": "hotel",
    "tags": [
      "hotel",
      "accor"
    ],
    "lat": 37.5607,
    "lng": 126.9862
  },
  "l7-hongdae": {
    "id": "l7-hongdae",
    "name": "L7 홍대",
    "type": "hotel",
    "tags": [
      "hotel",
      "lotte"
    ],
    "lat": 37.5566,
    "lng": 126.9233
  },
  "l7-gangnam": {
    "id": "l7-gangnam",
    "name": "L7 강남",
    "type": "hotel",
    "tags": [
      "hotel",
      "lotte"
    ],
    "lat": 37.5058,
    "lng": 127.0518
  },
  "kyobo-gwanghwamun": {
    "id": "kyobo-gwanghwamun",
    "name": "교보문고 광화문점",
    "type": "entertainment",
    "tags": [
      "shopping",
      "books",
      "kyobo"
    ],
    "lat": 37.571,
    "lng": 126.978
  },
  "yes24-live": {
    "id": "yes24-live",
    "name": "예스24라이브홀",
    "type": "entertainment",
    "tags": [
      "entertainment",
      "concert"
    ],
    "lat": 37.5457,
    "lng": 127.108
  },
  "coex-aquarium": {
    "id": "coex-aquarium",
    "name": "코엑스 아쿠아리움",
    "type": "entertainment",
    "tags": [
      "entertainment",
      "aquarium"
    ],
    "lat": 37.5132,
    "lng": 127.0589
  },
  "lotte-world": {
    "id": "lotte-world",
    "name": "롯데월드",
    "type": "entertainment",
    "tags": [
      "entertainment",
      "themepark",
      "lotte"
    ],
    "lat": 37.5116,
    "lng": 127.0983
  },
  "everland": {
    "id": "everland",
    "name": "에버랜드",
    "type": "entertainment",
    "tags": [
      "entertainment",
      "themepark",
      "samsung"
    ],
    "lat": 37.2939,
    "lng": 127.2025
  },
  "caribbean-bay": {
    "id": "caribbean-bay",
    "name": "캐리비안베이",
    "type": "entertainment",
    "tags": [
      "entertainment",
      "waterpark",
      "samsung"
    ],
    "lat": 37.2972,
    "lng": 127.2008
  },
  "traders-goyang": {
    "id": "traders-goyang",
    "name": "트레이더스 고양점",
    "type": "mart",
    "tags": [
      "mart",
      "shopping",
      "traders",
      "emart"
    ],
    "lat": 37.6462,
    "lng": 126.8929
  },
  "traders-hanam": {
    "id": "traders-hanam",
    "name": "트레이더스 하남점",
    "type": "mart",
    "tags": [
      "mart",
      "shopping",
      "traders",
      "emart"
    ],
    "lat": 37.5453,
    "lng": 127.2238
  },
  "musinsa": {
    "id": "musinsa",
    "name": "무신사",
    "type": "online",
    "tags": [
      "online",
      "shopping",
      "fashion"
    ],
    "lat": 37.5665,
    "lng": 126.978
  },
  "zigzag": {
    "id": "zigzag",
    "name": "지그재그",
    "type": "online",
    "tags": [
      "online",
      "shopping",
      "fashion"
    ],
    "lat": 37.5665,
    "lng": 126.978
  },
  "kurly": {
    "id": "kurly",
    "name": "마켓컬리",
    "type": "online",
    "tags": [
      "online",
      "shopping",
      "grocery"
    ],
    "lat": 37.5665,
    "lng": 126.978
  },
  "baemin": {
    "id": "baemin",
    "name": "배달의민족",
    "type": "online",
    "tags": [
      "online",
      "delivery",
      "food"
    ],
    "lat": 37.5665,
    "lng": 126.978
  },
  "yogiyo": {
    "id": "yogiyo",
    "name": "요기요",
    "type": "online",
    "tags": [
      "online",
      "delivery",
      "food"
    ],
    "lat": 37.5665,
    "lng": 126.978
  },
  "coupangeats": {
    "id": "coupangeats",
    "name": "쿠팡이츠",
    "type": "online",
    "tags": [
      "online",
      "delivery",
      "food"
    ],
    "lat": 37.5665,
    "lng": 126.978
  },
  "starbucks-스타벅스-본사": {
    "id": "starbucks-스타벅스-본사",
    "name": "스타벅스 본사",
    "type": "cafe",
    "tags": [
      "cafe",
      "starbucks"
    ],
    "lat": 37.50365239823713,
    "lng": 127.04146067379646,
    "address": "서울 강남구 테헤란로 231",
    "phone": "1522-3232"
  },
  "starbucks-스타벅스-강남r점": {
    "id": "starbucks-스타벅스-강남r점",
    "name": "스타벅스 강남R점",
    "type": "cafe",
    "tags": [
      "cafe",
      "starbucks"
    ],
    "lat": 37.4976744709989,
    "lng": 127.028443419181,
    "address": "서울 강남구 강남대로 390",
    "phone": "1522-3232"
  },
  "starbucks-스타벅스-청담사거리점": {
    "id": "starbucks-스타벅스-청담사거리점",
    "name": "스타벅스 청담사거리점",
    "type": "cafe",
    "tags": [
      "cafe",
      "starbucks"
    ],
    "lat": 37.523735555011335,
    "lng": 127.046872393057,
    "address": "서울 강남구 도산대로 458",
    "phone": "1522-3232"
  },
  "starbucks-스타벅스-청담스타r점": {
    "id": "starbucks-스타벅스-청담스타r점",
    "name": "스타벅스 청담스타R점",
    "type": "cafe",
    "tags": [
      "cafe",
      "starbucks"
    ],
    "lat": 37.5252051860766,
    "lng": 127.041816506596,
    "address": "서울 강남구 도산대로57길 24",
    "phone": "1522-3232"
  },
  "starbucks-스타벅스-수서역r점": {
    "id": "starbucks-스타벅스-수서역r점",
    "name": "스타벅스 수서역R점",
    "type": "cafe",
    "tags": [
      "cafe",
      "starbucks"
    ],
    "lat": 37.48800665367514,
    "lng": 127.10297988971773,
    "address": "서울 강남구 광평로 281",
    "phone": "1522-3232"
  },
  "starbucks-스타벅스-신사역점": {
    "id": "starbucks-스타벅스-신사역점",
    "name": "스타벅스 신사역점",
    "type": "cafe",
    "tags": [
      "cafe",
      "starbucks"
    ],
    "lat": 37.51622596162784,
    "lng": 127.0207677490634,
    "address": "서울 강남구 도산대로 108",
    "phone": "1522-3232"
  },
  "starbucks-스타벅스-강남대로점": {
    "id": "starbucks-스타벅스-강남대로점",
    "name": "스타벅스 강남대로점",
    "type": "cafe",
    "tags": [
      "cafe",
      "starbucks"
    ],
    "lat": 37.5032649716005,
    "lng": 127.025559367137,
    "address": "서울 강남구 강남대로 456",
    "phone": "1522-3232"
  },
  "starbucks-스타벅스-선릉세화빌딩점": {
    "id": "starbucks-스타벅스-선릉세화빌딩점",
    "name": "스타벅스 선릉세화빌딩점",
    "type": "cafe",
    "tags": [
      "cafe",
      "starbucks"
    ],
    "lat": 37.5037864222678,
    "lng": 127.051223136165,
    "address": "서울 강남구 테헤란로64길 18",
    "phone": "1522-3232"
  },
  "starbucks-스타벅스-강남비젼타워점": {
    "id": "starbucks-스타벅스-강남비젼타워점",
    "name": "스타벅스 강남비젼타워점",
    "type": "cafe",
    "tags": [
      "cafe",
      "starbucks"
    ],
    "lat": 37.49649026006633,
    "lng": 127.0296167853337,
    "address": "서울 강남구 테헤란로2길 27",
    "phone": "1522-3232"
  },
  "starbucks-스타벅스-선릉동신빌딩r점": {
    "id": "starbucks-스타벅스-선릉동신빌딩r점",
    "name": "스타벅스 선릉동신빌딩R점",
    "type": "cafe",
    "tags": [
      "cafe",
      "starbucks"
    ],
    "lat": 37.5053220852093,
    "lng": 127.050409882375,
    "address": "서울 강남구 테헤란로 409",
    "phone": "1522-3232"
  },
  "starbucks-스타벅스-스타필드코엑스몰r점": {
    "id": "starbucks-스타벅스-스타필드코엑스몰r점",
    "name": "스타벅스 스타필드코엑스몰R점",
    "type": "cafe",
    "tags": [
      "cafe",
      "starbucks"
    ],
    "lat": 37.51000647443292,
    "lng": 127.06166808137255,
    "address": "서울 강남구 삼성동 159-9",
    "phone": "1522-3232"
  },
  "starbucks-스타벅스-아크로힐스논현점": {
    "id": "starbucks-스타벅스-아크로힐스논현점",
    "name": "스타벅스 아크로힐스논현점",
    "type": "cafe",
    "tags": [
      "cafe",
      "starbucks"
    ],
    "lat": 37.5090020498856,
    "lng": 127.040350697045,
    "address": "서울 강남구 봉은사로 304",
    "phone": ""
  },
  "starbucks-스타벅스-선릉역점": {
    "id": "starbucks-스타벅스-선릉역점",
    "name": "스타벅스 선릉역점",
    "type": "cafe",
    "tags": [
      "cafe",
      "starbucks"
    ],
    "lat": 37.5038956552172,
    "lng": 127.04859034788,
    "address": "서울 강남구 테헤란로 334",
    "phone": "1522-3232"
  },
  "starbucks-스타벅스-포이점": {
    "id": "starbucks-스타벅스-포이점",
    "name": "스타벅스 포이점",
    "type": "cafe",
    "tags": [
      "cafe",
      "starbucks"
    ],
    "lat": 37.4778218663276,
    "lng": 127.045145597366,
    "address": "서울 강남구 논현로 88",
    "phone": "1522-3232"
  },
  "starbucks-스타벅스-강남구청역점": {
    "id": "starbucks-스타벅스-강남구청역점",
    "name": "스타벅스 강남구청역점",
    "type": "cafe",
    "tags": [
      "cafe",
      "starbucks"
    ],
    "lat": 37.5167215373803,
    "lng": 127.041264296462,
    "address": "서울 강남구 선릉로 669",
    "phone": "1522-3232"
  },
  "starbucks-스타벅스-신사가로수점": {
    "id": "starbucks-스타벅스-신사가로수점",
    "name": "스타벅스 신사가로수점",
    "type": "cafe",
    "tags": [
      "cafe",
      "starbucks"
    ],
    "lat": 37.52188663660905,
    "lng": 127.02255665575399,
    "address": "서울 강남구 가로수길 59",
    "phone": "1522-3232"
  },
  "starbucks-스타벅스-압구정로데오역점": {
    "id": "starbucks-스타벅스-압구정로데오역점",
    "name": "스타벅스 압구정로데오역점",
    "type": "cafe",
    "tags": [
      "cafe",
      "starbucks"
    ],
    "lat": 37.5265751539424,
    "lng": 127.040541168059,
    "address": "서울 강남구 선릉로 836",
    "phone": "1522-3232"
  },
  "starbucks-스타벅스-학동역점": {
    "id": "starbucks-스타벅스-학동역점",
    "name": "스타벅스 학동역점",
    "type": "cafe",
    "tags": [
      "cafe",
      "starbucks"
    ],
    "lat": 37.5145370872591,
    "lng": 127.030820635653,
    "address": "서울 강남구 논현로 704",
    "phone": "1522-3232"
  },
  "starbucks-스타벅스-리저브도산점": {
    "id": "starbucks-스타벅스-리저브도산점",
    "name": "스타벅스 리저브도산점",
    "type": "cafe",
    "tags": [
      "cafe",
      "starbucks"
    ],
    "lat": 37.5255759675548,
    "lng": 127.037747491808,
    "address": "서울 강남구 선릉로155길 23",
    "phone": "1522-3232"
  },
  "starbucks-스타벅스-코엑스몰점": {
    "id": "starbucks-스타벅스-코엑스몰점",
    "name": "스타벅스 코엑스몰점",
    "type": "cafe",
    "tags": [
      "cafe",
      "starbucks"
    ],
    "lat": 37.513418133469635,
    "lng": 127.05900941362903,
    "address": "서울 강남구 영동대로 513",
    "phone": "1522-3232"
  },
  "starbucks-스타벅스-압구정역점": {
    "id": "starbucks-스타벅스-압구정역점",
    "name": "스타벅스 압구정역점",
    "type": "cafe",
    "tags": [
      "cafe",
      "starbucks"
    ],
    "lat": 37.5267589639676,
    "lng": 127.028124118825,
    "address": "서울 강남구 압구정로 170",
    "phone": "1522-3232"
  },
  "starbucks-스타벅스-압구정r점": {
    "id": "starbucks-스타벅스-압구정r점",
    "name": "스타벅스 압구정R점",
    "type": "cafe",
    "tags": [
      "cafe",
      "starbucks"
    ],
    "lat": 37.52739015796435,
    "lng": 127.03316999631811,
    "address": "서울 강남구 언주로 861",
    "phone": "1522-3232"
  },
  "starbucks-스타벅스-삼성역섬유센터r점": {
    "id": "starbucks-스타벅스-삼성역섬유센터r점",
    "name": "스타벅스 삼성역섬유센터R점",
    "type": "cafe",
    "tags": [
      "cafe",
      "starbucks"
    ],
    "lat": 37.50774998465454,
    "lng": 127.06065057545102,
    "address": "서울 강남구 테헤란로 518",
    "phone": "1522-3232"
  },
  "starbucks-스타벅스-강남오거리점": {
    "id": "starbucks-스타벅스-강남오거리점",
    "name": "스타벅스 강남오거리점",
    "type": "cafe",
    "tags": [
      "cafe",
      "starbucks"
    ],
    "lat": 37.5021150424068,
    "lng": 127.026671808376,
    "address": "서울 강남구 봉은사로2길 39",
    "phone": "1522-3232"
  },
  "starbucks-스타벅스-학여울역점": {
    "id": "starbucks-스타벅스-학여울역점",
    "name": "스타벅스 학여울역점",
    "type": "cafe",
    "tags": [
      "cafe",
      "starbucks"
    ],
    "lat": 37.4979967909577,
    "lng": 127.068539522508,
    "address": "서울 강남구 영동대로 215",
    "phone": "1522-3232"
  },
  "starbucks-스타벅스-국기원사거리점": {
    "id": "starbucks-스타벅스-국기원사거리점",
    "name": "스타벅스 국기원사거리점",
    "type": "cafe",
    "tags": [
      "cafe",
      "starbucks"
    ],
    "lat": 37.4996054052968,
    "lng": 127.031678497624,
    "address": "서울 강남구 테헤란로 125",
    "phone": "1522-3232"
  },
  "starbucks-스타벅스-가로수길점": {
    "id": "starbucks-스타벅스-가로수길점",
    "name": "스타벅스 가로수길점",
    "type": "cafe",
    "tags": [
      "cafe",
      "starbucks"
    ],
    "lat": 37.5231599210152,
    "lng": 127.021661092512,
    "address": "서울 강남구 논현로175길 94",
    "phone": "1522-3232"
  },
  "starbucks-스타벅스-압구정로점": {
    "id": "starbucks-스타벅스-압구정로점",
    "name": "스타벅스 압구정로점",
    "type": "cafe",
    "tags": [
      "cafe",
      "starbucks"
    ],
    "lat": 37.5268040539968,
    "lng": 127.03474450734,
    "address": "서울 강남구 압구정로42길 32",
    "phone": "1522-3232"
  },
  "starbucks-스타벅스-압구정": {
    "id": "starbucks-스타벅스-압구정",
    "name": "스타벅스 압구정",
    "type": "cafe",
    "tags": [
      "cafe",
      "starbucks"
    ],
    "lat": 37.5262216594061,
    "lng": 127.029386438865,
    "address": "서울 강남구 압구정로30길 17",
    "phone": ""
  },
  "starbucks-스타벅스-삼성점": {
    "id": "starbucks-스타벅스-삼성점",
    "name": "스타벅스 삼성점",
    "type": "cafe",
    "tags": [
      "cafe",
      "starbucks"
    ],
    "lat": 37.506878440267236,
    "lng": 127.05571644914448,
    "address": "서울 강남구 테헤란로 443",
    "phone": "1522-3232"
  },
  "starbucks-스타벅스-양재강남빌딩r점": {
    "id": "starbucks-스타벅스-양재강남빌딩r점",
    "name": "스타벅스 양재강남빌딩R점",
    "type": "cafe",
    "tags": [
      "cafe",
      "starbucks"
    ],
    "lat": 37.48516628428305,
    "lng": 127.03646645149259,
    "address": "서울 강남구 남부순환로 2621",
    "phone": "1522-3232"
  },
  "starbucks-스타벅스-을지병원사거리점": {
    "id": "starbucks-스타벅스-을지병원사거리점",
    "name": "스타벅스 을지병원사거리점",
    "type": "cafe",
    "tags": [
      "cafe",
      "starbucks"
    ],
    "lat": 37.5192156591422,
    "lng": 127.028587336112,
    "address": "서울 강남구 논현로 752",
    "phone": "1522-3232"
  },
  "starbucks-스타벅스-코엑스사거리점": {
    "id": "starbucks-스타벅스-코엑스사거리점",
    "name": "스타벅스 코엑스사거리점",
    "type": "cafe",
    "tags": [
      "cafe",
      "starbucks"
    ],
    "lat": 37.5151132134315,
    "lng": 127.0602165265151,
    "address": "서울 강남구 영동대로 616",
    "phone": ""
  },
  "starbucks-스타벅스-청담영동대로점": {
    "id": "starbucks-스타벅스-청담영동대로점",
    "name": "스타벅스 청담영동대로점",
    "type": "cafe",
    "tags": [
      "cafe",
      "starbucks"
    ],
    "lat": 37.5220924385651,
    "lng": 127.056457403591,
    "address": "서울 강남구 영동대로 720",
    "phone": "1522-3232"
  },
  "starbucks-스타벅스-아크플레이스점": {
    "id": "starbucks-스타벅스-아크플레이스점",
    "name": "스타벅스 아크플레이스점",
    "type": "cafe",
    "tags": [
      "cafe",
      "starbucks"
    ],
    "lat": 37.49970996873063,
    "lng": 127.03471837892963,
    "address": "서울 강남구 테헤란로 142",
    "phone": "1522-3232"
  },
  "starbucks-스타벅스-신압구정점": {
    "id": "starbucks-스타벅스-신압구정점",
    "name": "스타벅스 신압구정점",
    "type": "cafe",
    "tags": [
      "cafe",
      "starbucks"
    ],
    "lat": 37.5281153843557,
    "lng": 127.036496399642,
    "address": "서울 강남구 언주로174길 29",
    "phone": ""
  },
  "starbucks-스타벅스-선릉로점": {
    "id": "starbucks-스타벅스-선릉로점",
    "name": "스타벅스 선릉로점",
    "type": "cafe",
    "tags": [
      "cafe",
      "starbucks"
    ],
    "lat": 37.504981194083,
    "lng": 127.046786021313,
    "address": "서울 강남구 선릉로93길 22",
    "phone": "1522-3232"
  },
  "starbucks-스타벅스-도산가로수길점": {
    "id": "starbucks-스타벅스-도산가로수길점",
    "name": "스타벅스 도산가로수길점",
    "type": "cafe",
    "tags": [
      "cafe",
      "starbucks"
    ],
    "lat": 37.51735443178708,
    "lng": 127.02337538106006,
    "address": "서울 강남구 도산대로 134",
    "phone": "1522-3232"
  },
  "starbucks-스타벅스-논현역사거리점": {
    "id": "starbucks-스타벅스-논현역사거리점",
    "name": "스타벅스 논현역사거리점",
    "type": "cafe",
    "tags": [
      "cafe",
      "starbucks"
    ],
    "lat": 37.51012410390254,
    "lng": 127.0221866558262,
    "address": "서울 강남구 강남대로 538",
    "phone": "1522-3232"
  },
  "starbucks-스타벅스-선정릉역": {
    "id": "starbucks-스타벅스-선정릉역",
    "name": "스타벅스 선정릉역",
    "type": "cafe",
    "tags": [
      "cafe",
      "starbucks"
    ],
    "lat": 37.5107881217703,
    "lng": 127.044581818702,
    "address": "서울 강남구 봉은사로 407",
    "phone": "1522-3232"
  },
  "starbucks-스타벅스-청담점": {
    "id": "starbucks-스타벅스-청담점",
    "name": "스타벅스 청담점",
    "type": "cafe",
    "tags": [
      "cafe",
      "starbucks"
    ],
    "lat": 37.5243543810765,
    "lng": 127.051585624477,
    "address": "서울 강남구 도산대로 532",
    "phone": "1522-3232"
  },
  "starbucks-스타벅스-압구정미소점": {
    "id": "starbucks-스타벅스-압구정미소점",
    "name": "스타벅스 압구정미소점",
    "type": "cafe",
    "tags": [
      "cafe",
      "starbucks"
    ],
    "lat": 37.52394874556268,
    "lng": 127.02809251992616,
    "address": "서울 강남구 ��현로 841",
    "phone": "1522-3232"
  },
  "starbucks-스타벅스-삼성교점": {
    "id": "starbucks-스타벅스-삼성교점",
    "name": "스타벅스 삼성교점",
    "type": "cafe",
    "tags": [
      "cafe",
      "starbucks"
    ],
    "lat": 37.5078160371362,
    "lng": 127.065200697954,
    "address": "서울 강남구 영동대로86길 12",
    "phone": ""
  },
  "starbucks-스타벅스-역삼대로점": {
    "id": "starbucks-스타벅스-역삼대로점",
    "name": "스타벅스 역삼대로점",
    "type": "cafe",
    "tags": [
      "cafe",
      "starbucks"
    ],
    "lat": 37.5018952591279,
    "lng": 127.039347134781,
    "address": "서울 강남구 테헤란로 211",
    "phone": ""
  },
  "starbucks-스타벅스-르네상스사거리점": {
    "id": "starbucks-스타벅스-르네상스사거리점",
    "name": "스타벅스 르네상스사거리점",
    "type": "cafe",
    "tags": [
      "cafe",
      "starbucks"
    ],
    "lat": 37.5027368125577,
    "lng": 127.044391557267,
    "address": "서울 강남구 테헤란로 306",
    "phone": "1522-3232"
  },
  "starbucks-스타벅스-둔촌동점": {
    "id": "starbucks-스타벅스-둔촌동점",
    "name": "스타벅스 둔촌동점",
    "type": "cafe",
    "tags": [
      "cafe",
      "starbucks"
    ],
    "lat": 37.52267871630429,
    "lng": 127.13393181130897,
    "address": "서울 강동구 양재대로 1303",
    "phone": "1522-3232"
  },
  "starbucks-스타벅스-강동구청dt점": {
    "id": "starbucks-스타벅스-강동구청dt점",
    "name": "스타벅스 강동구청DT점",
    "type": "cafe",
    "tags": [
      "cafe",
      "starbucks"
    ],
    "lat": 37.52921208375212,
    "lng": 127.12383613307597,
    "address": "서울 강동구 성내로 32",
    "phone": "1522-3232"
  },
  "starbucks-스타벅스-강동역점": {
    "id": "starbucks-스타벅스-강동역점",
    "name": "스타벅스 강동역점",
    "type": "cafe",
    "tags": [
      "cafe",
      "starbucks"
    ],
    "lat": 37.536045232577685,
    "lng": 127.13298720047844,
    "address": "서울 강동구 천호대로 1089",
    "phone": "1522-3232"
  },
  "starbucks-스타벅스-길동역점": {
    "id": "starbucks-스타벅스-길동역점",
    "name": "스타벅스 길동역점",
    "type": "cafe",
    "tags": [
      "cafe",
      "starbucks"
    ],
    "lat": 37.5387130260926,
    "lng": 127.140059161042,
    "address": "서울 강동구 양재대로 1487",
    "phone": "1522-3232"
  },
  "starbucks-스타벅스-강동암사dt점": {
    "id": "starbucks-스타벅스-강동암사dt점",
    "name": "스타벅스 강동암사DT점",
    "type": "cafe",
    "tags": [
      "cafe",
      "starbucks"
    ],
    "lat": 37.55510465765727,
    "lng": 127.1300185890668,
    "address": "서울 강동구 고덕로 43",
    "phone": "1522-3232"
  },
  "starbucks-스타벅스-천호이마트점": {
    "id": "starbucks-스타벅스-천호이마트점",
    "name": "스타벅스 천호이마트점",
    "type": "cafe",
    "tags": [
      "cafe",
      "starbucks"
    ],
    "lat": 37.5389964046784,
    "lng": 127.125205567629,
    "address": "서울 강동구 천호대로 1015-14",
    "phone": "1522-3232"
  },
  "starbucks-스타벅스-상일동점": {
    "id": "starbucks-스타벅스-상일동점",
    "name": "스타벅스 상일동점",
    "type": "cafe",
    "tags": [
      "cafe",
      "starbucks"
    ],
    "lat": 37.55088234543218,
    "lng": 127.17425816597004,
    "address": "서울 강동구 상일로10길 36",
    "phone": "1522-3232"
  },
  "starbucks-스타벅스-올림픽공원북2문점": {
    "id": "starbucks-스타벅스-올림픽공원북2문점",
    "name": "스타벅스 올림픽공원북2문점",
    "type": "cafe",
    "tags": [
      "cafe",
      "starbucks"
    ],
    "lat": 37.5242189368,
    "lng": 127.128702482923,
    "address": "서울 강동구 강동대로 199",
    "phone": "1522-3232"
  },
  "starbucks-스타벅스-굽은다리역점": {
    "id": "starbucks-스타벅스-굽은다리역점",
    "name": "스타벅스 굽은다리역점",
    "type": "cafe",
    "tags": [
      "cafe",
      "starbucks"
    ],
    "lat": 37.5454029005901,
    "lng": 127.14310091793,
    "address": "서울 강동구 양재대로 1568",
    "phone": "1522-3232"
  },
  "starbucks-스타벅스-천호대로길동점": {
    "id": "starbucks-스타벅스-천호대로길동점",
    "name": "스타벅스 천호대로길동점",
    "type": "cafe",
    "tags": [
      "cafe",
      "starbucks"
    ],
    "lat": 37.5347807777286,
    "lng": 127.137232307261,
    "address": "서울 강동구 천호대로 1131",
    "phone": "1522-3232"
  },
  "starbucks-스타벅스-암사역점": {
    "id": "starbucks-스타벅스-암사역점",
    "name": "스타벅스 암사역점",
    "type": "cafe",
    "tags": [
      "cafe",
      "starbucks"
    ],
    "lat": 37.55111162875437,
    "lng": 127.1281953263863,
    "address": "서울 강동구 올림픽로 786",
    "phone": "1522-3232"
  },
  "starbucks-스타벅스-명일역점": {
    "id": "starbucks-스타벅스-명일역점",
    "name": "스타벅스 명일역점",
    "type": "cafe",
    "tags": [
      "cafe",
      "starbucks"
    ],
    "lat": 37.55255048408574,
    "lng": 127.14386941952853,
    "address": "서울 강동구 양재대로 1647",
    "phone": "1522-3232"
  },
  "starbucks-스타벅스-강일역점": {
    "id": "starbucks-스타벅스-강일역점",
    "name": "스타벅스 강일역점",
    "type": "cafe",
    "tags": [
      "cafe",
      "starbucks"
    ],
    "lat": 37.5574850727156,
    "lng": 127.173494887784,
    "address": "서울 강동구 고덕로 429",
    "phone": "1522-3232"
  },
  "starbucks-스타벅스-천호사거리": {
    "id": "starbucks-스타벅스-천호사거리",
    "name": "스타벅스 천호사거리",
    "type": "cafe",
    "tags": [
      "cafe",
      "starbucks"
    ],
    "lat": 37.539755233683,
    "lng": 127.123314975703,
    "address": "서울 강동구 올림픽로 651",
    "phone": "1522-3232"
  },
  "starbucks-스타벅스-명일이마트점": {
    "id": "starbucks-스타벅스-명일이마트점",
    "name": "스타벅스 명일이마트점",
    "type": "cafe",
    "tags": [
      "cafe",
      "starbucks"
    ],
    "lat": 37.5541792565344,
    "lng": 127.156108635946,
    "address": "서울 강동구 동남로75길 5",
    "phone": "1522-3232"
  },
  "starbucks-스타벅스-강동강일점": {
    "id": "starbucks-스타벅스-강동강일점",
    "name": "스타벅스 강동강일점",
    "type": "cafe",
    "tags": [
      "cafe",
      "starbucks"
    ],
    "lat": 37.572264686913805,
    "lng": 127.17492603883886,
    "address": "서울 강동구 아리수로93나길 54",
    "phone": "1522-3232"
  },
  "starbucks-스타벅스-상일동역점": {
    "id": "starbucks-스타벅스-상일동역점",
    "name": "스타벅스 상일동역점",
    "type": "cafe",
    "tags": [
      "cafe",
      "starbucks"
    ],
    "lat": 37.5575422666516,
    "lng": 127.170726725775,
    "address": "서울 강동구 고덕로 399",
    "phone": "1522-3232"
  },
  "starbucks-스타벅스-이케아강동점": {
    "id": "starbucks-스타벅스-이케아강동점",
    "name": "스타벅스 이케아강동점",
    "type": "cafe",
    "tags": [
      "cafe",
      "starbucks"
    ],
    "lat": 37.5666600295608,
    "lng": 127.157333362387,
    "address": "서울 강동구 고덕비즈밸리로 51",
    "phone": "1522-3232"
  },
  "starbucks-스타벅스-강동그란츠점": {
    "id": "starbucks-스타벅스-강동그란츠점",
    "name": "스타벅스 강동그란츠점",
    "type": "cafe",
    "tags": [
      "cafe",
      "starbucks"
    ],
    "lat": 37.5367081285903,
    "lng": 127.12831775388,
    "address": "서울 강동구 천호대로 1050",
    "phone": "1522-3232"
  },
  "starbucks-스타벅스-둔촌포레온스테이션5점": {
    "id": "starbucks-스타벅스-둔촌포레온스테이션5점",
    "name": "스타벅스 둔촌포레온스테이션5점",
    "type": "cafe",
    "tags": [
      "cafe",
      "starbucks"
    ],
    "lat": 37.5267093614523,
    "lng": 127.136672234168,
    "address": "서울 강동구 양재대로 1360",
    "phone": "1522-3232"
  },
  "starbucks-스타벅스-광나루점": {
    "id": "starbucks-스타벅스-광나루점",
    "name": "스타벅스 광나루점",
    "type": "cafe",
    "tags": [
      "cafe",
      "starbucks"
    ],
    "lat": 37.54742507420889,
    "lng": 127.10606374126958,
    "address": "서울 광진구 아차산로 607",
    "phone": "1522-3232"
  },
  "starbucks-스타벅스-올림픽아파트점": {
    "id": "starbucks-스타벅스-올림픽아파트점",
    "name": "스타벅스 올림픽아파트점",
    "type": "cafe",
    "tags": [
      "cafe",
      "starbucks"
    ],
    "lat": 37.515220949763574,
    "lng": 127.13328392140174,
    "address": "서울 송파구 양재대로 1220",
    "phone": "1522-3232"
  },
  "starbucks-스타벅스-하남황산사거리점": {
    "id": "starbucks-스타벅스-하남황산사거리점",
    "name": "스타벅스 하남황산사거리점",
    "type": "cafe",
    "tags": [
      "cafe",
      "starbucks"
    ],
    "lat": 37.550695804163794,
    "lng": 127.18609037162813,
    "address": "경기 하남시 조정대로 65",
    "phone": "1522-3232"
  },
  "starbucks-스타벅스-하남미사dt점": {
    "id": "starbucks-스타벅스-하남미사dt점",
    "name": "스타벅스 하남미사DT점",
    "type": "cafe",
    "tags": [
      "cafe",
      "starbucks"
    ],
    "lat": 37.55996573068262,
    "lng": 127.1857885974711,
    "address": "경기 하남시 미사강변남로 35",
    "phone": "1522-3232"
  },
  "starbucks-스타벅스-길동역점-주차장": {
    "id": "starbucks-스타벅스-길동역점-주차장",
    "name": "스타벅스 길동역점 주차장",
    "type": "cafe",
    "tags": [
      "cafe",
      "starbucks"
    ],
    "lat": 37.5387157277431,
    "lng": 127.140060297575,
    "address": "서울 강동구 양재대로 1487",
    "phone": ""
  },
  "starbucks-스타벅스-강동구청dt점-주차장": {
    "id": "starbucks-스타벅스-강동구청dt점-주차장",
    "name": "스타벅스 강동구청DT점 주차장",
    "type": "cafe",
    "tags": [
      "cafe",
      "starbucks"
    ],
    "lat": 37.5291913939739,
    "lng": 127.123804421461,
    "address": "서울 강동구 성내로 32",
    "phone": ""
  },
  "starbucks-스타벅스-강동암사dt-주차장": {
    "id": "starbucks-스타벅스-강동암사dt-주차장",
    "name": "스타벅스 강동암사DT 주차장",
    "type": "cafe",
    "tags": [
      "cafe",
      "starbucks"
    ],
    "lat": 37.5549812237825,
    "lng": 127.130016111165,
    "address": "서울 강동구 암사동 441-12",
    "phone": ""
  },
  "starbucks-스타벅스-하남미사dt-주차장": {
    "id": "starbucks-스타벅스-하남미사dt-주차장",
    "name": "스타벅스 하남미사DT 주차장",
    "type": "cafe",
    "tags": [
      "cafe",
      "starbucks"
    ],
    "lat": 37.5599711455406,
    "lng": 127.185782951914,
    "address": "경기 하남시 미사강변남로 35",
    "phone": ""
  },
  "starbucks-스타벅스-강북구청사거리점": {
    "id": "starbucks-스타벅스-강북구청사거리점",
    "name": "스타벅스 강북구청사거리점",
    "type": "cafe",
    "tags": [
      "cafe",
      "starbucks"
    ],
    "lat": 37.6400139982618,
    "lng": 127.027396306598,
    "address": "서울 강북구 도봉로 365",
    "phone": "1522-3232"
  },
  "starbucks-스타벅스-미아뉴타운점": {
    "id": "starbucks-스타벅스-미아뉴타운점",
    "name": "스타벅스 미아뉴타운점",
    "type": "cafe",
    "tags": [
      "cafe",
      "starbucks"
    ],
    "lat": 37.61834476046741,
    "lng": 127.02114611983023,
    "address": "서울 강북구 삼양로 161",
    "phone": ""
  },
  "starbucks-스타벅스-수유역점": {
    "id": "starbucks-스타벅스-수유역점",
    "name": "스타벅스 수유역점",
    "type": "cafe",
    "tags": [
      "cafe",
      "starbucks"
    ],
    "lat": 37.6381798439037,
    "lng": 127.026294369466,
    "address": "서울 강북구 도봉로 342",
    "phone": ""
  },
  "starbucks-스타벅스-미아사거리역점": {
    "id": "starbucks-스타벅스-미아사거리역점",
    "name": "스타벅스 미아사거리역점",
    "type": "cafe",
    "tags": [
      "cafe",
      "starbucks"
    ],
    "lat": 37.6118231378487,
    "lng": 127.03058891879,
    "address": "서울 강북구 도봉로 32",
    "phone": "1522-3232"
  },
  "starbucks-스타벅스-미아역점": {
    "id": "starbucks-스타벅스-미아역점",
    "name": "스타벅스 미아역점",
    "type": "cafe",
    "tags": [
      "cafe",
      "starbucks"
    ],
    "lat": 37.62618135859377,
    "lng": 127.02654615622092,
    "address": "서울 강북구 도봉로 196",
    "phone": "1522-3232"
  },
  "starbucks-스타벅스-수유역5번출구점": {
    "id": "starbucks-스타벅스-수유역5번출구점",
    "name": "스타벅스 수유역5번출구점",
    "type": "cafe",
    "tags": [
      "cafe",
      "starbucks"
    ],
    "lat": 37.636722675023,
    "lng": 127.023322088325,
    "address": "서울 강북구 도봉로 315",
    "phone": "1522-3232"
  },
  "starbucks-스타벅스-서울안토점": {
    "id": "starbucks-스타벅스-서울안토점",
    "name": "스타벅스 서울안토점",
    "type": "cafe",
    "tags": [
      "cafe",
      "starbucks"
    ],
    "lat": 37.6641954957084,
    "lng": 127.010407852634,
    "address": "서울 강북구 삼양로 689",
    "phone": "1522-3232"
  },
  "starbucks-스타벅스-쌍문도봉로점": {
    "id": "starbucks-스타벅스-쌍문도봉로점",
    "name": "스타벅스 쌍문도봉로점",
    "type": "cafe",
    "tags": [
      "cafe",
      "starbucks"
    ],
    "lat": 37.645389604873,
    "lng": 127.033118153379,
    "address": "서울 도봉구 도봉로 444",
    "phone": "1522-3232"
  },
  "starbucks-스타벅스-쌍문점": {
    "id": "starbucks-스타벅스-쌍문점",
    "name": "스타벅스 쌍문점",
    "type": "cafe",
    "tags": [
      "cafe",
      "starbucks"
    ],
    "lat": 37.6494243943231,
    "lng": 127.035576631648,
    "address": "서울 도봉구 도봉로 494",
    "phone": "1522-3232"
  },
  "starbucks-스타벅스-덕성여대점": {
    "id": "starbucks-스타벅스-덕성여대점",
    "name": "스타벅스 덕성여대점",
    "type": "cafe",
    "tags": [
      "cafe",
      "starbucks"
    ],
    "lat": 37.650942669852064,
    "lng": 127.01321855850139,
    "address": "서울 도봉구 삼양로 536",
    "phone": "1522-3232"
  },
  "starbucks-스타벅스-창동이마트점": {
    "id": "starbucks-스타벅스-창동이마트점",
    "name": "스타벅스 창동이마트점",
    "type": "cafe",
    "tags": [
      "cafe",
      "starbucks"
    ],
    "lat": 37.6516449755707,
    "lng": 127.046868813877,
    "address": "서울 도봉구 노해로65길 4",
    "phone": "1522-3232"
  },
  "starbucks-스타벅스-창동역점": {
    "id": "starbucks-스타벅스-창동역점",
    "name": "스타벅스 창동역점",
    "type": "cafe",
    "tags": [
      "cafe",
      "starbucks"
    ],
    "lat": 37.65408556407402,
    "lng": 127.04949943873704,
    "address": "서울 도봉구 마들로13길 61",
    "phone": "1522-3232"
  },
  "starbucks-스타벅스-도봉로dt점": {
    "id": "starbucks-스타벅스-도봉로dt점",
    "name": "스타벅스 도봉로DT점",
    "type": "cafe",
    "tags": [
      "cafe",
      "starbucks"
    ],
    "lat": 37.6611802326364,
    "lng": 127.041629725755,
    "address": "서울 도봉구 도봉로 635",
    "phone": "1522-3232"
  },
  "starbucks-스타벅스-장위뉴타운점": {
    "id": "starbucks-스타벅스-장위뉴타운점",
    "name": "스타벅스 장위뉴타운점",
    "type": "cafe",
    "tags": [
      "cafe",
      "starbucks"
    ],
    "lat": 37.61806331358951,
    "lng": 127.05151211017781,
    "address": "서울 성북구 장월로38길 4",
    "phone": "1522-3232"
  },
  "starbucks-스타벅스-노원역점": {
    "id": "starbucks-스타벅스-노원역점",
    "name": "스타벅스 노원역점",
    "type": "cafe",
    "tags": [
      "cafe",
      "starbucks"
    ],
    "lat": 37.65472035675518,
    "lng": 127.06006164256367,
    "address": "서울 노원구 동일로 1413",
    "phone": "1522-3232"
  },
  "starbucks-스타벅스-월계역점": {
    "id": "starbucks-스타벅스-월계역점",
    "name": "스타벅스 월계역점",
    "type": "cafe",
    "tags": [
      "cafe",
      "starbucks"
    ],
    "lat": 37.62943828633148,
    "lng": 127.0573484962675,
    "address": "서울 노원구 초안산로2라길 26",
    "phone": "1522-3232"
  },
  "starbucks-스타벅스-중계역점": {
    "id": "starbucks-스타벅스-중계역점",
    "name": "스타벅스 중계역점",
    "type": "cafe",
    "tags": [
      "cafe",
      "starbucks"
    ],
    "lat": 37.6481817147963,
    "lng": 127.062204808397,
    "address": "서울 노원구 동일로 1339",
    "phone": "1522-3232"
  },
  "starbucks-스타벅스-방학역점": {
    "id": "starbucks-스타벅스-방학역점",
    "name": "스타벅스 방학역점",
    "type": "cafe",
    "tags": [
      "cafe",
      "starbucks"
    ],
    "lat": 37.6653465622203,
    "lng": 127.043589434428,
    "address": "서울 도봉구 도봉로 684",
    "phone": "1522-3232"
  },
  "starbucks-스타벅스-노원구청점": {
    "id": "starbucks-스타벅스-노원구청점",
    "name": "스타벅스 노원구청점",
    "type": "cafe",
    "tags": [
      "cafe",
      "starbucks"
    ],
    "lat": 37.6539700937755,
    "lng": 127.057745855422,
    "address": "서울 노원구 노해로 447",
    "phone": "1522-3232"
  },
  "starbucks-스타벅스-미아이마트": {
    "id": "starbucks-스타벅스-미아이마트",
    "name": "스타벅스 미아이마트",
    "type": "cafe",
    "tags": [
      "cafe",
      "starbucks"
    ],
    "lat": 37.61086285147552,
    "lng": 127.02993389843303,
    "address": "서울 성북구 도봉로 17",
    "phone": "1522-3232"
  },
  "starbucks-스타벅스-미아점": {
    "id": "starbucks-스타벅스-미아점",
    "name": "스타벅스 미아점",
    "type": "cafe",
    "tags": [
      "cafe",
      "starbucks"
    ],
    "lat": 37.6075816059343,
    "lng": 127.029305165679,
    "address": "서울 성북구 동소문로 314",
    "phone": "1522-3232"
  },
  "starbucks-스타벅스-월계트레이더스점": {
    "id": "starbucks-스타벅스-월계트레이더스점",
    "name": "스타벅스 월계트레이더스점",
    "type": "cafe",
    "tags": [
      "cafe",
      "starbucks"
    ],
    "lat": 37.62759082697573,
    "lng": 127.06178435781577,
    "address": "서울 노원구 마들로3길 17",
    "phone": "1522-3232"
  },
  "starbucks-스타벅스-현대미아점": {
    "id": "starbucks-스타벅스-현대미아점",
    "name": "스타벅스 현대미아점",
    "type": "cafe",
    "tags": [
      "cafe",
      "starbucks"
    ],
    "lat": 37.60821503046236,
    "lng": 127.02918876333977,
    "address": "서울 성북구 길음동 20-5",
    "phone": "1522-3232"
  },
  "starbucks-스타벅스-광운대점": {
    "id": "starbucks-스타벅스-광운대점",
    "name": "스타벅스 광운대점",
    "type": "cafe",
    "tags": [
      "cafe",
      "starbucks"
    ],
    "lat": 37.6231891063632,
    "lng": 127.060820134493,
    "address": "서울 노원구 석계로 104",
    "phone": "1522-3232"
  },
  "starbucks-스타벅스-노원마들역점": {
    "id": "starbucks-스타벅스-노원마들역점",
    "name": "스타벅스 노원마들역점",
    "type": "cafe",
    "tags": [
      "cafe",
      "starbucks"
    ],
    "lat": 37.66092103259188,
    "lng": 127.05802437230538,
    "address": "서울 노원구 노원로 547",
    "phone": "1522-3232"
  },
  "starbucks-스타벅스-월계이마트점": {
    "id": "starbucks-스타벅스-월계이마트점",
    "name": "스타벅스 월계이마트점",
    "type": "cafe",
    "tags": [
      "cafe",
      "starbucks"
    ],
    "lat": 37.6271527835984,
    "lng": 127.062096653474,
    "address": "서울 노원구 마들로3길 15",
    "phone": "1522-3232"
  },
  "starbucks-스타벅스-노원kt점": {
    "id": "starbucks-스타벅스-노원kt점",
    "name": "스타벅스 노원KT점",
    "type": "cafe",
    "tags": [
      "cafe",
      "starbucks"
    ],
    "lat": 37.6546284737532,
    "lng": 127.063470345532,
    "address": "서울 노원구 노해로 502",
    "phone": "1522-3232"
  },
  "starbucks-스타벅스-도봉구청점": {
    "id": "starbucks-스타벅스-도봉구청점",
    "name": "스타벅스 도봉구청점",
    "type": "cafe",
    "tags": [
      "cafe",
      "starbucks"
    ],
    "lat": 37.66946671518605,
    "lng": 127.0460412569929,
    "address": "서울 도봉구 마들로 665",
    "phone": "1522-3232"
  },
  "starbucks-스타벅스-길음뉴타운점": {
    "id": "starbucks-스타벅스-길음뉴타운점",
    "name": "스타벅스 길음뉴타운점",
    "type": "cafe",
    "tags": [
      "cafe",
      "starbucks"
    ],
    "lat": 37.6037852444956,
    "lng": 127.023437505361,
    "address": "서울 성북구 길음로 11",
    "phone": "1522-3232"
  },
  "starbucks-스타벅스-상계초교사거리점": {
    "id": "starbucks-스타벅스-상계초교사거리점",
    "name": "스타벅스 상계초교사거리점",
    "type": "cafe",
    "tags": [
      "cafe",
      "starbucks"
    ],
    "lat": 37.6566702654055,
    "lng": 127.066441245826,
    "address": "서울 노원구 노원로 449",
    "phone": "1522-3232"
  },
  "starbucks-스타벅스-길음역점": {
    "id": "starbucks-스타벅스-길음역점",
    "name": "스타벅스 길음역점",
    "type": "cafe",
    "tags": [
      "cafe",
      "starbucks"
    ],
    "lat": 37.60201621103844,
    "lng": 127.02532246070425,
    "address": "서울 성북구 정릉로 376",
    "phone": "1522-3232"
  },
  "starbucks-스타벅스-공릉역점": {
    "id": "starbucks-스타벅스-공릉역점",
    "name": "스타벅스 공릉역점",
    "type": "cafe",
    "tags": [
      "cafe",
      "starbucks"
    ],
    "lat": 37.626422618227,
    "lng": 127.07223694894179,
    "address": "서울 노원구 동일로 1081",
    "phone": "1522-3232"
  },
  "starbucks-스타벅스-종암점": {
    "id": "starbucks-스타벅스-종암점",
    "name": "스타벅스 종암점",
    "type": "cafe",
    "tags": [
      "cafe",
      "starbucks"
    ],
    "lat": 37.60116535924222,
    "lng": 127.0337836573406,
    "address": "서울 성북구 종암로 122",
    "phone": "1522-3232"
  },
  "starbucks-스타벅스-월곡역점": {
    "id": "starbucks-스타벅스-월곡역점",
    "name": "스타벅스 월곡역점",
    "type": "cafe",
    "tags": [
      "cafe",
      "starbucks"
    ],
    "lat": 37.60196239252755,
    "lng": 127.04059223371526,
    "address": "서울 성북구 화랑로 76",
    "phone": "1522-3232"
  },
  "starbucks-스타벅스-공릉dt점": {
    "id": "starbucks-스타벅스-공릉dt점",
    "name": "스타벅스 공릉DT점",
    "type": "cafe",
    "tags": [
      "cafe",
      "starbucks"
    ],
    "lat": 37.620790371073866,
    "lng": 127.07426417069411,
    "address": "서울 노원구 동일로 1015",
    "phone": "1522-3232"
  },
  "starbucks-스타벅스-은행사거리점": {
    "id": "starbucks-스타벅스-은행사거리점",
    "name": "스타벅스 은행사거리점",
    "type": "cafe",
    "tags": [
      "cafe",
      "starbucks"
    ],
    "lat": 37.6504801657301,
    "lng": 127.075977055248,
    "address": "서울 노원구 중계로 217",
    "phone": "1522-3232"
  },
  "starbucks-스타벅스-성신여대점": {
    "id": "starbucks-스타벅스-성신여대점",
    "name": "스타벅스 성신여대점",
    "type": "cafe",
    "tags": [
      "cafe",
      "starbucks"
    ],
    "lat": 37.5931679490386,
    "lng": 127.018456564409,
    "address": "서울 성북구 동소문로24길 12",
    "phone": "1522-3232"
  },
  "starbucks-스타벅스-종암dt점": {
    "id": "starbucks-스타벅스-종암dt점",
    "name": "스타벅스 종암DT점",
    "type": "cafe",
    "tags": [
      "cafe",
      "starbucks"
    ],
    "lat": 37.5918231921731,
    "lng": 127.036110806959,
    "address": "서울 성북구 종암로 17",
    "phone": "1522-3232"
  },
  "starbucks-스타벅스-태릉입구역dt": {
    "id": "starbucks-스타벅스-태릉입구역dt",
    "name": "스타벅스 태릉입구역DT",
    "type": "cafe",
    "tags": [
      "cafe",
      "starbucks"
    ],
    "lat": 37.61922817503568,
    "lng": 127.07934560540714,
    "address": "서울 노원��� 화랑로 469",
    "phone": "1522-3232"
  },
  "starbucks-스타벅스-성신여대정문점": {
    "id": "starbucks-스타벅스-성신여대정문점",
    "name": "스타벅스 성신여대정문점",
    "type": "cafe",
    "tags": [
      "cafe",
      "starbucks"
    ],
    "lat": 37.590903697121114,
    "lng": 127.0188296544303,
    "address": "서울 성북구 보문로34길 62",
    "phone": "1522-3232"
  },
  "starbucks-스타벅스-성신여대입구역점": {
    "id": "starbucks-스타벅스-성신여대입구역점",
    "name": "스타벅스 성신여대입구역점",
    "type": "cafe",
    "tags": [
      "cafe",
      "starbucks"
    ],
    "lat": 37.59301684379367,
    "lng": 127.01670145857759,
    "address": "서울 성북구 동소문로 105",
    "phone": "1522-3232"
  },
  "starbucks-스타벅스-외대정문점": {
    "id": "starbucks-스타벅스-외대정문점",
    "name": "스타벅스 외대정문점",
    "type": "cafe",
    "tags": [
      "cafe",
      "starbucks"
    ],
    "lat": 37.5952952526032,
    "lng": 127.059298210969,
    "address": "서울 동대문구 이문로 93",
    "phone": "1522-3232"
  },
  "starbucks-스타벅스-회기역사거리점": {
    "id": "starbucks-스타벅스-회기역사거리점",
    "name": "스타벅스 회기역사거리점",
    "type": "cafe",
    "tags": [
      "cafe",
      "starbucks"
    ],
    "lat": 37.5909755140802,
    "lng": 127.0564052274,
    "address": "서울 동대문구 이문로 37",
    "phone": "1522-3232"
  },
  "starbucks-스타벅스-묵동점": {
    "id": "starbucks-스타벅스-묵동점",
    "name": "스타벅스 묵동점",
    "type": "cafe",
    "tags": [
      "cafe",
      "starbucks"
    ],
    "lat": 37.61533393573,
    "lng": 127.076879107253,
    "address": "서울 중랑구 동일로 952",
    "phone": "1522-3232"
  },
  "starbucks-스타벅스-안암역점": {
    "id": "starbucks-스타벅스-안암역점",
    "name": "스타벅스 안암역점",
    "type": "cafe",
    "tags": [
      "cafe",
      "starbucks"
    ],
    "lat": 37.58610880934777,
    "lng": 127.03076860251483,
    "address": "서울 성북구 고려대로 102-2",
    "phone": "1522-3232"
  },
  "starbucks-스타벅스-마곡나루역점": {
    "id": "starbucks-스타벅스-마곡나루역점",
    "name": "스타벅스 마곡나루역점",
    "type": "cafe",
    "tags": [
      "cafe",
      "starbucks"
    ],
    "lat": 37.5681306923844,
    "lng": 126.826136318604,
    "address": "서울 강서구 마곡중앙로 161-17",
    "phone": "1522-3232"
  },
  "starbucks-스타벅스-마곡사이언스타워r": {
    "id": "starbucks-스타벅스-마곡사이언스타워r",
    "name": "스타벅스 마곡사이언스타워R",
    "type": "cafe",
    "tags": [
      "cafe",
      "starbucks"
    ],
    "lat": 37.56059595846078,
    "lng": 126.83384561061793,
    "address": "서울 강서구 마곡동로 62",
    "phone": "1522-3232"
  },
  "starbucks-스타벅스-화-dt점": {
    "id": "starbucks-스타벅스-화-dt점",
    "name": "스타벅스 화��DT점",
    "type": "cafe",
    "tags": [
      "cafe",
      "starbucks"
    ],
    "lat": 37.5349902242394,
    "lng": 126.86312483878,
    "address": "서울 강서구 등촌로 57",
    "phone": "1522-3232"
  },
  "starbucks-스타벅스-방화dt": {
    "id": "starbucks-스타벅스-방화dt",
    "name": "스타벅스 방화DT",
    "type": "cafe",
    "tags": [
      "cafe",
      "starbucks"
    ],
    "lat": 37.57445728526807,
    "lng": 126.81648812269275,
    "address": "서울 강서구 방화대로 375",
    "phone": "1522-3232"
  },
  "starbucks-스타벅스-까치산역점": {
    "id": "starbucks-스타벅스-까치산역점",
    "name": "스타벅스 까치산역점",
    "type": "cafe",
    "tags": [
      "cafe",
      "starbucks"
    ],
    "lat": 37.5323095184562,
    "lng": 126.84610468757,
    "address": "서울 강서구 강서로13길 3",
    "phone": "1522-3232"
  },
  "starbucks-스타벅스-등촌": {
    "id": "starbucks-스타벅스-등촌",
    "name": "스타벅스 등촌",
    "type": "cafe",
    "tags": [
      "cafe",
      "starbucks"
    ],
    "lat": 37.55820907037809,
    "lng": 126.84431303151688,
    "address": "서울 강서구 공항대로 329",
    "phone": "1522-3232"
  },
  "starbucks-스타벅스-우장산역": {
    "id": "starbucks-스타벅스-우장산역",
    "name": "스타벅스 우장산역",
    "type": "cafe",
    "tags": [
      "cafe",
      "starbucks"
    ],
    "lat": 37.54952281316778,
    "lng": 126.83585283195558,
    "address": "서울 강서구 강서로 267",
    "phone": "1522-3232"
  },
  "starbucks-스타벅스-김포공항dt점": {
    "id": "starbucks-스타벅스-김포공항dt점",
    "name": "스타벅스 김포공항DT점",
    "type": "cafe",
    "tags": [
      "cafe",
      "starbucks"
    ],
    "lat": 37.56630192697181,
    "lng": 126.80605506972896,
    "address": "서울 강서구 개화동로 517",
    "phone": "1522-3232"
  },
  "starbucks-스타벅스-화곡동점": {
    "id": "starbucks-스타벅스-화곡동점",
    "name": "스타벅스 화곡동점",
    "type": "cafe",
    "tags": [
      "cafe",
      "starbucks"
    ],
    "lat": 37.54056723191606,
    "lng": 126.83740226502186,
    "address": "서울 강서구 화곡로 142",
    "phone": "1522-3232"
  },
  "starbucks-스타벅스-가양역점": {
    "id": "starbucks-스타벅스-가양역점",
    "name": "스타벅스 가양역점",
    "type": "cafe",
    "tags": [
      "cafe",
      "starbucks"
    ],
    "lat": 37.56157807618199,
    "lng": 126.8536107571435,
    "address": "서울 강서구 양천로 476",
    "phone": "1522-3232"
  },
  "starbucks-스타벅스-마곡역": {
    "id": "starbucks-스타벅스-마곡역",
    "name": "스타벅스 마곡역",
    "type": "cafe",
    "tags": [
      "cafe",
      "starbucks"
    ],
    "lat": 37.55934398119595,
    "lng": 126.82599715501443,
    "address": "서울 강서구 공항대로 168",
    "phone": "1522-3232"
  },
  "starbucks-스타벅스-발산역점": {
    "id": "starbucks-스타벅스-발산역점",
    "name": "스타벅스 발산역점",
    "type": "cafe",
    "tags": [
      "cafe",
      "starbucks"
    ],
    "lat": 37.56028791382789,
    "lng": 126.83911937699966,
    "address": "서울 강서구 강서로 388",
    "phone": "1522-3232"
  },
  "starbucks-스타벅스-마곡보타닉게이트점": {
    "id": "starbucks-스타벅스-마곡보타닉게이트점",
    "name": "스타벅스 마곡보타닉게이트점",
    "type": "cafe",
    "tags": [
      "cafe",
      "starbucks"
    ],
    "lat": 37.5690919380724,
    "lng": 126.836784495847,
    "address": "서울 강서구 마곡동로 166",
    "phone": "1522-3232"
  },
  "starbucks-스타벅스-강서구청사거리점": {
    "id": "starbucks-스타벅스-강서구청사거리점",
    "name": "스타벅스 강서구청사거리점",
    "type": "cafe",
    "tags": [
      "cafe",
      "starbucks"
    ],
    "lat": 37.554809848353,
    "lng": 126.852210475534,
    "address": "서울 강서구 화곡로 350",
    "phone": "1522-3232"
  },
  "starbucks-스타벅스-염창역점": {
    "id": "starbucks-스타벅스-염창역점",
    "name": "스타벅스 염창역점",
    "type": "cafe",
    "tags": [
      "cafe",
      "starbucks"
    ],
    "lat": 37.5472168548992,
    "lng": 126.87454530974277,
    "address": "서울 강서구 공항대로 627",
    "phone": "1522-3232"
  },
  "starbucks-스타벅스-화곡역8번출구점": {
    "id": "starbucks-스타벅스-화곡역8번출구점",
    "name": "스타벅스 화곡역8번출구점",
    "type": "cafe",
    "tags": [
      "cafe",
      "starbucks"
    ],
    "lat": 37.5423628473275,
    "lng": 126.839321974376,
    "address": "서울 강서구 강서로 179",
    "phone": "1522-3232"
  },
  "starbucks-스타벅스-발산역5번출구점": {
    "id": "starbucks-스타벅스-발산역5번출구점",
    "name": "스타벅스 발산역5번출구점",
    "type": "cafe",
    "tags": [
      "cafe",
      "starbucks"
    ],
    "lat": 37.55804161709554,
    "lng": 126.8403634966411,
    "address": "서울 강서구 강서로52길 43",
    "phone": "1522-3232"
  },
  "starbucks-스타벅스-송정역점": {
    "id": "starbucks-스타벅스-송정역점",
    "name": "스타벅스 송정역점",
    "type": "cafe",
    "tags": [
      "cafe",
      "starbucks"
    ],
    "lat": 37.5610083651335,
    "lng": 126.81148453212424,
    "address": "서울 강서구 공항대로 38",
    "phone": "1522-3232"
  },
  "starbucks-스타벅스-마곡gmg": {
    "id": "starbucks-스타벅스-마곡gmg",
    "name": "스타벅스 마곡GMG",
    "type": "cafe",
    "tags": [
      "cafe",
      "starbucks"
    ],
    "lat": 37.5604123842333,
    "lng": 126.829581367925,
    "address": "서울 강서구 마곡중앙6로 16",
    "phone": "1522-3232"
  },
  "starbucks-스타벅스-마곡나루공원": {
    "id": "starbucks-스타벅스-마곡나루공원",
    "name": "스타벅스 마곡나루공원",
    "type": "cafe",
    "tags": [
      "cafe",
      "starbucks"
    ],
    "lat": 37.5669194030235,
    "lng": 126.8222691482277,
    "address": "서울 강서구 마곡중앙5로 47",
    "phone": "1522-3232"
  },
  "starbucks-스타벅스-마곡웰튼": {
    "id": "starbucks-스타벅스-마곡웰튼",
    "name": "스타벅스 마곡웰튼",
    "type": "cafe",
    "tags": [
      "cafe",
      "starbucks"
    ],
    "lat": 37.5672825304792,
    "lng": 126.825305203297,
    "address": "서울 강서구 마곡중앙5로 22",
    "phone": "1522-3232"
  },
  "starbucks-스타벅스-가양역사거리점": {
    "id": "starbucks-스타벅스-가양역사거리점",
    "name": "스타벅스 가양역사거리점",
    "type": "cafe",
    "tags": [
      "cafe",
      "starbucks"
    ],
    "lat": 37.5600251851564,
    "lng": 126.855419019391,
    "address": "서울 강서구 화곡로 416",
    "phone": "1522-3232"
  },
  "starbucks-스타벅스-등촌대로점": {
    "id": "starbucks-스타벅스-등촌대로점",
    "name": "스타벅스 등촌대로점",
    "type": "cafe",
    "tags": [
      "cafe",
      "starbucks"
    ],
    "lat": 37.5507253809572,
    "lng": 126.866368833694,
    "address": "서울 강서구 공항대로 543",
    "phone": "1522-3232"
  },
  "starbucks-스타벅스-발산역사거리점": {
    "id": "starbucks-스타벅스-발산역사거리점",
    "name": "스타벅스 발산역사거리점",
    "type": "cafe",
    "tags": [
      "cafe",
      "starbucks"
    ],
    "lat": 37.55848040769141,
    "lng": 126.8351224270735,
    "address": "서울 강서구 공항대로 248",
    "phone": "1522-3232"
  },
  "starbucks-스타벅스-원그로브점": {
    "id": "starbucks-스타벅스-원그로브점",
    "name": "스타벅스 원그로브점",
    "type": "cafe",
    "tags": [
      "cafe",
      "starbucks"
    ],
    "lat": 37.56124854290177,
    "lng": 126.82468207827617,
    "address": "서울 강서구 공항대로 165",
    "phone": "1522-3232"
  },
  "starbucks-스타벅스-내발산점": {
    "id": "starbucks-스타벅스-내발산점",
    "name": "스타벅스 내발산점",
    "type": "cafe",
    "tags": [
      "cafe",
      "starbucks"
    ],
    "lat": 37.5546702794501,
    "lng": 126.836552262812,
    "address": "서울 강서구 강서로 323",
    "phone": "1522-3232"
  },
  "starbucks-스타벅스-강서우장산점": {
    "id": "starbucks-스타벅스-강서우장산점",
    "name": "스타벅스 강서우장산점",
    "type": "cafe",
    "tags": [
      "cafe",
      "starbucks"
    ],
    "lat": 37.5462444503704,
    "lng": 126.836118023996,
    "address": "서울 강서구 강서로 231",
    "phone": "1522-3232"
  },
  "starbucks-스타벅스-마곡코엑스점": {
    "id": "starbucks-스타벅스-마곡코엑스점",
    "name": "스타벅스 마곡코엑스점",
    "type": "cafe",
    "tags": [
      "cafe",
      "starbucks"
    ],
    "lat": 37.5653036336857,
    "lng": 126.825703719271,
    "address": "서울 강서구 마곡중앙로 143",
    "phone": "1522-3232"
  },
  "starbucks-스타벅스-마곡케이스퀘어점": {
    "id": "starbucks-스타벅스-마곡케이스퀘어점",
    "name": "스타벅스 마곡케이스퀘어점",
    "type": "cafe",
    "tags": [
      "cafe",
      "starbucks"
    ],
    "lat": 37.56220303019463,
    "lng": 126.82673864845839,
    "address": "서울 강서구 마곡중앙로 105-7",
    "phone": "1522-3232"
  },
  "starbucks-스타벅스-염창대로점": {
    "id": "starbucks-스타벅스-염창대로점",
    "name": "스타벅스 염창대로점",
    "type": "cafe",
    "tags": [
      "cafe",
      "starbucks"
    ],
    "lat": 37.548559622353,
    "lng": 126.878255933276,
    "address": "서울 강서구 양천로 744",
    "phone": "1522-3232"
  },
  "starbucks-스타벅스-김포공항국제선점": {
    "id": "starbucks-스타벅스-김포공항국제선점",
    "name": "스타벅스 김포공항국제선점",
    "type": "cafe",
    "tags": [
      "cafe",
      "starbucks"
    ],
    "lat": 37.56619051764555,
    "lng": 126.80029854380923,
    "address": "서울 강서구 하늘길 38",
    "phone": "1522-3232"
  },
  "starbucks-스타벅스-강서nc": {
    "id": "starbucks-스타벅스-강서nc",
    "name": "스타벅스 강서NC",
    "type": "cafe",
    "tags": [
      "cafe",
      "starbucks"
    ],
    "lat": 37.55985946992051,
    "lng": 126.84009930450155,
    "address": "서울 강서구 강서로56길 17",
    "phone": "1522-3232"
  },
  "starbucks-스타벅스-양천향교역점": {
    "id": "starbucks-스타벅스-양천향교역점",
    "name": "스타벅스 양천향교역점",
    "type": "cafe",
    "tags": [
      "cafe",
      "starbucks"
    ],
    "lat": 37.5681103665664,
    "lng": 126.840455203301,
    "address": "서울 강서구 양천로 344",
    "phone": "1522-3232"
  },
  "starbucks-스타벅스-등촌역점": {
    "id": "starbucks-스타벅스-등촌역점",
    "name": "스타벅스 등촌역점",
    "type": "cafe",
    "tags": [
      "cafe",
      "starbucks"
    ],
    "lat": 37.548908262121664,
    "lng": 126.86814421649235,
    "address": "서울 양천구 공항대로 566",
    "phone": "1522-3232"
  },
  "starbucks-스타벅스-신월동dt": {
    "id": "starbucks-스타벅스-신월동dt",
    "name": "스타벅스 신월동DT",
    "type": "cafe",
    "tags": [
      "cafe",
      "starbucks"
    ],
    "lat": 37.5382766629732,
    "lng": 126.82709273313,
    "address": "서울 양천구 남부순환로 319",
    "phone": "1522-3232"
  },
  "starbucks-스타벅스-신월ic-dt점": {
    "id": "starbucks-스타벅스-신월ic-dt점",
    "name": "스타벅스 신월IC DT점",
    "type": "cafe",
    "tags": [
      "cafe",
      "starbucks"
    ],
    "lat": 37.5294757580385,
    "lng": 126.832131673807,
    "address": "서울 양천구 남부순환로 430",
    "phone": "1522-3232"
  },
  "starbucks-스타벅스-신정dt점": {
    "id": "starbucks-스타벅스-신정dt점",
    "name": "스타벅스 신정DT점",
    "type": "cafe",
    "tags": [
      "cafe",
      "starbucks"
    ],
    "lat": 37.5220179956817,
    "lng": 126.858858924977,
    "address": "서울 양천구 신월로 341",
    "phone": "1522-3232"
  },
  "starbucks-스타벅스-목동역점": {
    "id": "starbucks-스타벅스-목동역점",
    "name": "스타벅스 목동역점",
    "type": "cafe",
    "tags": [
      "cafe",
      "starbucks"
    ],
    "lat": 37.5267849201481,
    "lng": 126.863999619945,
    "address": "서울 양천구 목동로 203",
    "phone": ""
  },
  "starbucks-스타벅스-목동점": {
    "id": "starbucks-스타벅스-목동점",
    "name": "스타벅스 목동점",
    "type": "cafe",
    "tags": [
      "cafe",
      "starbucks"
    ],
    "lat": 37.5365065039884,
    "lng": 126.878690771741,
    "address": "서울 양천구 목동서로 67",
    "phone": "1522-3232"
  },
  "starbucks-스타벅스-목동sbs점": {
    "id": "starbucks-스타벅스-목동sbs점",
    "name": "스타벅스 목동SBS점",
    "type": "cafe",
    "tags": [
      "cafe",
      "starbucks"
    ],
    "lat": 37.52890750393828,
    "lng": 126.87357362065502,
    "address": "서울 양천구 목동서로 161",
    "phone": "1522-3232"
  },
  "starbucks-스타벅스-목동오목로점": {
    "id": "starbucks-스타벅스-목동오목로점",
    "name": "스타벅스 목동오목로점",
    "type": "cafe",
    "tags": [
      "cafe",
      "starbucks"
    ],
    "lat": 37.52592318438705,
    "lng": 126.86843809046562,
    "address": "서울 양천구 오목로 279",
    "phone": "1522-3232"
  },
  "starbucks-스타벅스-목동7단지점": {
    "id": "starbucks-스타벅스-목동7단지점",
    "name": "스타벅스 목동7단지점",
    "type": "cafe",
    "tags": [
      "cafe",
      "starbucks"
    ],
    "lat": 37.52790227069982,
    "lng": 126.8705094492931,
    "address": "서울 양천구 목동서로 213",
    "phone": "1522-3232"
  },
  "starbucks-스타벅스-목동파리공원점": {
    "id": "starbucks-스타벅스-목동파리공원점",
    "name": "스타벅스 목동파리공원점",
    "type": "cafe",
    "tags": [
      "cafe",
      "starbucks"
    ],
    "lat": 37.5353389770394,
    "lng": 126.878855588739,
    "address": "서울 양천구 목동동로 377",
    "phone": "1522-3232"
  },
  "starbucks-스타벅스-목동행복한점": {
    "id": "starbucks-스타벅스-목동행복한점",
    "name": "스타벅스 목동행복한점",
    "type": "cafe",
    "tags": [
      "cafe",
      "starbucks"
    ],
    "lat": 37.52934243177625,
    "lng": 126.87588081683808,
    "address": "서울 양천구 목동동로 309",
    "phone": "1522-3232"
  },
  "starbucks-스타벅스-목동5단지점": {
    "id": "starbucks-스타벅스-목동5단지점",
    "name": "스타벅스 목동5단지점",
    "type": "cafe",
    "tags": [
      "cafe",
      "starbucks"
    ],
    "lat": 37.5364090617693,
    "lng": 126.882116945559,
    "address": "서울 양천구 목동동로 411",
    "phone": ""
  },
  "starbucks-스타벅스-사당점": {
    "id": "starbucks-스타벅스-사당점",
    "name": "스타벅스 사당점",
    "type": "cafe",
    "tags": [
      "cafe",
      "starbucks"
    ],
    "lat": 37.4761747005937,
    "lng": 126.980943666621,
    "address": "서울 관악구 남부순환로 2082-25",
    "phone": "1522-3232"
  },
  "starbucks-스타벅스-신림dt점": {
    "id": "starbucks-스타벅스-신림dt점",
    "name": "스타벅스 신림DT점",
    "type": "cafe",
    "tags": [
      "cafe",
      "starbucks"
    ],
    "lat": 37.480980972238186,
    "lng": 126.90842516192575,
    "address": "서울 관악구 남부순환로 1419",
    "phone": ""
  },
  "starbucks-스타벅스-낙성대dt점": {
    "id": "starbucks-스타벅스-낙성대dt점",
    "name": "스타벅스 낙성대DT점",
    "type": "cafe",
    "tags": [
      "cafe",
      "starbucks"
    ],
    "lat": 37.4761819067065,
    "lng": 126.965138754993,
    "address": "서울 관악구 남부순환로 1948",
    "phone": ""
  },
  "starbucks-스타벅스-관악서울대입구r점": {
    "id": "starbucks-스타벅스-관악서울대입구r점",
    "name": "스타벅스 관악서울대입구R점",
    "type": "cafe",
    "tags": [
      "cafe",
      "starbucks"
    ],
    "lat": 37.4793095346793,
    "lng": 126.952809411366,
    "address": "서울 관악구 관악로 158",
    "phone": "1522-3232"
  },
  "starbucks-스타벅스-신림타임스트림점": {
    "id": "starbucks-스타벅스-신림타임스트림점",
    "name": "스타벅스 신림타임스트림점",
    "type": "cafe",
    "tags": [
      "cafe",
      "starbucks"
    ],
    "lat": 37.4839979456956,
    "lng": 126.930102913928,
    "address": "서울 관악구 신림로 330",
    "phone": "1522-3232"
  },
  "starbucks-스타벅스-서울대역점": {
    "id": "starbucks-스타벅스-서울대역점",
    "name": "스타벅스 서울대역점",
    "type": "cafe",
    "tags": [
      "cafe",
      "starbucks"
    ],
    "lat": 37.4816085683419,
    "lng": 126.951962262615,
    "address": "서울 관악구 남부순환로 1817",
    "phone": "1522-3232"
  },
  "starbucks-스타벅스-서울대입구역점": {
    "id": "starbucks-스타벅스-서울대입구역점",
    "name": "스타벅스 서울대입구역점",
    "type": "cafe",
    "tags": [
      "cafe",
      "starbucks"
    ],
    "lat": 37.4811758306639,
    "lng": 126.951342964083,
    "address": "서울 관악구 남부순환로 1812",
    "phone": "1522-3232"
  },
  "starbucks-스타벅스-낙성대역점": {
    "id": "starbucks-스타벅스-낙성대역점",
    "name": "스타벅스 낙성대역점",
    "type": "cafe",
    "tags": [
      "cafe",
      "starbucks"
    ],
    "lat": 37.47777634476014,
    "lng": 126.96113243610868,
    "address": "서울 관악구 남부순환로 1908",
    "phone": "1522-3232"
  },
  "starbucks-스타벅스-신림점": {
    "id": "starbucks-스타벅스-신림점",
    "name": "스타벅스 신림점",
    "type": "cafe",
    "tags": [
      "cafe",
      "starbucks"
    ],
    "lat": 37.4861165935404,
    "lng": 126.92922352724,
    "address": "��울 관악구 신림로 355-1",
    "phone": "1522-3232"
  },
  "starbucks-스타벅스-봉천역": {
    "id": "starbucks-스타벅스-봉천역",
    "name": "스타벅스 봉천역",
    "type": "cafe",
    "tags": [
      "cafe",
      "starbucks"
    ],
    "lat": 37.48203672006856,
    "lng": 126.94228157472476,
    "address": "서울 관악구 남부순환로 1730",
    "phone": "1522-3232"
  },
  "starbucks-스타벅스-봉천현대시장": {
    "id": "starbucks-스타벅스-봉천현대시장",
    "name": "스타벅스 봉천현대시장",
    "type": "cafe",
    "tags": [
      "cafe",
      "starbucks"
    ],
    "lat": 37.48659860161536,
    "lng": 126.94828205055107,
    "address": "서울 관악구 은천로 118",
    "phone": "1522-3232"
  },
  "starbucks-스타벅스-신림녹두거리점": {
    "id": "starbucks-스타벅스-신림녹두거리점",
    "name": "스타벅스 신림녹두거리점",
    "type": "cafe",
    "tags": [
      "cafe",
      "starbucks"
    ],
    "lat": 37.4704053531146,
    "lng": 126.93825481255969,
    "address": "서울 관악구 신림로 99",
    "phone": "1522-3232"
  },
  "starbucks-스타벅스-서울대입구역8번출구점": {
    "id": "starbucks-스타벅스-서울대입구역8번출구점",
    "name": "스타벅스 서울대입구역8번출구점",
    "type": "cafe",
    "tags": [
      "cafe",
      "starbucks"
    ],
    "lat": 37.4811812723318,
    "lng": 126.95367315277564,
    "address": "서울 관악구 남부순환로 1831",
    "phone": "1522-3232"
  },
  "starbucks-스타벅스-보라매대교빌딩점": {
    "id": "starbucks-스타벅스-보라매대교빌딩점",
    "name": "스타벅스 보라매대교빌딩점",
    "type": "cafe",
    "tags": [
      "cafe",
      "starbucks"
    ],
    "lat": 37.491190595489165,
    "lng": 126.9255222751619,
    "address": "서울 관악구 보라매로3길 23",
    "phone": "1522-3232"
  },
  "starbucks-스타벅스-숭실대점": {
    "id": "starbucks-스타벅스-숭실대점",
    "name": "스타벅스 숭실대점",
    "type": "cafe",
    "tags": [
      "cafe",
      "starbucks"
    ],
    "lat": 37.4954167553415,
    "lng": 126.954861906699,
    "address": "서울 동작구 사당로 4",
    "phone": "1522-3232"
  },
  "starbucks-스타벅스-남성역점": {
    "id": "starbucks-스타벅스-남성역점",
    "name": "스타벅스 남성역점",
    "type": "cafe",
    "tags": [
      "cafe",
      "starbucks"
    ],
    "lat": 37.4841596193623,
    "lng": 126.972660704042,
    "address": "서울 동작구 사당로 219",
    "phone": "1522-3232"
  },
  "starbucks-스타벅스-숭실대입구역점": {
    "id": "starbucks-스타벅스-숭실대입구역점",
    "name": "스타벅스 숭실대입구역점",
    "type": "cafe",
    "tags": [
      "cafe",
      "starbucks"
    ],
    "lat": 37.4968611472544,
    "lng": 126.952757658619,
    "address": "서울 동작구 상도로 354",
    "phone": "1522-3232"
  },
  "starbucks-스타벅스-사당역점": {
    "id": "starbucks-스타벅스-사당역점",
    "name": "스타벅스 사당역점",
    "type": "cafe",
    "tags": [
      "cafe",
      "starbucks"
    ],
    "lat": 37.4784272951076,
    "lng": 126.981386278469,
    "address": "서울 동작구 동작대로 21",
    "phone": "1522-3232"
  },
  "starbucks-스타벅스-사당로데오점": {
    "id": "starbucks-스타벅스-사당로데오점",
    "name": "스타벅스 사당로데오점",
    "type": "cafe",
    "tags": [
      "cafe",
      "starbucks"
    ],
    "lat": 37.4772741229633,
    "lng": 126.982164385401,
    "address": "서울 서초구 방배천로 5-4",
    "phone": "1522-3232"
  },
  "starbucks-스타벅스-보라매공원r점": {
    "id": "starbucks-스타벅스-보라매공원r점",
    "name": "스타벅스 보라매공원R점",
    "type": "cafe",
    "tags": [
      "cafe",
      "starbucks"
    ],
    "lat": 37.4920885148138,
    "lng": 126.923509731908,
    "address": "서울 동작구 보라매로5길 35",
    "phone": "1522-3232"
  },
  "starbucks-스타벅스-이수자이점": {
    "id": "starbucks-스타벅스-이수자이점",
    "name": "스타벅스 이수자이점",
    "type": "cafe",
    "tags": [
      "cafe",
      "starbucks"
    ],
    "lat": 37.48443680378017,
    "lng": 126.98003251643729,
    "address": "서울 동작구 사당로 300",
    "phone": "1522-3232"
  },
  "starbucks-스타벅스-이수역점": {
    "id": "starbucks-스타벅스-이수역점",
    "name": "스타벅스 이수역점",
    "type": "cafe",
    "tags": [
      "cafe",
      "starbucks"
    ],
    "lat": 37.48648611485342,
    "lng": 126.9826823141427,
    "address": "서울 서초구 동작대로 112",
    "phone": "1522-3232"
  },
  "starbucks-스타벅스-신대방삼거리역점": {
    "id": "starbucks-스타벅스-신대방삼거리역점",
    "name": "스타벅스 신대방삼거리역점",
    "type": "cafe",
    "tags": [
      "cafe",
      "starbucks"
    ],
    "lat": 37.50020359704819,
    "lng": 126.93187915489521,
    "address": "서울 동작구 상도로 102",
    "phone": "1522-3232"
  },
  "starbucks-스타벅스-상도역점": {
    "id": "starbucks-스타벅스-상도역점",
    "name": "스타벅스 상도역점",
    "type": "cafe",
    "tags": [
      "cafe",
      "starbucks"
    ],
    "lat": 37.5031934221037,
    "lng": 126.948458342683,
    "address": "서울 동작구 상도로37길 1",
    "phone": "1522-3232"
  },
  "starbucks-스타벅스-이수역사거리점": {
    "id": "starbucks-스타벅스-이수역사거리점",
    "name": "스타벅스 이수역사거리점",
    "type": "cafe",
    "tags": [
      "cafe",
      "starbucks"
    ],
    "lat": 37.48578966844107,
    "lng": 126.98290861129509,
    "address": "서울 서초구 서초대로 3-4",
    "phone": "1522-3232"
  },
  "starbucks-스타벅스-이수역13번출구점": {
    "id": "starbucks-스타벅스-이수역13번출구점",
    "name": "스타벅스 이수역13번출구점",
    "type": "cafe",
    "tags": [
      "cafe",
      "starbucks"
    ],
    "lat": 37.487464428916965,
    "lng": 126.98149032291782,
    "address": "서울 동작구 동작대로27길 5",
    "phone": "1522-3232"
  },
  "starbucks-스타벅스-중앙대점": {
    "id": "starbucks-스타벅스-중앙대점",
    "name": "스타벅스 중앙대점",
    "type": "cafe",
    "tags": [
      "cafe",
      "starbucks"
    ],
    "lat": 37.5069760639586,
    "lng": 126.958134851629,
    "address": "서울 동작구 흑석로 75-1",
    "phone": ""
  },
  "starbucks-스타벅스-동작대로점": {
    "id": "starbucks-스타벅스-동작대로점",
    "name": "스타벅스 동작대로점",
    "type": "cafe",
    "tags": [
      "cafe",
      "starbucks"
    ],
    "lat": 37.4829955607374,
    "lng": 126.982362018086,
    "address": "서울 서초구 동작대로 72",
    "phone": "1522-3232"
  },
  "starbucks-스타벅스-상도대로점": {
    "id": "starbucks-스타벅스-상도대로점",
    "name": "스타벅스 상도대로점",
    "type": "cafe",
    "tags": [
      "cafe",
      "starbucks"
    ],
    "lat": 37.5050271208664,
    "lng": 126.942911926829,
    "address": "서울 동작구 상도로 218",
    "phone": "1522-3232"
  },
  "starbucks-스타벅스-방배카페거리점": {
    "id": "starbucks-스타벅스-방배카페거리점",
    "name": "스타벅스 방배카페거리점",
    "type": "cafe",
    "tags": [
      "cafe",
      "starbucks"
    ],
    "lat": 37.4935180762436,
    "lng": 126.986498266264,
    "address": "서울 서초구 방배중앙로 162",
    "phone": "1522-3232"
  },
  "starbucks-스타벅스-방배점": {
    "id": "starbucks-스타벅스-방배점",
    "name": "스타벅스 방배점",
    "type": "cafe",
    "tags": [
      "cafe",
      "starbucks"
    ],
    "lat": 37.491984063237815,
    "lng": 126.99065979565066,
    "address": "서울 서초구 방배로 211",
    "phone": "1522-3232"
  },
  "starbucks-스타벅스-내방역점": {
    "id": "starbucks-스타벅스-내방역점",
    "name": "스타벅스 내방역점",
    "type": "cafe",
    "tags": [
      "cafe",
      "starbucks"
    ],
    "lat": 37.4901308211763,
    "lng": 126.992487314219,
    "address": "서울 서초구 방배로 184",
    "phone": "1522-3232"
  },
  "starbucks-스타벅스-노량진동점": {
    "id": "starbucks-스타벅스-노량진동점",
    "name": "스타벅스 노량진동점",
    "type": "cafe",
    "tags": [
      "cafe",
      "starbucks"
    ],
    "lat": 37.51311711356294,
    "lng": 126.94648794001702,
    "address": "서울 동작구 노량진로 190",
    "phone": "1522-3232"
  },
  "starbucks-스타벅스-노량진역점": {
    "id": "starbucks-스타벅스-노량진역점",
    "name": "스타벅스 노량진역점",
    "type": "cafe",
    "tags": [
      "cafe",
      "starbucks"
    ],
    "lat": 37.5133910456679,
    "lng": 126.940875235694,
    "address": "서울 동작구 노량진로 134",
    "phone": "1522-3232"
  },
  "starbucks-스타벅스-남부순환로방배dt점": {
    "id": "starbucks-스타벅스-남부순환로방배dt점",
    "name": "스타벅스 남부순환로방배DT점",
    "type": "cafe",
    "tags": [
      "cafe",
      "starbucks"
    ],
    "lat": 37.47317400524862,
    "lng": 126.99602971241714,
    "address": "서울 서초구 남부순환로 2230",
    "phone": "1522-3232"
  },
  "starbucks-스타벅스-방배다이치빌딩점": {
    "id": "starbucks-스타벅스-방배다이치빌딩점",
    "name": "스타벅스 방배다이치빌딩점",
    "type": "cafe",
    "tags": [
      "cafe",
      "starbucks"
    ],
    "lat": 37.48433931505077,
    "lng": 126.99607887070374,
    "address": "서울 서초구 방배로 114",
    "phone": ""
  },
  "starbucks-스타벅스-방배역점": {
    "id": "starbucks-스타벅스-방배역점",
    "name": "스타벅스 방배역점",
    "type": "cafe",
    "tags": [
      "cafe",
      "starbucks"
    ],
    "lat": 37.4819174453133,
    "lng": 126.997648302859,
    "address": "서울 서초구 방배로 84",
    "phone": "1522-3232"
  },
  "starbucks-스타벅스-방배로점": {
    "id": "starbucks-스타벅스-방배로점",
    "name": "스타벅스 방배로점",
    "type": "cafe",
    "tags": [
      "cafe",
      "starbucks"
    ],
    "lat": 37.47922435109341,
    "lng": 126.99941774972979,
    "address": "서울 서초구 방배로 52",
    "phone": "1522-3232"
  },
  "starbucks-스타벅스-영등포신길점": {
    "id": "starbucks-스타벅스-영등포신길점",
    "name": "스타벅스 영등포신길점",
    "type": "cafe",
    "tags": [
      "cafe",
      "starbucks"
    ],
    "lat": 37.50458141638527,
    "lng": 126.91007921929604,
    "address": "서울 영등포구 신길로 137",
    "phone": "1522-3232"
  },
  "starbucks-스타벅스-신풍역점": {
    "id": "starbucks-스타벅스-신풍역점",
    "name": "스타벅스 신풍역점",
    "type": "cafe",
    "tags": [
      "cafe",
      "starbucks"
    ],
    "lat": 37.50034629049825,
    "lng": 126.90838568483211,
    "address": "서울 영등포구 신풍로 23",
    "phone": "1522-3232"
  },
  "starbucks-스타벅스-파미에파크r점": {
    "id": "starbucks-스타벅스-파미에파크r점",
    "name": "스타벅스 파미에파크R점",
    "type": "cafe",
    "tags": [
      "cafe",
      "starbucks"
    ],
    "lat": 37.5030694314321,
    "lng": 127.004455913484,
    "address": "서울 서초구 사평대로 205",
    "phone": "1522-3232"
  },
  "starbucks-스타벅스-독산사거리점": {
    "id": "starbucks-스타벅스-독산사거리점",
    "name": "스타벅스 독산사거리점",
    "type": "cafe",
    "tags": [
      "cafe",
      "starbucks"
    ],
    "lat": 37.4715700200452,
    "lng": 126.898606100317,
    "address": "서울 금천구 시흥대로 426",
    "phone": "1522-3232"
  },
  "starbucks-스타벅스-용산역써밋r점": {
    "id": "starbucks-스타벅스-용산역써밋r점",
    "name": "스타벅스 용산역써밋R점",
    "type": "cafe",
    "tags": [
      "cafe",
      "starbucks"
    ],
    "lat": 37.5274384741024,
    "lng": 126.96564776307117,
    "address": "서울 용산구 한강대로 69",
    "phone": "1522-3232"
  },
  "starbucks-스타벅스-여의도역r점": {
    "id": "starbucks-스타벅스-여의도역r점",
    "name": "스타벅스 여의도역R점",
    "type": "cafe",
    "tags": [
      "cafe",
      "starbucks"
    ],
    "lat": 37.523227285602,
    "lng": 126.923582027731,
    "address": "서울 영등포구 의사당대로 83",
    "phone": "1522-3232"
  },
  "starbucks-스타벅스-서초역점": {
    "id": "starbucks-스타벅스-서초역점",
    "name": "스타벅스 서초역점",
    "type": "cafe",
    "tags": [
      "cafe",
      "starbucks"
    ],
    "lat": 37.4906244966806,
    "lng": 127.008634444033,
    "address": "서울 서초구 반포대로 118",
    "phone": "1522-3232"
  },
  "starbucks-스타벅스-구의dt점": {
    "id": "starbucks-스타벅스-구의dt점",
    "name": "스타벅스 구의DT점",
    "type": "cafe",
    "tags": [
      "cafe",
      "starbucks"
    ],
    "lat": 37.54530334013515,
    "lng": 127.0872029577983,
    "address": "서울 광진구 광나루로 519",
    "phone": "1522-3232"
  },
  "starbucks-스타벅스-군자역점": {
    "id": "starbucks-스타벅스-군자역점",
    "name": "스타벅스 군자역점",
    "type": "cafe",
    "tags": [
      "cafe",
      "starbucks"
    ],
    "lat": 37.5570491957957,
    "lng": 127.078883513241,
    "address": "서울 광진구 천호대로 548",
    "phone": "1522-3232"
  },
  "starbucks-스타벅스-구의역": {
    "id": "starbucks-스타벅스-구의역",
    "name": "스타벅스 구의역",
    "type": "cafe",
    "tags": [
      "cafe",
      "starbucks"
    ],
    "lat": 37.5370002130577,
    "lng": 127.084048976208,
    "address": "서울 광진구 아차산로 373",
    "phone": "1522-3232"
  },
  "starbucks-스타벅스-건국대점": {
    "id": "starbucks-스타벅스-건국대점",
    "name": "스타벅스 건국대점",
    "type": "cafe",
    "tags": [
      "cafe",
      "starbucks"
    ],
    "lat": 37.5415948126772,
    "lng": 127.071093658871,
    "address": "서울 광진구 능동로 117",
    "phone": "1522-3232"
  },
  "starbucks-스타벅스-아차산역": {
    "id": "starbucks-스타벅스-아차산역",
    "name": "스타벅스 아차산역",
    "type": "cafe",
    "tags": [
      "cafe",
      "starbucks"
    ],
    "lat": 37.5505901554071,
    "lng": 127.089930758669,
    "address": "서울 광진구 천호대로 676",
    "phone": "1522-3232"
  },
  "starbucks-스타벅스-어린이대공원역": {
    "id": "starbucks-스타벅스-어린이대공원역",
    "name": "스타벅스 어린이대공원역",
    "type": "cafe",
    "tags": [
      "cafe",
      "starbucks"
    ],
    "lat": 37.5519178583054,
    "lng": 127.076380487066,
    "address": "서울 광진구 능동로 243",
    "phone": "1522-3232"
  },
  "starbucks-스타벅스-뚝섬한강공원점": {
    "id": "starbucks-스타벅스-뚝섬한강공원점",
    "name": "스타벅스 뚝섬한강공원점",
    "type": "cafe",
    "tags": [
      "cafe",
      "starbucks"
    ],
    "lat": 37.528415098245354,
    "lng": 127.06782180165956,
    "address": "서울 광진구 강변북로 2230",
    "phone": "1522-3232"
  },
  "starbucks-스타벅스-올림픽대교북단점": {
    "id": "starbucks-스타벅스-올림픽대교북단점",
    "name": "스타벅스 올림픽대교북단점",
    "type": "cafe",
    "tags": [
      "cafe",
      "starbucks"
    ],
    "lat": 37.5411291074614,
    "lng": 127.095242048653,
    "address": "서울 광진구 광나루로 608",
    "phone": "1522-3232"
  },
  "starbucks-스타벅스-자양사거리점": {
    "id": "starbucks-스타벅스-자양사거리점",
    "name": "스타벅스 자양사거리점",
    "type": "cafe",
    "tags": [
      "cafe",
      "starbucks"
    ],
    "lat": 37.537152728551604,
    "lng": 127.08242098114437,
    "address": "서울 광진구 아차산로 355",
    "phone": "1522-3232"
  },
  "starbucks-스타벅스-건국클래식점": {
    "id": "starbucks-스타벅스-건국클래식점",
    "name": "스타벅스 건국클래식점",
    "type": "cafe",
    "tags": [
      "cafe",
      "starbucks"
    ],
    "lat": 37.53835124237276,
    "lng": 127.0710453202779,
    "address": "서울 광진구 능동로 90",
    "phone": "1522-3232"
  },
  "starbucks-스타벅스-건대스타시티점": {
    "id": "starbucks-스타벅스-건대스타시티점",
    "name": "스타벅스 건대스타시티점",
    "type": "cafe",
    "tags": [
      "cafe",
      "starbucks"
    ],
    "lat": 37.53841737800415,
    "lng": 127.07339885294076,
    "address": "서울 광진구 아차산로 272",
    "phone": "1522-3232"
  },
  "starbucks-스타벅스-강변점": {
    "id": "starbucks-스타벅스-강변점",
    "name": "스타벅스 강변점",
    "type": "cafe",
    "tags": [
      "cafe",
      "starbucks"
    ],
    "lat": 37.5347418065183,
    "lng": 127.091973172027,
    "address": "서울 광진구 구의강변로 46",
    "phone": "1522-3232"
  },
  "starbucks-스타벅스-군자사거리점": {
    "id": "starbucks-스타벅스-군자사거리점",
    "name": "스타벅스 군자사거리점",
    "type": "cafe",
    "tags": [
      "cafe",
      "starbucks"
    ],
    "lat": 37.557693183234925,
    "lng": 127.07922032699476,
    "address": "서울 광진구 천호대로 549",
    "phone": "1522-3232"
  },
  "starbucks-스타벅스-중곡역": {
    "id": "starbucks-스타벅스-중곡역",
    "name": "스타벅스 중곡역",
    "type": "cafe",
    "tags": [
      "cafe",
      "starbucks"
    ],
    "lat": 37.5650579024674,
    "lng": 127.084457404725,
    "address": "서울 광진구 능동로 400",
    "phone": "1522-3232"
  },
  "starbucks-스타벅스-광장점": {
    "id": "starbucks-스타벅스-광장점",
    "name": "스타벅스 광장점",
    "type": "cafe",
    "tags": [
      "cafe",
      "starbucks"
    ],
    "lat": 37.5425779286543,
    "lng": 127.099593526045,
    "address": "서울 광진구 아차산로 537-17",
    "phone": "1522-3232"
  },
  "starbucks-스타벅스-건대로데오점": {
    "id": "starbucks-스타벅스-건대로데오점",
    "name": "스타벅스 건대로데오점",
    "type": "cafe",
    "tags": [
      "cafe",
      "starbucks"
    ],
    "lat": 37.5407963712074,
    "lng": 127.066728659383,
    "address": "서울 광진구 아차산로 212",
    "phone": "1522-3232"
  },
  "starbucks-스타벅스-구의역이스트폴점": {
    "id": "starbucks-스타벅스-구의역이스트폴점",
    "name": "스타벅스 구의역이스트폴점",
    "type": "cafe",
    "tags": [
      "cafe",
      "starbucks"
    ],
    "lat": 37.53659211746167,
    "lng": 127.08768725573637,
    "address": "서울 광진구 아차산로 402",
    "phone": "1522-3232"
  },
  "starbucks-스타벅스-자양역점": {
    "id": "starbucks-스타벅스-자양역점",
    "name": "스타벅스 자양역점",
    "type": "cafe",
    "tags": [
      "cafe",
      "starbucks"
    ],
    "lat": 37.5327174706161,
    "lng": 127.06766277727,
    "address": "서울 광진구 능동로 18",
    "phone": "1522-3232"
  },
  "starbucks-스타벅스-화양삼거리점": {
    "id": "starbucks-스타벅스-화양삼거리점",
    "name": "스타벅스 화양삼거리점",
    "type": "cafe",
    "tags": [
      "cafe",
      "starbucks"
    ],
    "lat": 37.547712524986544,
    "lng": 127.07121263029954,
    "address": "서울 광진구 광나루로 374",
    "phone": "1522-3232"
  },
  "starbucks-스타벅스-건대후문점": {
    "id": "starbucks-스타벅스-건대후문점",
    "name": "스타벅스 건대후문점",
    "type": "cafe",
    "tags": [
      "cafe",
      "starbucks"
    ],
    "lat": 37.54599002500883,
    "lng": 127.07380572842268,
    "address": "서울 광진구 능동로 172",
    "phone": "1522-3232"
  },
  "starbucks-스타벅스-자양이마트": {
    "id": "starbucks-스타벅스-자양이마트",
    "name": "스타벅스 자양이마트",
    "type": "cafe",
    "tags": [
      "cafe",
      "starbucks"
    ],
    "lat": 37.5383164723872,
    "lng": 127.073388570764,
    "address": "서울 광진구 아차산로 272",
    "phone": "1522-3232"
  },
  "starbucks-스타벅스-성수낙낙": {
    "id": "starbucks-스타벅스-성수낙낙",
    "name": "스타벅스 성수낙낙",
    "type": "cafe",
    "tags": [
      "cafe",
      "starbucks"
    ],
    "lat": 37.5471891877582,
    "lng": 127.066325846874,
    "address": "서울 성동구 광나루로8길 31",
    "phone": "1522-3232"
  },
  "starbucks-스타벅스-성수역점": {
    "id": "starbucks-스타벅스-성수역점",
    "name": "스타벅스 성수역점",
    "type": "cafe",
    "tags": [
      "cafe",
      "starbucks"
    ],
    "lat": 37.5431936487842,
    "lng": 127.056944035907,
    "address": "서울 성동구 성수이로 94",
    "phone": "1522-3232"
  },
  "starbucks-스타벅스-성수점": {
    "id": "starbucks-스타벅스-성수점",
    "name": "스타벅스 성수점",
    "type": "cafe",
    "tags": [
      "cafe",
      "starbucks"
    ],
    "lat": 37.54444583606261,
    "lng": 127.05547508264547,
    "address": "서울 성동구 아차산로 104",
    "phone": "1522-3232"
  },
  "starbucks-스타벅스-잠실역점": {
    "id": "starbucks-스타벅스-잠실역점",
    "name": "스타벅스 잠실역점",
    "type": "cafe",
    "tags": [
      "cafe",
      "starbucks"
    ],
    "lat": 37.5152671337231,
    "lng": 127.099168114076,
    "address": "서울 송파구 송파대로 562",
    "phone": "1522-3232"
  },
  "starbucks-스타벅스-잠실새내역점": {
    "id": "starbucks-스타벅스-잠실새내역점",
    "name": "스타벅스 잠실새내역점",
    "type": "cafe",
    "tags": [
      "cafe",
      "starbucks"
    ],
    "lat": 37.511510200207084,
    "lng": 127.08112937138624,
    "address": "서울 송파구 올림픽로 96",
    "phone": "1522-3232"
  },
  "starbucks-스타벅스-장한평역점": {
    "id": "starbucks-스타벅스-장한평역점",
    "name": "스타벅스 장한평역점",
    "type": "cafe",
    "tags": [
      "cafe",
      "starbucks"
    ],
    "lat": 37.5622904152963,
    "lng": 127.065415653019,
    "address": "서울 동대문구 장한로 10",
    "phone": "1522-3232"
  },
  "starbucks-스타벅스-뚝섬역": {
    "id": "starbucks-스타벅스-뚝섬역",
    "name": "스타벅스 뚝섬역",
    "type": "cafe",
    "tags": [
      "cafe",
      "starbucks"
    ],
    "lat": 37.54645790805712,
    "lng": 127.04904909957543,
    "address": "서울 성동구 아차산로 42",
    "phone": "1522-3232"
  },
  "starbucks-스타벅스-잠실대교남단r점": {
    "id": "starbucks-스타벅스-잠실대교남단r점",
    "name": "스타벅스 잠실대교남단R점",
    "type": "cafe",
    "tags": [
      "cafe",
      "starbucks"
    ],
    "lat": 37.5156060017498,
    "lng": 127.099059973879,
    "address": "서울 송파구 송파대로 570",
    "phone": ""
  },
  "starbucks-스타벅스-아시아선수촌점": {
    "id": "starbucks-스타벅스-아시아선수촌점",
    "name": "스타벅스 아시아선수촌점",
    "type": "cafe",
    "tags": [
      "cafe",
      "starbucks"
    ],
    "lat": 37.510424102992,
    "lng": 127.079042533793,
    "address": "서울 송파구 백제고분로 69",
    "phone": "1522-3232"
  },