{
  "icn-t1": {
    "id": "icn-t1",
    "name": "인천공항 제1터미널",
    "type": "airport",
    "tags": [
      "airport",
      "lounge",
      "valet",
      "cafe"
    ],
    "lat": 37.4492,
    "lng": 126.4502
  },
  "icn-t2": {
    "id": "icn-t2",
    "name": "인천공항 제2터미널",
    "type": "airport",
    "tags": [
      "airport",
      "lounge",
      "valet",
      "cafe"
    ],
    "lat": 37.4677,
    "lng": 126.4345
  },
  "gmp": {
    "id": "gmp",
    "name": "김포공항",
    "type": "airport",
    "tags": [
      "airport",
      "lounge",
      "valet"
    ],
    "lat": 37.5587,
    "lng": 126.8028
  },
  "pus": {
    "id": "pus",
    "name": "김해공항",
    "type": "airport",
    "tags": [
      "airport",
      "lounge"
    ],
    "lat": 35.1725,
    "lng": 128.9468
  },
  "cju": {
    "id": "cju",
    "name": "제주공항",
    "type": "airport",
    "tags": [
      "airport",
      "lounge"
    ],
    "lat": 33.5068,
    "lng": 126.4892
  },
  "tae": {
    "id": "tae",
    "name": "대구공항",
    "type": "airport",
    "tags": [
      "airport",
      "lounge"
    ],
    "lat": 35.8998,
    "lng": 128.6378
  },
  "cjj": {
    "id": "cjj",
    "name": "청주공항",
    "type": "airport",
    "tags": [
      "airport",
      "lounge"
    ],
    "lat": 36.722,
    "lng": 127.4959
  },
  "matina-t1-east": {
    "id": "matina-t1-east",
    "name": "마티나라운지 T1 동편",
    "type": "lounge",
    "tags": [
      "lounge",
      "airport"
    ],
    "lat": 37.4495,
    "lng": 126.452
  },
  "matina-t1-west": {
    "id": "matina-t1-west",
    "name": "마티나라운지 T1 서편",
    "type": "lounge",
    "tags": [
      "lounge",
      "airport"
    ],
    "lat": 37.4488,
    "lng": 126.448
  },
  "matina-t2": {
    "id": "matina-t2",
    "name": "마티나라운지 T2",
    "type": "lounge",
    "tags": [
      "lounge",
      "airport"
    ],
    "lat": 37.4605,
    "lng": 126.4415
  },
  "skyhub-t1": {
    "id": "skyhub-t1",
    "name": "스카이허브라운지 T1",
    "type": "lounge",
    "tags": [
      "lounge",
      "airport"
    ],
    "lat": 37.4485,
    "lng": 126.451
  },
  "skyhub-t2": {
    "id": "skyhub-t2",
    "name": "스카이허브라운지 T2",
    "type": "lounge",
    "tags": [
      "lounge",
      "airport"
    ],
    "lat": 37.4685,
    "lng": 126.438
  },
  "skyhub-gimpo": {
    "id": "skyhub-gimpo",
    "name": "스카이허브라운지 김포",
    "type": "lounge",
    "tags": [
      "lounge",
      "airport"
    ],
    "lat": 37.5664,
    "lng": 126.8005
  },
  "shilla-seoul": {
    "id": "shilla-seoul",
    "name": "서울신라호텔",
    "type": "hotel",
    "tags": [
      "hotel",
      "valet",
      "fnb",
      "shilla",
      "luxury"
    ],
    "lat": 37.5561,
    "lng": 127.0055
  },
  "grand-hyatt": {
    "id": "grand-hyatt",
    "name": "그랜드하얏트 서울",
    "type": "hotel",
    "tags": [
      "hotel",
      "valet",
      "fnb",
      "hyatt",
      "luxury"
    ],
    "lat": 37.5387,
    "lng": 126.9976
  },
  "park-hyatt-seoul": {
    "id": "park-hyatt-seoul",
    "name": "파크하얏트 서울",
    "type": "hotel",
    "tags": [
      "hotel",
      "valet",
      "fnb",
      "hyatt",
      "luxury"
    ],
    "lat": 37.5089,
    "lng": 127.0632
  },
  "jw-marriott-seoul": {
    "id": "jw-marriott-seoul",
    "name": "JW메리어트 서울",
    "type": "hotel",
    "tags": [
      "hotel",
      "valet",
      "fnb",
      "marriott",
      "luxury"
    ],
    "lat": 37.50404,
    "lng": 127.00469
  },
  "jw-marriott-dongdaemun": {
    "id": "jw-marriott-dongdaemun",
    "name": "JW메리어트 동대문",
    "type": "hotel",
    "tags": [
      "hotel",
      "valet",
      "fnb",
      "marriott",
      "luxury"
    ],
    "lat": 37.569,
    "lng": 127.005
  },
  "four-seasons-seoul": {
    "id": "four-seasons-seoul",
    "name": "포시즌스 서울",
    "type": "hotel",
    "tags": [
      "hotel",
      "valet",
      "fnb",
      "fourseasons",
      "luxury"
    ],
    "lat": 37.5705,
    "lng": 126.9755
  },
  "signiel-seoul": {
    "id": "signiel-seoul",
    "name": "시그니엘 서울",
    "type": "hotel",
    "tags": [
      "hotel",
      "valet",
      "fnb",
      "lotte",
      "luxury"
    ],
    "lat": 37.5128,
    "lng": 127.1026
  },
  "conrad-seoul": {
    "id": "conrad-seoul",
    "name": "콘래드 서울",
    "type": "hotel",
    "tags": [
      "hotel",
      "valet",
      "fnb",
      "hilton",
      "luxury"
    ],
    "lat": 37.5254,
    "lng": 126.9266
  },
  "lotte-hotel-seoul": {
    "id": "lotte-hotel-seoul",
    "name": "롯데호텔 서울",
    "type": "hotel",
    "tags": [
      "hotel",
      "valet",
      "fnb",
      "lotte",
      "luxury"
    ],
    "lat": 37.5656,
    "lng": 126.9816
  },
  "westin-josun-seoul": {
    "id": "westin-josun-seoul",
    "name": "웨스틴조선 서울",
    "type": "hotel",
    "tags": [
      "hotel",
      "valet",
      "fnb",
      "marriott",
      "luxury"
    ],
    "lat": 37.56447,
    "lng": 126.98002
  },
  "grand-intercontinental-parnas": {
    "id": "grand-intercontinental-parnas",
    "name": "그랜드인터컨티넨탈 파르나스",
    "type": "hotel",
    "tags": [
      "hotel",
      "valet",
      "fnb",
      "ihg",
      "luxury",
      "parnas"
    ],
    "lat": 37.5089,
    "lng": 127.0611
  },
  "intercontinental-coex": {
    "id": "intercontinental-coex",
    "name": "인터컨티넨탈 코엑스",
    "type": "hotel",
    "tags": [
      "hotel",
      "valet",
      "fnb",
      "ihg",
      "luxury"
    ],
    "lat": 37.5119,
    "lng": 127.0589
  },
  "andaz-seoul": {
    "id": "andaz-seoul",
    "name": "안다즈 서울 강남",
    "type": "hotel",
    "tags": [
      "hotel",
      "valet",
      "fnb",
      "hyatt",
      "luxury"
    ],
    "lat": 37.5253,
    "lng": 127.0289
  },
  "josun-palace": {
    "id": "josun-palace",
    "name": "조선팰리스",
    "type": "hotel",
    "tags": [
      "hotel",
      "valet",
      "fnb",
      "marriott",
      "luxury"
    ],
    "lat": 37.5033,
    "lng": 127.0414
  },
  "plaza-seoul": {
    "id": "plaza-seoul",
    "name": "더플라자 서울",
    "type": "hotel",
    "tags": [
      "hotel",
      "valet",
      "fnb",
      "marriott",
      "luxury"
    ],
    "lat": 37.56469,
    "lng": 126.97811
  },
  "banyan-tree-seoul": {
    "id": "banyan-tree-seoul",
    "name": "반얀트리 서울",
    "type": "hotel",
    "tags": [
      "hotel",
      "valet",
      "fnb",
      "accor",
      "luxury"
    ],
    "lat": 37.5507,
    "lng": 127.0012
  },
  "w-seoul": {
    "id": "w-seoul",
    "name": "비스타 워커힐 서울",
    "type": "hotel",
    "tags": [
      "hotel",
      "valet",
      "fnb",
      "walkerhill",
      "luxury"
    ],
    "lat": 37.5568,
    "lng": 127.1048
  },
  "grand-walkerhill": {
    "id": "grand-walkerhill",
    "name": "그랜드워커힐 서울",
    "type": "hotel",
    "tags": [
      "hotel",
      "valet",
      "fnb",
      "walkerhill",
      "luxury"
    ],
    "lat": 37.5557,
    "lng": 127.1112
  },
  "fairmont-seoul": {
    "id": "fairmont-seoul",
    "name": "페어몬트 앰배서더 서울",
    "type": "hotel",
    "tags": [
      "hotel",
      "valet",
      "fnb",
      "luxury"
    ],
    "lat": 37.526,
    "lng": 126.928
  },
  "mondrian-seoul": {
    "id": "mondrian-seoul",
    "name": "몬드리안 서울 이태원",
    "type": "hotel",
    "tags": [
      "hotel",
      "valet",
      "fnb",
      "accor",
      "luxury"
    ],
    "lat": 37.5286,
    "lng": 126.993
  },
  "lescape-hotel": {
    "id": "lescape-hotel",
    "name": "레스케이프 호텔",
    "type": "hotel",
    "tags": [
      "hotel",
      "valet",
      "fnb",
      "luxury"
    ],
    "lat": 37.56,
    "lng": 126.9795
  },
  "imperial-palace": {
    "id": "imperial-palace",
    "name": "임피리얼팰리스 서울",
    "type": "hotel",
    "tags": [
      "hotel",
      "valet",
      "fnb",
      "accor",
      "luxury"
    ],
    "lat": 37.5144,
    "lng": 127.0358
  },
  "park-hyatt-busan": {
    "id": "park-hyatt-busan",
    "name": "파크하얏트 부산",
    "type": "hotel",
    "tags": [
      "hotel",
      "valet",
      "fnb",
      "hyatt",
      "luxury"
    ],
    "lat": 35.1564,
    "lng": 129.1417
  },
  "signiel-busan": {
    "id": "signiel-busan",
    "name": "시그니엘 부산",
    "type": "hotel",
    "tags": [
      "hotel",
      "valet",
      "fnb",
      "lotte",
      "luxury"
    ],
    "lat": 35.1603,
    "lng": 129.1692
  },
  "westin-josun-busan": {
    "id": "westin-josun-busan",
    "name": "웨스틴조선 부산",
    "type": "hotel",
    "tags": [
      "hotel",
      "valet",
      "fnb",
      "marriott",
      "luxury"
    ],
    "lat": 35.1597,
    "lng": 129.1511
  },
  "grand-josun-busan": {
    "id": "grand-josun-busan",
    "name": "그랜드조선 부산",
    "type": "hotel",
    "tags": [
      "hotel",
      "valet",
      "fnb",
      "luxury"
    ],
    "lat": 35.159,
    "lng": 129.1603
  },
  "paradise-busan": {
    "id": "paradise-busan",
    "name": "파라다이스호텔 부산",
    "type": "hotel",
    "tags": [
      "hotel",
      "valet",
      "fnb",
      "luxury"
    ],
    "lat": 35.1592,
    "lng": 129.1607
  },
  "lotte-hotel-busan": {
    "id": "lotte-hotel-busan",
    "name": "롯데호텔 부산",
    "type": "hotel",
    "tags": [
      "hotel",
      "valet",
      "fnb",
      "lotte",
      "luxury"
    ],
    "lat": 35.1555,
    "lng": 129.0593
  },
  "ananti-busan": {
    "id": "ananti-busan",
    "name": "아난티 앳 부산",
    "type": "hotel",
    "tags": [
      "hotel",
      "valet",
      "fnb",
      "luxury"
    ],
    "lat": 35.198,
    "lng": 129.2289
  },
  "shilla-jeju": {
    "id": "shilla-jeju",
    "name": "신라호텔 제주",
    "type": "hotel",
    "tags": [
      "hotel",
      "valet",
      "fnb",
      "shilla",
      "golf",
      "luxury"
    ],
    "lat": 33.2476,
    "lng": 126.4081
  },
  "grand-hyatt-jeju": {
    "id": "grand-hyatt-jeju",
    "name": "그랜드하얏트 제주",
    "type": "hotel",
    "tags": [
      "hotel",
      "valet",
      "fnb",
      "hyatt",
      "luxury"
    ],
    "lat": 33.4853,
    "lng": 126.4815
  },
  "lotte-hotel-jeju": {
    "id": "lotte-hotel-jeju",
    "name": "롯데호텔 제주",
    "type": "hotel",
    "tags": [
      "hotel",
      "valet",
      "fnb",
      "lotte",
      "luxury"
    ],
    "lat": 33.2485,
    "lng": 126.4102
  },
  "jw-marriott-jeju": {
    "id": "jw-marriott-jeju",
    "name": "JW메리어트 제주",
    "type": "hotel",
    "tags": [
      "hotel",
      "valet",
      "fnb",
      "marriott",
      "luxury"
    ],
    "lat": 33.2438,
    "lng": 126.5385
  },
  "grand-josun-jeju": {
    "id": "grand-josun-jeju",
    "name": "그랜드조선 제주",
    "type": "hotel",
    "tags": [
      "hotel",
      "valet",
      "fnb",
      "luxury"
    ],
    "lat": 33.248,
    "lng": 126.4115
  },
  "haevichi-jeju": {
    "id": "haevichi-jeju",
    "name": "해비치호텔 제주",
    "type": "hotel",
    "tags": [
      "hotel",
      "valet",
      "fnb",
      "luxury"
    ],
    "lat": 33.3235,
    "lng": 126.8448
  },
  "parnas-jeju": {
    "id": "parnas-jeju",
    "name": "파르나스호텔 제주",
    "type": "hotel",
    "tags": [
      "hotel",
      "valet",
      "fnb",
      "parnas",
      "luxury"
    ],
    "lat": 33.2446,
    "lng": 126.4058
  },
  "paradise-city": {
    "id": "paradise-city",
    "name": "파라다이스시티",
    "type": "hotel",
    "tags": [
      "hotel",
      "valet",
      "fnb",
      "luxury"
    ],
    "lat": 37.4372,
    "lng": 126.4558
  },
  "lotte-jamsil": {
    "id": "lotte-jamsil",
    "name": "롯데백화점 잠실",
    "type": "department",
    "tags": [
      "shopping",
      "valet",
      "fnb",
      "entertainment",
      "lotte"
    ],
    "lat": 37.5129,
    "lng": 127.1016
  },
  "lotte-main": {
    "id": "lotte-main",
    "name": "롯데백화점 본점",
    "type": "department",
    "tags": [
      "shopping",
      "valet",
      "fnb",
      "lotte"
    ],
    "lat": 37.5648,
    "lng": 126.9816
  },
  "lotte-gangnam": {
    "id": "lotte-gangnam",
    "name": "롯데백화점 강남",
    "type": "department",
    "tags": [
      "shopping",
      "valet",
      "fnb",
      "lotte"
    ],
    "lat": 37.497,
    "lng": 127.0535
  },
  "lotte-yeongdeungpo": {
    "id": "lotte-yeongdeungpo",
    "name": "롯데백화점 영등포",
    "type": "department",
    "tags": [
      "shopping",
      "valet",
      "fnb",
      "lotte"
    ],
    "lat": 37.5158,
    "lng": 126.9074
  },
  "lotte-centum": {
    "id": "lotte-centum",
    "name": "롯데백화점 센텀시티",
    "type": "department",
    "tags": [
      "shopping",
      "valet",
      "fnb",
      "lotte"
    ],
    "lat": 35.1696,
    "lng": 129.1313
  },
  "lotte-gwangbok": {
    "id": "lotte-gwangbok",
    "name": "롯데백화점 광복",
    "type": "department",
    "tags": [
      "shopping",
      "valet",
      "fnb",
      "lotte"
    ],
    "lat": 35.098,
    "lng": 129.0366
  },
  "shinsegae-gangnam": {
    "id": "shinsegae-gangnam",
    "name": "신세계 강남",
    "type": "department",
    "tags": [
      "shopping",
      "valet",
      "fnb",
      "shinsegae"
    ],
    "lat": 37.5048,
    "lng": 127.0048
  },
  "shinsegae-main": {
    "id": "shinsegae-main",
    "name": "신세계백화점 본점",
    "type": "department",
    "tags": [
      "shopping",
      "valet",
      "fnb",
      "shinsegae"
    ],
    "lat": 37.5607,
    "lng": 126.981
  },
  "shinsegae-centum": {
    "id": "shinsegae-centum",
    "name": "신세계 센텀시티",
    "type": "department",
    "tags": [
      "shopping",
      "valet",
      "fnb",
      "shinsegae"
    ],
    "lat": 35.1696,
    "lng": 129.1296
  },
  "shinsegae-yeongdeungpo": {
    "id": "shinsegae-yeongdeungpo",
    "name": "신세계 영등포",
    "type": "department",
    "tags": [
      "shopping",
      "valet",
      "fnb",
      "shinsegae"
    ],
    "lat": 37.5175,
    "lng": 126.9025
  },
  "hyundai-main": {
    "id": "hyundai-main",
    "name": "현대백화점 압구정본점",
    "type": "department",
    "tags": [
      "shopping",
      "valet",
      "fnb",
      "hyundai-dept"
    ],
    "lat": 37.5272,
    "lng": 127.0282
  },
  "hyundai-pangyo": {
    "id": "hyundai-pangyo",
    "name": "현대백화점 판교",
    "type": "department",
    "tags": [
      "shopping",
      "valet",
      "fnb",
      "cafe",
      "hyundai-dept"
    ],
    "lat": 37.3947,
    "lng": 127.1112
  },
  "hyundai-seoul": {
    "id": "hyundai-seoul",
    "name": "더현대 서울",
    "type": "department",
    "tags": [
      "shopping",
      "valet",
      "fnb",
      "cafe",
      "hyundai-dept"
    ],
    "lat": 37.5258,
    "lng": 126.9281
  },
  "hyundai-trade": {
    "id": "hyundai-trade",
    "name": "현대백화점 무역센터",
    "type": "department",
    "tags": [
      "shopping",
      "valet",
      "fnb",
      "hyundai-dept"
    ],
    "lat": 37.5118,
    "lng": 127.0593
  },
  "hyundai-daegu": {
    "id": "hyundai-daegu",
    "name": "더현대 대구",
    "type": "department",
    "tags": [
      "shopping",
      "valet",
      "fnb",
      "hyundai-dept"
    ],
    "lat": 35.8656,
    "lng": 128.5867
  },
  "galleria-luxury": {
    "id": "galleria-luxury",
    "name": "갤러리아 명품관",
    "type": "department",
    "tags": [
      "shopping",
      "valet",
      "fnb",
      "galleria"
    ],
    "lat": 37.5284,
    "lng": 127.0401
  },
  "galleria-timeworld": {
    "id": "galleria-timeworld",
    "name": "갤러리아 타임월드",
    "type": "department",
    "tags": [
      "shopping",
      "valet",
      "fnb",
      "galleria"
    ],
    "lat": 36.3529,
    "lng": 127.3787
  },
  "galleria-gwanggyo": {
    "id": "galleria-gwanggyo",
    "name": "갤러리아 광교",
    "type": "department",
    "tags": [
      "shopping",
      "valet",
      "fnb",
      "galleria"
    ],
    "lat": 37.2861,
    "lng": 127.0547
  },
  "lotte-dutyfree-main": {
    "id": "lotte-dutyfree-main",
    "name": "롯데면세점 본점",
    "type": "dutyfree",
    "tags": [
      "shopping",
      "dutyfree"
    ],
    "lat": 37.5656,
    "lng": 126.9815
  },
  "lotte-dutyfree-world": {
    "id": "lotte-dutyfree-world",
    "name": "롯데면세점 월드타워",
    "type": "dutyfree",
    "tags": [
      "shopping",
      "dutyfree"
    ],
    "lat": 37.513,
    "lng": 127.102
  },
  "shilla-dutyfree-main": {
    "id": "shilla-dutyfree-main",
    "name": "신라면세점 서울",
    "type": "dutyfree",
    "tags": [
      "shopping",
      "dutyfree"
    ],
    "lat": 37.5572,
    "lng": 127.0056
  },
  "shinsegae-dutyfree": {
    "id": "shinsegae-dutyfree",
    "name": "신세계면세점 명동",
    "type": "dutyfree",
    "tags": [
      "shopping",
      "dutyfree"
    ],
    "lat": 37.5612,
    "lng": 126.9815
  },
  "hyundai-dutyfree": {
    "id": "hyundai-dutyfree",
    "name": "현대백화점면세점",
    "type": "dutyfree",
    "tags": [
      "shopping",
      "dutyfree"
    ],
    "lat": 37.5086,
    "lng": 127.0601
  },
  "jack-nicklaus": {
    "id": "jack-nicklaus",
    "name": "잭니클라우스GC",
    "type": "golf",
    "tags": [
      "golf",
      "fnb"
    ],
    "lat": 37.3797,
    "lng": 126.6239
  },
  "sky72": {
    "id": "sky72",
    "name": "스카이72 GC",
    "type": "golf",
    "tags": [
      "golf",
      "fnb"
    ],
    "lat": 37.4834,
    "lng": 126.4688
  },
  "nine-bridges": {
    "id": "nine-bridges",
    "name": "클럽나인브릿지",
    "type": "golf",
    "tags": [
      "golf",
      "fnb"
    ],
    "lat": 33.3416,
    "lng": 126.4028
  },
  "southcape": {
    "id": "southcape",
    "name": "사우스케이프",
    "type": "golf",
    "tags": [
      "golf",
      "fnb"
    ],
    "lat": 34.8365,
    "lng": 128.0744
  },
  "pine-beach": {
    "id": "pine-beach",
    "name": "파인비치골프링크스",
    "type": "golf",
    "tags": [
      "golf",
      "fnb"
    ],
    "lat": 34.6971,
    "lng": 126.2638
  },
  "anyang-cc": {
    "id": "anyang-cc",
    "name": "안양컨트리클럽",
    "type": "golf",
    "tags": [
      "golf",
      "fnb"
    ],
    "lat": 37.34,
    "lng": 126.94
  },
  "haesley": {
    "id": "haesley",
    "name": "헤슬리나인브릿지",
    "type": "golf",
    "tags": [
      "golf",
      "fnb"
    ],
    "lat": 37.2507,
    "lng": 127.6176
  },
  "phoenix-golf": {
    "id": "phoenix-golf",
    "name": "휘닉스파크GC",
    "type": "golf",
    "tags": [
      "golf",
      "fnb"
    ],
    "lat": 37.5893,
    "lng": 128.3356
  },
  "high1-golf": {
    "id": "high1-golf",
    "name": "하이원골프클럽",
    "type": "golf",
    "tags": [
      "golf",
      "fnb"
    ],
    "lat": 37.1737,
    "lng": 128.8432
  },
  "pinx": {
    "id": "pinx",
    "name": "핀크스골프클럽",
    "type": "golf",
    "tags": [
      "golf",
      "fnb"
    ],
    "lat": 33.3153,
    "lng": 126.3886
  },
  "cgv-yongsan": {
    "id": "cgv-yongsan",
    "name": "CGV 용산",
    "type": "entertainment",
    "tags": [
      "entertainment",
      "movie",
      "cgv"
    ],
    "lat": 37.5296,
    "lng": 126.9651
  },
  "cgv-yeongdeungpo": {
    "id": "cgv-yeongdeungpo",
    "name": "CGV 영등포",
    "type": "entertainment",
    "tags": [
      "entertainment",
      "movie",
      "cgv"
    ],
    "lat": 37.5175,
    "lng": 126.906
  },
  "megabox-coex": {
    "id": "megabox-coex",
    "name": "메가박스 코엑스",
    "type": "entertainment",
    "tags": [
      "entertainment",
      "movie",
      "megabox"
    ],
    "lat": 37.5134,
    "lng": 127.0588
  },
  "lotte-cinema-world": {
    "id": "lotte-cinema-world",
    "name": "롯데시네마 월드타워",
    "type": "entertainment",
    "tags": [
      "entertainment",
      "movie",
      "lotte-cinema"
    ],
    "lat": 37.5132,
    "lng": 127.1015
  },
  "cu-conv": {
    "id": "cu-conv",
    "name": "CU 편의점",
    "type": "convenience",
    "tags": [
      "convenience",
      "points",
      "mpoint",
      "okcashbag"
    ],
    "lat": 37.5665,
    "lng": 126.978
  },
  "gs25-conv": {
    "id": "gs25-conv",
    "name": "GS25 편의점",
    "type": "convenience",
    "tags": [
      "convenience",
      "points",
      "gspoint"
    ],
    "lat": 37.5665,
    "lng": 126.978
  },
  "seven-eleven": {
    "id": "seven-eleven",
    "name": "세븐일레븐",
    "type": "convenience",
    "tags": [
      "convenience",
      "points"
    ],
    "lat": 37.5665,
    "lng": 126.978
  },
  "emart24": {
    "id": "emart24",
    "name": "이마트24",
    "type": "convenience",
    "tags": [
      "convenience",
      "points",
      "shinsegae-point"
    ],
    "lat": 37.5665,
    "lng": 126.978
  },
  "coupang": {
    "id": "coupang",
    "name": "쿠팡",
    "type": "online",
    "tags": [
      "online",
      "shopping",
      "points"
    ],
    "lat": 37.5665,
    "lng": 126.978
  },
  "ssg": {
    "id": "ssg",
    "name": "SSG닷컴",
    "type": "online",
    "tags": [
      "online",
      "shopping",
      "points",
      "shinsegae-point"
    ],
    "lat": 37.5665,
    "lng": 126.978
  },
  "gmarket": {
    "id": "gmarket",
    "name": "G마켓",
    "type": "online",
    "tags": [
      "online",
      "shopping",
      "points",
      "smilepoint"
    ],
    "lat": 37.5665,
    "lng": 126.978
  },
  "auction": {
    "id": "auction",
    "name": "옥션",
    "type": "online",
    "tags": [
      "online",
      "shopping",
      "points",
      "smilepoint"
    ],
    "lat": 37.5665,
    "lng": 126.978
  },
  "11st": {
    "id": "11st",
    "name": "11번가",
    "type": "online",
    "tags": [
      "online",
      "shopping",
      "points",
      "skpay"
    ],
    "lat": 37.5665,
    "lng": 126.978
  },
  "naver-shopping": {
    "id": "naver-shopping",
    "name": "네이버쇼핑",
    "type": "online",
    "tags": [
      "online",
      "shopping",
      "points",
      "naverpay"
    ],
    "lat": 37.5665,
    "lng": 126.978
  },
  "kakao-shopping": {
    "id": "kakao-shopping",
    "name": "카카오쇼핑",
    "type": "online",
    "tags": [
      "online",
      "shopping",
      "points",
      "kakaopay"
    ],
    "lat": 37.5665,
    "lng": 126.978
  },
  "costco": {
    "id": "costco",
    "name": "코스트코 양재",
    "type": "mart",
    "tags": [
      "mart",
      "shopping"
    ],
    "lat": 37.462,
    "lng": 127.0363
  },
  "lottemart": {
    "id": "lottemart",
    "name": "롯데마트 서울역",
    "type": "mart",
    "tags": [
      "mart",
      "shopping",
      "points",
      "lpoint"
    ],
    "lat": 37.5546,
    "lng": 126.9706
  },
  "gs-caltex": {
    "id": "gs-caltex",
    "name": "GS칼텍스 주유소",
    "type": "gas",
    "tags": [
      "gas",
      "points",
      "gspoint",
      "bonuspoint"
    ],
    "lat": 37.5665,
    "lng": 126.978
  },
  "sk-energy": {
    "id": "sk-energy",
    "name": "SK에너지 주유소",
    "type": "gas",
    "tags": [
      "gas",
      "points",
      "okcashbag",
      "skpay"
    ],
    "lat": 37.5665,
    "lng": 126.978
  },
  "s-oil": {
    "id": "s-oil",
    "name": "S-OIL 주유소",
    "type": "gas",
    "tags": [
      "gas",
      "points",
      "bonuspoint"
    ],
    "lat": 37.5665,
    "lng": 126.978
  },
  "hyundai-oilbank": {
    "id": "hyundai-oilbank",
    "name": "현대오일뱅크",
    "type": "gas",
    "tags": [
      "gas",
      "points",
      "hpoint",
      "bluemembers"
    ],
    "lat": 37.5665,
    "lng": 126.978
  },
  "ediya-coffee": {
    "id": "ediya-coffee",
    "name": "이디야커피",
    "type": "cafe",
    "tags": [
      "cafe",
      "ediya"
    ],
    "lat": 37.5665,
    "lng": 126.978
  },
  "mega-coffee": {
    "id": "mega-coffee",
    "name": "메가커피",
    "type": "cafe",
    "tags": [
      "cafe",
      "mega"
    ],
    "lat": 37.5665,
    "lng": 126.978
  },
  "hollys-coffee": {
    "id": "hollys-coffee",
    "name": "할리스커피",
    "type": "cafe",
    "tags": [
      "cafe",
      "hollys"
    ],
    "lat": 37.5665,
    "lng": 126.978
  },
  "paul-bassett": {
    "id": "paul-bassett",
    "name": "폴바셋",
    "type": "cafe",
    "tags": [
      "cafe",
      "paulbassett"
    ],
    "lat": 37.5665,
    "lng": 126.978
  },
  "blue-bottle": {
    "id": "blue-bottle",
    "name": "블루보틀",
    "type": "cafe",
    "tags": [
      "cafe",
      "bluebottle"
    ],
    "lat": 37.5665,
    "lng": 126.978
  },
  "angelinus": {
    "id": "angelinus",
    "name": "엔제리너스",
    "type": "cafe",
    "tags": [
      "cafe",
      "angelinus"
    ],
    "lat": 37.5665,
    "lng": 126.978
  },
  "compose-coffee": {
    "id": "compose-coffee",
    "name": "컴포즈커피",
    "type": "cafe",
    "tags": [
      "cafe",
      "compose"
    ],
    "lat": 37.5665,
    "lng": 126.978
  },
  "vips": {
    "id": "vips",
    "name": "빕스",
    "type": "restaurant",
    "tags": [
      "restaurant",
      "fnb",
      "vips",
      "buffet"
    ],
    "lat": 37.5665,
    "lng": 126.978
  },
  "ashley": {
    "id": "ashley",
    "name": "애슐리",
    "type": "restaurant",
    "tags": [
      "restaurant",
      "fnb",
      "ashley",
      "buffet"
    ],
    "lat": 37.5665,
    "lng": 126.978
  },
  "outback": {
    "id": "outback",
    "name": "아웃백 스테이크하우스",
    "type": "restaurant",
    "tags": [
      "restaurant",
      "fnb",
      "outback",
      "steak"
    ],
    "lat": 37.5665,
    "lng": 126.978
  },
  "tgif": {
    "id": "tgif",
    "name": "TGI 프라이데이스",
    "type": "restaurant",
    "tags": [
      "restaurant",
      "fnb",
      "tgif"
    ],
    "lat": 37.5665,
    "lng": 126.978
  },
  "bennigans": {
    "id": "bennigans",
    "name": "베니건스",
    "type": "restaurant",
    "tags": [
      "restaurant",
      "fnb",
      "bennigans"
    ],
    "lat": 37.5665,
    "lng": 126.978
  },
  "mad-for-garlic": {
    "id": "mad-for-garlic",
    "name": "매드포갈릭",
    "type": "restaurant",
    "tags": [
      "restaurant",
      "fnb",
      "italian"
    ],
    "lat": 37.5665,
    "lng": 126.978
  },
  "pizzahut": {
    "id": "pizzahut",
    "name": "피자헛",
    "type": "restaurant",
    "tags": [
      "restaurant",
      "fnb",
      "pizza"
    ],
    "lat": 37.5665,
    "lng": 126.978
  },
  "dominos": {
    "id": "dominos",
    "name": "도미노피자",
    "type": "restaurant",
    "tags": [
      "restaurant",
      "fnb",
      "pizza"
    ],
    "lat": 37.5665,
    "lng": 126.978
  },
  "burgerking": {
    "id": "burgerking",
    "name": "버거킹",
    "type": "restaurant",
    "tags": [
      "restaurant",
      "fnb",
      "burger"
    ],
    "lat": 37.5665,
    "lng": 126.978
  },
  "mcdonalds": {
    "id": "mcdonalds",
    "name": "맥도날드",
    "type": "restaurant",
    "tags": [
      "restaurant",
      "fnb",
      "burger"
    ],
    "lat": 37.5665,
    "lng": 126.978
  },
  "kfc": {
    "id": "kfc",
    "name": "KFC",
    "type": "restaurant",
    "tags": [
      "restaurant",
      "fnb",
      "chicken"
    ],
    "lat": 37.5665,
    "lng": 126.978
  },
  "bbq": {
    "id": "bbq",
    "name": "BBQ치킨",
    "type": "restaurant",
    "tags": [
      "restaurant",
      "fnb",
      "chicken",
      "bbq"
    ],
    "lat": 37.5665,
    "lng": 126.978
  },
  "kyochon": {
    "id": "kyochon",
    "name": "교촌치킨",
    "type": "restaurant",
    "tags": [
      "restaurant",
      "fnb",
      "chicken",
      "kyochon"
    ],
    "lat": 37.5665,
    "lng": 126.978
  },
  "bhc": {
    "id": "bhc",
    "name": "BHC",
    "type": "restaurant",
    "tags": [
      "restaurant",
      "fnb",
      "chicken",
      "bhc"
    ],
    "lat": 37.5665,
    "lng": 126.978
  },
  "olleh-square": {
    "id": "olleh-square",
    "name": "KT올레스퀘어",
    "type": "entertainment",
    "tags": [
      "entertainment"
    ],
    "lat": 37.5665,
    "lng": 126.978
  },
  "megabox-central": {
    "id": "megabox-central",
    "name": "메가박스 센트럴",
    "type": "entertainment",
    "tags": [
      "entertainment",
      "movie",
      "megabox"
    ],
    "lat": 37.5665,
    "lng": 126.978
  },
  "lotte-cinema-jamsil": {
    "id": "lotte-cinema-jamsil",
    "name": "롯데시네마 잠실",
    "type": "entertainment",
    "tags": [
      "entertainment",
      "movie",
      "lotte-cinema"
    ],
    "lat": 37.5125,
    "lng": 127.1002
  },
  "cgv-gangnam": {
    "id": "cgv-gangnam",
    "name": "CGV 강남",
    "type": "entertainment",
    "tags": [
      "entertainment",
      "movie",
      "cgv"
    ],
    "lat": 37.501,
    "lng": 127.0263
  },
  "marriott-executive": {
    "id": "marriott-executive",
    "name": "메리어트 이그제큐티브 아파트먼트",
    "type": "hotel",
    "tags": [
      "hotel",
      "marriott",
      "luxury"
    ],
    "lat": 37.5213,
    "lng": 126.9186
  },
  "courtyard-seoul": {
    "id": "courtyard-seoul",
    "name": "코트야드 메리어트 서울",
    "type": "hotel",
    "tags": [
      "hotel",
      "marriott"
    ],
    "lat": 37.502,
    "lng": 127.0374
  },
  "le-meridien-seoul": {
    "id": "le-meridien-seoul",
    "name": "르메르디앙 서울 명동",
    "type": "hotel",
    "tags": [
      "hotel",
      "marriott",
      "luxury"
    ],
    "lat": 37.559,
    "lng": 126.985
  },
  "aloft-seoul": {
    "id": "aloft-seoul",
    "name": "알로프트 서울 강남",
    "type": "hotel",
    "tags": [
      "hotel",
      "marriott"
    ],
    "lat": 37.5237,
    "lng": 127.0557
  },
  "novotel-ambassador": {
    "id": "novotel-ambassador",
    "name": "노보텔 앰배서더 동대문",
    "type": "hotel",
    "tags": [
      "hotel",
      "accor"
    ],
    "lat": 37.5664,
    "lng": 127.0043
  },
  "ibis-styles": {
    "id": "ibis-styles",
    "name": "이비스 스타일 명동",
    "type": "hotel",
    "tags": [
      "hotel",
      "accor"
    ],
    "lat": 37.5607,
    "lng": 126.9862
  },
  "l7-hongdae": {
    "id": "l7-hongdae",
    "name": "L7 홍대",
    "type": "hotel",
    "tags": [
      "hotel",
      "lotte"
    ],
    "lat": 37.5566,
    "lng": 126.9233
  },
  "l7-gangnam": {
    "id": "l7-gangnam",
    "name": "L7 강남",
    "type": "hotel",
    "tags": [
      "hotel",
      "lotte"
    ],
    "lat": 37.5058,
    "lng": 127.0518
  },
  "kyobo-gwanghwamun": {
    "id": "kyobo-gwanghwamun",
    "name": "교보문고 광화문점",
    "type": "entertainment",
    "tags": [
      "shopping",
      "books",
      "kyobo"
    ],
    "lat": 37.571,
    "lng": 126.978
  },
  "yes24-live": {
    "id": "yes24-live",
    "name": "예스24라이브홀",
    "type": "entertainment",
    "tags": [
      "entertainment",
      "concert"
    ],
    "lat": 37.5457,
    "lng": 127.108
  },
  "coex-aquarium": {
    "id": "coex-aquarium",
    "name": "코엑스 아쿠아리움",
    "type": "entertainment",
    "tags": [
      "entertainment",
      "aquarium"
    ],
    "lat": 37.5132,
    "lng": 127.0589
  },
  "lotte-world": {
    "id": "lotte-world",
    "name": "롯데월드",
    "type": "entertainment",
    "tags": [
      "entertainment",
      "themepark",
      "lotte"
    ],
    "lat": 37.5116,
    "lng": 127.0983
  },
  "everland": {
    "id": "everland",
    "name": "에버랜드",
    "type": "entertainment",
    "tags": [
      "entertainment",
      "themepark",
      "samsung"
    ],
    "lat": 37.2939,
    "lng": 127.2025
  },
  "caribbean-bay": {
    "id": "caribbean-bay",
    "name": "캐리비안베이",
    "type": "entertainment",
    "tags": [
      "entertainment",
      "waterpark",
      "samsung"
    ],
    "lat": 37.2972,
    "lng": 127.2008
  },
  "traders-goyang": {
    "id": "traders-goyang",
    "name": "트레이더스 고양점",
    "type": "mart",
    "tags": [
      "mart",
      "shopping",
      "traders",
      "emart"
    ],
    "lat": 37.6462,
    "lng": 126.8929
  },
  "traders-hanam": {
    "id": "traders-hanam",
    "name": "트레이더스 하남점",
    "type": "mart",
    "tags": [
      "mart",
      "shopping",
      "traders",
      "emart"
    ],
    "lat": 37.5453,
    "lng": 127.2238
  },
  "musinsa": {
    "id": "musinsa",
    "name": "무신사",
    "type": "online",
    "tags": [
      "online",
      "shopping",
      "fashion"
    ],
    "lat": 37.5665,
    "lng": 126.978
  },
  "zigzag": {
    "id": "zigzag",
    "name": "지그재그",
    "type": "online",
    "tags": [
      "online",
      "shopping",
      "fashion"
    ],
    "lat": 37.5665,
    "lng": 126.978
  },
  "kurly": {
    "id": "kurly",
    "name": "마켓컬리",
    "type": "online",
    "tags": [
      "online",
      "shopping",
      "grocery"
    ],
    "lat": 37.5665,
    "lng": 126.978
  },
  "baemin": {
    "id": "baemin",
    "name": "배달의민족",
    "type": "online",
    "tags": [
      "online",
      "delivery",
      "food"
    ],
    "lat": 37.5665,
    "lng": 126.978
  },
  "yogiyo": {
    "id": "yogiyo",
    "name": "요기요",
    "type": "online",
    "tags": [
      "online",
      "delivery",
      "food"
    ],
    "lat": 37.5665,
    "lng": 126.978
  },
  "coupangeats": {
    "id": "coupangeats",
    "name": "쿠팡이츠",
    "type": "online",
    "tags": [
      "online",
      "delivery",
      "food"
    ],
    "lat": 37.5665,
    "lng": 126.978
  },
  "kakao:1257493079": {
    "id": "kakao:1257493079",
    "name": "24시전자담배카페",
    "type": "cafe",
    "tags": [
      "cafe",
      "starbucks"
    ],
    "lat": 35.154645098455,
    "lng": 129.114538084323,
    "address": "부산 수영구 광안동 166-23",
    "roadAddress": "부산 수영구 광안로22번길 42",
    "phone": "",
    "placeUrl": "http://place.map.kakao.com/1257493079",
    "source": "kakao",
    "kakaoId": "1257493079"
  },
  "kakao:594493919": {
    "id": "kakao:594493919",
    "name": "51번가헤어",
    "type": "cafe",
    "tags": [
      "cafe",
      "starbucks"
    ],
    "lat": 37.423898723238,
    "lng": 126.749836131716,
    "address": "인천 남동구 서창동 707-2",
    "roadAddress": "인천 남동구 서창남로 51",
    "phone": "032-466-0051",
    "placeUrl": "http://place.map.kakao.com/594493919",
    "source": "kakao",
    "kakaoId": "594493919"
  },
  "kakao:1205251337": {
    "id": "kakao:1205251337",
    "name": "갤러리안단테 스타벅스 북한강R전시장",
    "type": "cafe",
    "tags": [
      "cafe",
      "starbucks"
    ],
    "lat": 37.6124523693153,
    "lng": 127.341998434572,
    "address": "경기 남양주시 화도읍 금남리 806-1",
    "roadAddress": "경기 남양주시 화도읍 북한강로 1098",
    "phone": "",
    "placeUrl": "http://place.map.kakao.com/1205251337",
    "source": "kakao",
    "kakaoId": "1205251337"
  },
  "kakao:841057651": {
    "id": "kakao:841057651",
    "name": "경기파주스타벅스파주가람점1 전기차충전소",
    "type": "cafe",
    "tags": [
      "cafe",
      "starbucks"
    ],
    "lat": 37.7359716890864,
    "lng": 126.75984070401,
    "address": "경기 파주시 와동동 1538-1",
    "roadAddress": "경기 파주시 가람로 89",
    "phone": "1877-6546",
    "placeUrl": "http://place.map.kakao.com/841057651",
    "source": "kakao",
    "kakaoId": "841057651"
  },
  "kakao:841205573": {
    "id": "kakao:841205573",
    "name": "경기파주스타벅스파주가람점2 전기차충전소",
    "type": "cafe",
    "tags": [
      "cafe",
      "starbucks"
    ],
    "lat": 37.735971689086355,
    "lng": 126.75984070401026,
    "address": "경기 파주시 와동동 1538-1",
    "roadAddress": "경기 파주시 가람로 89",
    "phone": "1877-6546",
    "placeUrl": "http://place.map.kakao.com/841205573",
    "source": "kakao",
    "kakaoId": "841205573"
  },
  "kakao:2044260276": {
    "id": "kakao:2044260276",
    "name": "구리 갈매스타벅스DT 전기차충전소",
    "type": "cafe",
    "tags": [
      "cafe",
      "starbucks"
    ],
    "lat": 37.632369735162975,
    "lng": 127.12274959384804,
    "address": "경기 구리시 갈매동 553",
    "roadAddress": "경기 구리시 갈매순환로 148",
    "phone": "",
    "placeUrl": "http://place.map.kakao.com/2044260276",
    "source": "kakao",
    "kakaoId": "2044260276"
  },
  "kakao:1505482701": {
    "id": "kakao:1505482701",
    "name": "꽃담소&라면한상 스타벅스캡슐무인카페",
    "type": "cafe",
    "tags": [
      "cafe",
      "starbucks"
    ],
    "lat": 37.6526871936372,
    "lng": 126.637967956065,
    "address": "경기 김포시 구래동 6877-5",
    "roadAddress": "경기 김포시 김포한강5로 321",
    "phone": "010-9124-3873",
    "placeUrl": "http://place.map.kakao.com/1505482701",
    "source": "kakao",
    "kakaoId": "1505482701"
  },
  "kakao:911490952": {
    "id": "kakao:911490952",
    "name": "남양주시 메르세데스-벤츠 북한강스타벅스 전기차충전소",
    "type": "cafe",
    "tags": [
      "cafe",
      "starbucks"
    ],
    "lat": 37.6127791159813,
    "lng": 127.341172002759,
    "address": "경기 남양주시 화도읍 금남리 807",
    "roadAddress": "경기 남양주시 화도읍 북한강로 1098",
    "phone": "",
    "placeUrl": "http://place.map.kakao.com/911490952",
    "source": "kakao",
    "kakaoId": "911490952"
  },
  "kakao:604514203": {
    "id": "kakao:604514203",
    "name": "뉘르24",
    "type": "cafe",
    "tags": [
      "cafe",
      "starbucks"
    ],
    "lat": 37.718239582423934,
    "lng": 126.83728127004274,
    "address": "경기 고양시 일산동구 지영동 4-1",
    "roadAddress": "경기 고양시 일산동구 공릉천로 309",
    "phone": "0507-1391-8805",
    "placeUrl": "http://place.map.kakao.com/604514203",
    "source": "kakao",
    "kakaoId": "604514203"
  },
  "kakao:1523333431": {
    "id": "kakao:1523333431",
    "name": "대성전기조명",
    "type": "cafe",
    "tags": [
      "cafe",
      "starbucks"
    ],
    "lat": 35.833394971716665,
    "lng": 128.5669017425581,
    "address": "대구 남구 대명동 589-3",
    "roadAddress": "대구 남구 앞산순환로75길 27",
    "phone": "053-644-6653",
    "placeUrl": "http://place.map.kakao.com/1523333431",
    "source": "kakao",
    "kakaoId": "1523333431"
  },
  "kakao:503351729": {
    "id": "kakao:503351729",
    "name": "무인스타벅스캡슐커피전문점",
    "type": "cafe",
    "tags": [
      "cafe",
      "starbucks"
    ],
    "lat": 37.4728031438307,
    "lng": 126.813311575274,
    "address": "경기 부천시 소사구 범박동 211-1",
    "roadAddress": "경기 부천시 소사구 양지로92번길 9-3",
    "phone": "",
    "placeUrl": "http://place.map.kakao.com/503351729",
    "source": "kakao",
    "kakaoId": "503351729"
  },
  "kakao:1337801203": {
    "id": "kakao:1337801203",
    "name": "무인스타벅스캡슐커피전문점 구리인창점",
    "type": "cafe",
    "tags": [
      "cafe",
      "starbucks"
    ],
    "lat": 37.6093501004388,
    "lng": 127.133017948907,
    "address": "경기 구리시 인창동 487-51",
    "roadAddress": "경기 구리시 동구릉로85번길 40",
    "phone": "",
    "placeUrl": "http://place.map.kakao.com/1337801203",
    "source": "kakao",
    "kakaoId": "1337801203"
  },
  "kakao:1998133446": {
    "id": "kakao:1998133446",
    "name": "서울우유 광명리고객센터",
    "type": "cafe",
    "tags": [
      "cafe",
      "starbucks"
    ],
    "lat": 37.4669096640387,
    "lng": 126.833846312964,
    "address": "경기 광명시 옥길동 187",
    "roadAddress": "경기 광명시 연동로 20",
    "phone": "02-2612-2675",
    "placeUrl": "http://place.map.kakao.com/1998133446",
    "source": "kakao",
    "kakaoId": "1998133446"
  },
  "kakao:9114676": {
    "id": "kakao:9114676",
    "name": "서울우유 소하리고객센터",
    "type": "cafe",
    "tags": [
      "cafe",
      "starbucks"
    ],
    "lat": 37.4363754865973,
    "lng": 126.878463873615,
    "address": "경기 광명시 소하동 924-24",
    "roadAddress": "경기 광명시 오리로381번길 9",
    "phone": "02-898-9197",
    "placeUrl": "http://place.map.kakao.com/9114676",
    "source": "kakao",
    "kakaoId": "9114676"
  },
  "kakao:1741322798": {
    "id": "kakao:1741322798",
    "name": "스타벅스",
    "type": "cafe",
    "tags": [
      "cafe",
      "starbucks"
    ],
    "lat": 36.07954146590408,
    "lng": 129.3950400418094,
    "address": "경북 포항시 북구 장성동 1427-20",
    "roadAddress": "경북 포항시 북구 장량로128번길 23-12",
    "phone": "",
    "placeUrl": "http://place.map.kakao.com/1741322798",
    "source": "kakao",
    "kakaoId": "1741322798"
  },
  "kakao:1331975973": {
    "id": "kakao:1331975973",
    "name": "스타벅스 가나아트파크점",
    "type": "cafe",
    "tags": [
      "cafe",
      "starbucks"
    ],
    "lat": 37.7263806764519,
    "lng": 126.950080424776,
    "address": "경기 양주시 장흥면 일영리 6-7",
    "roadAddress": "경기 양주시 장흥면 권율로 117",
    "phone": "1522-3232",
    "placeUrl": "http://place.map.kakao.com/1331975973",
    "source": "kakao",
    "kakaoId": "1331975973"
  },
  "kakao:13584740": {
    "id": "kakao:13584740",
    "name": "스타벅스 가든파이브",
    "type": "cafe",
    "tags": [
      "cafe",
      "starbucks"
    ],
    "lat": 37.47822434072747,
    "lng": 127.11933142801702,
    "address": "서울 송파구 문정동 628",
    "roadAddress": "서울 송파구 충민로 10",
    "phone": "1522-3232",
    "placeUrl": "http://place.map.kakao.com/13584740",
    "source": "kakao",
    "kakaoId": "13584740"
  },
  "kakao:17884761": {
    "id": "kakao:17884761",
    "name": "스타벅스 가락본동점",
    "type": "cafe",
    "tags": [
      "cafe",
      "starbucks"
    ],
    "lat": 37.4948610690639,
    "lng": 127.118812839145,
    "address": "서울 송파구 가락동 97-7",
    "roadAddress": "서울 송파구 송파대로30길 13",
    "phone": "1522-3232",
    "placeUrl": "http://place.map.kakao.com/17884761",
    "source": "kakao",
    "kakaoId": "17884761"
  },
  "kakao:21748238": {
    "id": "kakao:21748238",
    "name": "스타벅스 가로수길점",
    "type": "cafe",
    "tags": [
      "cafe",
      "starbucks"
    ],
    "lat": 37.5231599210152,
    "lng": 127.021661092512,
    "address": "서울 강남구 신사동 529-10",
    "roadAddress": "서울 강남구 논현로175길 94",
    "phone": "1522-3232",
    "placeUrl": "http://place.map.kakao.com/21748238",
    "source": "kakao",
    "kakaoId": "21748238"
  },
  "kakao:1460458769": {
    "id": "kakao:1460458769",
    "name": "스타벅스 가산디지털단지역점",
    "type": "cafe",
    "tags": [
      "cafe",
      "starbucks"
    ],
    "lat": 37.4813375391088,
    "lng": 126.883591912152,
    "address": "서울 금천구 가산동 50-3",
    "roadAddress": "서울 금천구 벚꽃로 298",
    "phone": "1522-3232",
    "placeUrl": "http://place.map.kakao.com/1460458769",
    "source": "kakao",
    "kakaoId": "1460458769"
  },
  "kakao:8403565": {
    "id": "kakao:8403565",
    "name": "스타벅스 가산디지털점",
    "type": "cafe",
    "tags": [
      "cafe",
      "starbucks"
    ],
    "lat": 37.48001465912096,
    "lng": 126.8824803289091,
    "address": "서울 금천구 가산동 371-28",
    "roadAddress": "서울 금천구 가산디지털1로 168",
    "phone": "1522-3232",
    "placeUrl": "http://place.map.kakao.com/8403565",
    "source": "kakao",
    "kakaoId": "8403565"
  },
  "kakao:26376546": {
    "id": "kakao:26376546",
    "name": "스타벅스 가산브이타워점",
    "type": "cafe",
    "tags": [
      "cafe",
      "starbucks"
    ],
    "lat": 37.4769946609385,
    "lng": 126.883576037768,
    "address": "서울 금천구 가산동 371-37",
    "roadAddress": "서울 금천구 가산디지털1로 128",
    "phone": "1522-3232",
    "placeUrl": "http://place.map.kakao.com/26376546",
    "source": "kakao",
    "kakaoId": "26376546"
  },
  "kakao:1469997287": {
    "id": "kakao:1469997287",
    "name": "스타벅스 가산어반워크점",
    "type": "cafe",
    "tags": [
      "cafe",
      "starbucks"
    ],
    "lat": 37.4800209461231,
    "lng": 126.878015601766,
    "address": "서울 금천구 가산동 451-1",
    "roadAddress": "서울 금천구 가산디지털2로 135",
    "phone": "1522-3232",
    "placeUrl": "http://place.map.kakao.com/1469997287",
    "source": "kakao",
    "kakaoId": "1469997287"
  },
  "kakao:1146328973": {
    "id": "kakao:1146328973",
    "name": "스타벅스 가산에스케이점",
    "type": "cafe",
    "tags": [
      "cafe",
      "starbucks"
    ],
    "lat": 37.48079971611958,
    "lng": 126.88095843414192,
    "address": "서울 금천구 가산동 371-41",
    "roadAddress": "서울 금천구 가산디지털1로 171",
    "phone": "1522-3232",
    "placeUrl": "http://place.map.kakao.com/1146328973",
    "source": "kakao",
    "kakaoId": "1146328973"
  },
  "kakao:1887888284": {
    "id": "kakao:1887888284",
    "name": "스타벅스 가산케이에스점",
    "type": "cafe",
    "tags": [
      "cafe",
      "starbucks"
    ],
    "lat": 37.48074248928671,
    "lng": 126.88504001007452,
    "address": "서울 금천구 가산동 60-14",
    "roadAddress": "서울 금천구 벚꽃로36길 30",
    "phone": "1522-3232",
    "placeUrl": "http://place.map.kakao.com/1887888284",
    "source": "kakao",
    "kakaoId": "1887888284"
  },
  "kakao:1724970139": {
    "id": "kakao:1724970139",
    "name": "스타벅스 가산퍼블릭점",
    "type": "cafe",
    "tags": [
      "cafe",
      "starbucks"
    ],
    "lat": 37.47557684259649,
    "lng": 126.88673806155231,
    "address": "서울 금천구 가산동 60-26",
    "roadAddress": "서울 금천구 디지털로 178",
    "phone": "1522-3232",
    "placeUrl": "http://place.map.kakao.com/1724970139",
    "source": "kakao",
    "kakaoId": "1724970139"
  },
  "kakao:1138402820": {
    "id": "kakao:1138402820",
    "name": "스타벅스 가산현대아울렛점",
    "type": "cafe",
    "tags": [
      "cafe",
      "starbucks"
    ],
    "lat": 37.477651151536676,
    "lng": 126.88883098701767,
    "address": "서울 금천구 가산동 60-8",
    "roadAddress": "서울 금천구 디지털로10길 9",
    "phone": "1522-3232",
    "placeUrl": "http://place.map.kakao.com/1138402820",
    "source": "kakao",
    "kakaoId": "1138402820"
  },
  "kakao:474084339": {
    "id": "kakao:474084339",
    "name": "스타벅스 가양역사거리점",
    "type": "cafe",
    "tags": [
      "cafe",
      "starbucks"
    ],
    "lat": 37.5600251851564,
    "lng": 126.855419019391,
    "address": "서울 강서구 등촌동 628-9",
    "roadAddress": "서울 강서구 화곡로 416",
    "phone": "1522-3232",
    "placeUrl": "http://place.map.kakao.com/474084339",
    "source": "kakao",
    "kakaoId": "474084339"
  },
  "kakao:1037105014": {
    "id": "kakao:1037105014",
    "name": "스타벅스 가양역점",
    "type": "cafe",
    "tags": [
      "cafe",
      "starbucks"
    ],
    "lat": 37.56157807618199,
    "lng": 126.8536107571435,
    "address": "서울 강서구 등촌동 73-1",
    "roadAddress": "서울 강서구 양천로 476",
    "phone": "1522-3232",
    "placeUrl": "http://place.map.kakao.com/1037105014",
    "source": "kakao",
    "kakaoId": "1037105014"
  },
  "kakao:2060053572": {
    "id": "kakao:2060053572",
    "name": "스타벅스 가재울뉴타운점",
    "type": "cafe",
    "tags": [
      "cafe",
      "starbucks"
    ],
    "lat": 37.57489101111376,
    "lng": 126.91631259025394,
    "address": "서울 서대문구 남가좌동 385",
    "roadAddress": "서울 서대문구 가재울미래로 2",
    "phone": "1522-3232",
    "placeUrl": "http://place.map.kakao.com/2060053572",
    "source": "kakao",
    "kakaoId": "2060053572"
  },
  "kakao:1346447965": {
    "id": "kakao:1346447965",
    "name": "스타벅스 가천대학교점",
    "type": "cafe",
    "tags": [
      "cafe",
      "starbucks"
    ],
    "lat": 37.44944690063611,
    "lng": 127.12715143394578,
    "address": "경기 성남시 수정구 복정동 620-2",
    "roadAddress": "경기 성남시 수정구 성남대로 1342",
    "phone": "1522-3232",
    "placeUrl": "http://place.map.kakao.com/1346447965",
    "source": "kakao",
    "kakaoId": "1346447965"
  },
  "kakao:1638171163": {
    "id": "kakao:1638171163",
    "name": "스타벅스 가평설악IC DT점",
    "type": "cafe",
    "tags": [
      "cafe",
      "starbucks"
    ],
    "lat": 37.67905522939646,
    "lng": 127.48627127423966,
    "address": "경기 가평군 설악면 신천리 554-5",
    "roadAddress": "경기 가평군 설악면 신선봉로 14",
    "phone": "1522-3232",
    "placeUrl": "http://place.map.kakao.com/1638171163",
    "source": "kakao",
    "kakaoId": "1638171163"
  },
  "kakao:290388280": {
    "id": "kakao:290388280",
    "name": "스타벅스 간석중앙공원DT점",
    "type": "cafe",
    "tags": [
      "cafe",
      "starbucks"
    ],
    "lat": 37.4632822511067,
    "lng": 126.700730754915,
    "address": "인천 남동구 간석동 380-4",
    "roadAddress": "인천 남동구 경인로 563",
    "phone": "1522-3232",
    "placeUrl": "http://place.map.kakao.com/290388280",
    "source": "kakao",
    "kakaoId": "290388280"
  },
  "kakao:196045335": {
    "id": "kakao:196045335",
    "name": "스타벅스 간석중앙공원DT점 주차장",
    "type": "cafe",
    "tags": [
      "cafe",
      "starbucks"
    ],
    "lat": 37.4634279667902,
    "lng": 126.700632964795,
    "address": "인천 남동구 간석동 380-4",
    "roadAddress": "",
    "phone": "",
    "placeUrl": "http://place.map.kakao.com/196045335",
    "source": "kakao",
    "kakaoId": "196045335"
  },
  "kakao:1052083352": {
    "id": "kakao:1052083352",
    "name": "스타벅스 강남교보타워R점",
    "type": "cafe",
    "tags": [
      "cafe",
      "starbucks"
    ],
    "lat": 37.50368598864027,
    "lng": 127.02438897556831,
    "address": "서울 서초구 서초동 1303-22",
    "roadAddress": "서울 서초구 강남대로 465",
    "phone": "1522-3232",
    "placeUrl": "http://place.map.kakao.com/1052083352",
    "source": "kakao",
    "kakaoId": "1052083352"
  },
  "kakao:10534102": {
    "id": "kakao:10534102",
    "name": "스타벅스 강남구청역점",
    "type": "cafe",
    "tags": [
      "cafe",
      "starbucks"
    ],
    "lat": 37.5167215373803,
    "lng": 127.041264296462,
    "address": "서울 강남구 논현동 241-7",
    "roadAddress": "서울 강남구 선릉로 669",
    "phone": "1522-3232",
    "placeUrl": "http://place.map.kakao.com/10534102",
    "source": "kakao",
    "kakaoId": "10534102"
  },
  "kakao:656778644": {
    "id": "kakao:656778644",
    "name": "스타벅스 강남구청정문점",
    "type": "cafe",
    "tags": [
      "cafe",
      "starbucks"
    ],
    "lat": 37.5182407036159,
    "lng": 127.045943657684,
    "address": "서울 강남구 청담동 44-12",
    "roadAddress": "서울 강남구 학동로 419",
    "phone": "1522-3232",
    "placeUrl": "http://place.map.kakao.com/656778644",
    "source": "kakao",
    "kakaoId": "656778644"
  },
  "kakao:2014774297": {
    "id": "kakao:2014774297",
    "name": "스타벅스 강남논현점",
    "type": "cafe",
    "tags": [
      "cafe",
      "starbucks"
    ],
    "lat": 37.5078965980245,
    "lng": 127.023339632165,
    "address": "서울 강남구 논현동 164-7",
    "roadAddress": "서울 강남구 강남대로 512",
    "phone": "1522-3232",
    "placeUrl": "http://place.map.kakao.com/2014774297",
    "source": "kakao",
    "kakaoId": "2014774297"
  },
  "kakao:621924779": {
    "id": "kakao:621924779",
    "name": "스타벅스 강남대로신사점",
    "type": "cafe",
    "tags": [
      "cafe",
      "starbucks"
    ],
    "lat": 37.5148458271957,
    "lng": 127.019577428193,
    "address": "서울 서초구 잠원동 21-7",
    "roadAddress": "서울 서초구 강남대로 595",
    "phone": "1522-3232",
    "placeUrl": "http://place.map.kakao.com/621924779",
    "source": "kakao",
    "kakaoId": "621924779"
  },
  "kakao:20494135": {
    "id": "kakao:20494135",
    "name": "스타벅스 강남대로점",
    "type": "cafe",
    "tags": [
      "cafe",
      "starbucks"
    ],
    "lat": 37.5032649716005,
    "lng": 127.025559367137,
    "address": "서울 강남구 역삼동 809-10",
    "roadAddress": "서울 강남구 강남대로 456",
    "phone": "1522-3232",
    "placeUrl": "http://place.map.kakao.com/20494135",
    "source": "kakao",
    "kakaoId": "20494135"
  },
  "kakao:12411718": {
    "id": "kakao:12411718",
    "name": "스타벅스 강남대점",
    "type": "cafe",
    "tags": [
      "cafe",
      "starbucks"
    ],
    "lat": 37.271053746546826,
    "lng": 127.12606723683733,
    "address": "경기 용인시 기흥구 구갈동 581-1",
    "roadAddress": "경기 용인시 기흥구 강남로 3",
    "phone": "1522-3232",
    "placeUrl": "http://place.map.kakao.com/12411718",
    "source": "kakao",
    "kakaoId": "12411718"
  },
  "kakao:17884744": {
    "id": "kakao:17884744",
    "name": "스타벅스 강남비젼타워점",
    "type": "cafe",
    "tags": [
      "cafe",
      "starbucks"
    ],
    "lat": 37.49649026006633,
    "lng": 127.0296167853337,
    "address": "서울 강남구 역삼동 826-26",
    "roadAddress": "서울 강남구 테헤란로2길 27",
    "phone": "1522-3232",
    "placeUrl": "http://place.map.kakao.com/17884744",
    "source": "kakao",
    "kakaoId": "17884744"
  },
  "kakao:11306012": {
    "id": "kakao:11306012",
    "name": "스타벅스 강남서초초교점",
    "type": "cafe",
    "tags": [
      "cafe",
      "starbucks"
    ],
    "lat": 37.50015830491417,
    "lng": 127.0255526536779,
    "address": "서울 서초구 서초동 1307-19",
    "roadAddress": "서울 서초구 서초대로77길 27",
    "phone": "1522-3232",
    "placeUrl": "http://place.map.kakao.com/11306012",
    "source": "kakao",
    "kakaoId": "11306012"
  },
  "kakao:523837124": {
    "id": "kakao:523837124",
    "name": "스타벅스 강남세곡점",
    "type": "cafe",
    "tags": [
      "cafe",
      "starbucks"
    ],
    "lat": 37.4672752513511,
    "lng": 127.099927618834,
    "address": "서울 강남구 세곡동 551",
    "roadAddress": "서울 강남구 헌릉로569길 18",
    "phone": "1522-3232",
    "placeUrl": "http://place.map.kakao.com/523837124",
    "source": "kakao",
    "kakaoId": "523837124"
  },
  "kakao:2065416597": {
    "id": "kakao:2065416597",
    "name": "스타벅스 강남세곡점 주차장",
    "type": "cafe",
    "tags": [
      "cafe",
      "starbucks"
    ],
    "lat": 37.4672590331755,
    "lng": 127.099927597247,
    "address": "서울 강남구 세곡동 551",
    "roadAddress": "서울 강남구 헌릉로569길 18",
    "phone": "",
    "placeUrl": "http://place.map.kakao.com/2065416597",
    "source": "kakao",
    "kakaoId": "2065416597"
  },
  "kakao:916566284": {
    "id": "kakao:916566284",
    "name": "스타벅스 강남세곡DT점",
    "type": "cafe",
    "tags": [
      "cafe",
      "starbucks"
    ],
    "lat": 37.4669942593366,
    "lng": 127.118331259676,
    "address": "서울 강남구 세곡동 21-3",
    "roadAddress": "서울 강남구 헌릉로 727",
    "phone": "1522-3232",
    "placeUrl": "http://place.map.kakao.com/916566284",
    "source": "kakao",
    "kakaoId": "916566284"
  },
  "kakao:19469881": {
    "id": "kakao:19469881",
    "name": "스타벅스 강남에비뉴점",
    "type": "cafe",
    "tags": [
      "cafe",
      "starbucks"
    ],
    "lat": 37.5025516822801,
    "lng": 127.024097956389,
    "address": "서울 서초구 서초동 1303-16",
    "roadAddress": "서울 서초구 서초대로77길 62",
    "phone": "1522-3232",
    "placeUrl": "http://place.map.kakao.com/19469881",
    "source": "kakao",
    "kakaoId": "19469881"
  },
  "kakao:799842956": {
    "id": "kakao:799842956",
    "name": "스타벅스 강남역5번출구호정빌딩점",
    "type": "cafe",
    "tags": [
      "cafe",
      "starbucks"
    ],
    "lat": 37.4945426065049,
    "lng": 127.028298618043,
    "address": "서울 서초구 서초동 1327-35",
    "roadAddress": "서울 서초구 서초대로78길 38",
    "phone": "1522-3232",
    "placeUrl": "http://place.map.kakao.com/799842956",
    "source": "kakao",
    "kakaoId": "799842956"
  },
  "kakao:1676397089": {
    "id": "kakao:1676397089",
    "name": "스타벅스 강남역신분당역사점",
    "type": "cafe",
    "tags": [
      "cafe",
      "starbucks"
    ],
    "lat": 37.49701321401818,
    "lng": 127.02810165133745,
    "address": "서울 강남구 역삼동 858",
    "roadAddress": "",
    "phone": "1522-3232",
    "placeUrl": "http://place.map.kakao.com/1676397089",
    "source": "kakao",
    "kakaoId": "1676397089"
  },
  "kakao:1416698743": {
    "id": "kakao:1416698743",
    "name": "스타벅스 강남역우송빌딩점",
    "type": "cafe",
    "tags": [
      "cafe",
      "starbucks"
    ],
    "lat": 37.4981419049692,
    "lng": 127.02531109167,
    "address": "서울 서초구 서초동 1316-28",
    "roadAddress": "서울 서초구 서초대로73길 7",
    "phone": "1522-3232",
    "placeUrl": "http://place.map.kakao.com/1416698743",
    "source": "kakao",
    "kakaoId": "1416698743"
  },
  "kakao:113668696": {
    "id": "kakao:113668696",
    "name": "스타벅스 강남오거리점",
    "type": "cafe",
    "tags": [
      "cafe",
      "starbucks"
    ],
    "lat": 37.5021150424068,
    "lng": 127.026671808376,
    "address": "서울 강남구 역삼동 813-17",
    "roadAddress": "서울 강남구 봉은사로2길 39",
    "phone": "1522-3232",
    "placeUrl": "http://place.map.kakao.com/113668696",
    "source": "kakao",
    "kakaoId": "113668696"
  },
  "kakao:1807668316": {
    "id": "kakao:1807668316",
    "name": "스타벅스 강남우성점",
    "type": "cafe",
    "tags": [
      "cafe",
      "starbucks"
    ],
    "lat": 37.492329129164,
    "lng": 127.03071652243,
    "address": "서울 강남구 역삼동 832-3",
    "roadAddress": "서울 강남구 강남대로 328",
    "phone": "1522-3232",
    "placeUrl": "http://place.map.kakao.com/1807668316",
    "source": "kakao",
    "kakaoId": "1807668316"
  },
  "kakao:1376061897": {
    "id": "kakao:1376061897",
    "name": "스타벅스 강남차여성병원점",
    "type": "cafe",
    "tags": [
      "cafe",
      "starbucks"
    ],
    "lat": 37.506387183650155,
    "lng": 127.03201613686862,
    "address": "서울 강남구 역삼동 605",
    "roadAddress": "서울 강남구 봉은사로 156",
    "phone": "1522-3232",
    "placeUrl": "http://place.map.kakao.com/1376061897",
    "source": "kakao",
    "kakaoId": "1376061897"
  },
  "kakao:1137550590": {
    "id": "kakao:1137550590",
    "name": "스타벅스 강남청담빌딩점",
    "type": "cafe",
    "tags": [
      "cafe",
      "starbucks"
    ],
    "lat": 37.5178017967359,
    "lng": 127.041389319418,
    "address": "서울 강남구 청담동 41",
    "roadAddress": "서울 강남구 선릉로 704",
    "phone": "1522-3232",
    "placeUrl": "http://place.map.kakao.com/1137550590",
    "source": "kakao",
    "kakaoId": "1137550590"
  },
  "kakao:2018390336": {
    "id": "kakao:2018390336",
    "name": "스타벅스 강남파이낸스센터점",
    "type": "cafe",
    "tags": [
      "cafe",
      "starbucks"
    ],
    "lat": 37.49993547619417,
    "lng": 127.03684795896827,
    "address": "서울 강남구 역삼동 737",
    "roadAddress": "서울 강남구 테헤란로 152",
    "phone": "1522-3232",
    "placeUrl": "http://place.map.kakao.com/2018390336",
    "source": "kakao",
    "kakaoId": "2018390336"
  },
  "kakao:17884758": {
    "id": "kakao:17884758",
    "name": "스타벅스 강남GT타워점",
    "type": "cafe",
    "tags": [
      "cafe",
      "starbucks"
    ],
    "lat": 37.49788583490465,
    "lng": 127.02615689173884,
    "address": "서울 서초구 서초동 1317-23",
    "roadAddress": "서울 서초구 서초대로 411",
    "phone": "1522-3232",
    "placeUrl": "http://place.map.kakao.com/17884758",
    "source": "kakao",
    "kakaoId": "17884758"
  },
  "kakao:35026031": {
    "id": "kakao:35026031",
    "name": "스타벅스 강남R점",
    "type": "cafe",
    "tags": [
      "cafe",
      "starbucks"
    ],
    "lat": 37.4976744709989,
    "lng": 127.028443419181,
    "address": "서울 강남구 역삼동 825",
    "roadAddress": "서울 강남구 강남대로 390",
    "phone": "1522-3232",
    "placeUrl": "http://place.map.kakao.com/35026031",
    "source": "kakao",
    "kakaoId": "35026031"
  },
  "kakao:1190840964": {
    "id": "kakao:1190840964",
    "name": "스타벅스 강동강일점",
    "type": "cafe",
    "tags": [
      "cafe",
      "starbucks"
    ],
    "lat": 37.572264686913805,
    "lng": 127.17492603883886,
    "address": "서울 강동구 강일동 75-12",
    "roadAddress": "서울 강동구 아리수로93나길 54",
    "phone": "1522-3232",
    "placeUrl": "http://place.map.kakao.com/1190840964",
    "source": "kakao",
    "kakaoId": "1190840964"
  },
  "kakao:1255094197": {
    "id": "kakao:1255094197",
    "name": "스타벅스 강동구청DT점",
    "type": "cafe",
    "tags": [
      "cafe",
      "starbucks"
    ],
    "lat": 37.52921208375212,
    "lng": 127.12383613307597,
    "address": "서울 강동구 성내동 550",
    "roadAddress": "서울 강동구 성내로 32",
    "phone": "1522-3232",
    "placeUrl": "http://place.map.kakao.com/1255094197",
    "source": "kakao",
    "kakaoId": "1255094197"
  },
  "kakao:1342867631": {
    "id": "kakao:1342867631",
    "name": "스타벅스 강동구청DT점 주차장",
    "type": "cafe",
    "tags": [
      "cafe",
      "starbucks"
    ],
    "lat": 37.5291913939739,
    "lng": 127.123804421461,
    "address": "서울 강동구 성내동 550",
    "roadAddress": "서울 강동구 성내로 32",
    "phone": "",
    "placeUrl": "http://place.map.kakao.com/1342867631",
    "source": "kakao",
    "kakaoId": "1342867631"
  },
  "kakao:87517541": {
    "id": "kakao:87517541",
    "name": "스타벅스 강동그란츠점",
    "type": "cafe",
    "tags": [
      "cafe",
      "starbucks"
    ],
    "lat": 37.5367081285903,
    "lng": 127.12831775388,
    "address": "서울 강동구 성내동 611",
    "roadAddress": "서울 강동구 천호대로 1050",
    "phone": "1522-3232",
    "placeUrl": "http://place.map.kakao.com/87517541",
    "source": "kakao",
    "kakaoId": "87517541"
  },
  "kakao:1257253143": {
    "id": "kakao:1257253143",
    "name": "스타벅스 강동암사DT 주차장",
    "type": "cafe",
    "tags": [
      "cafe",
      "starbucks"
    ],
    "lat": 37.5549812237825,
    "lng": 127.130016111165,
    "address": "서울 강동구 암사동 441-12",
    "roadAddress": "",
    "phone": "",
    "placeUrl": "http://place.map.kakao.com/1257253143",
    "source": "kakao",
    "kakaoId": "1257253143"
  },
  "kakao:1749096990": {
    "id": "kakao:1749096990",
    "name": "스타벅스 강동암사DT점",
    "type": "cafe",
    "tags": [
      "cafe",
      "starbucks"
    ],
    "lat": 37.55510465765727,
    "lng": 127.1300185890668,
    "address": "서울 강동구 암사동 441-12",
    "roadAddress": "서울 강동구 고덕로 43",
    "phone": "1522-3232",
    "placeUrl": "http://place.map.kakao.com/1749096990",
    "source": "kakao",
    "kakaoId": "1749096990"
  },
  "kakao:1124970786": {
    "id": "kakao:1124970786",
    "name": "스타벅스 강동역점",
    "type": "cafe",
    "tags": [
      "cafe",
      "starbucks"
    ],
    "lat": 37.536045232577685,
    "lng": 127.13298720047844,
    "address": "서울 강동구 천호동 447-17",
    "roadAddress": "서울 강동구 천호대로 1089",
    "phone": "1522-3232",
    "placeUrl": "http://place.map.kakao.com/1124970786",
    "source": "kakao",
    "kakaoId": "1124970786"
  },
  "kakao:397693663": {
    "id": "kakao:397693663",
    "name": "스타벅스 강릉강문해변점",
    "type": "cafe",
    "tags": [
      "cafe",
      "starbucks"
    ],
    "lat": 37.7947119397031,
    "lng": 128.91855490234,
    "address": "강원특별자치도 강릉시 강문동 182-2",
    "roadAddress": "강원특별자치도 강릉시 창해로350번길 3",
    "phone": "1522-3232",
    "placeUrl": "http://place.map.kakao.com/397693663",
    "source": "kakao",
    "kakaoId": "397693663"
  },
  "kakao:1431515003": {
    "id": "kakao:1431515003",
    "name": "스타벅스 강릉교동광장점",
    "type": "cafe",
    "tags": [
      "cafe",
      "starbucks"
    ],
    "lat": 37.7643123098448,
    "lng": 128.877063255812,
    "address": "강원특별자치도 강릉시 교동 1882-1",
    "roadAddress": "강원특별자치도 강릉시 교동광장로 114",
    "phone": "1522-3232",
    "placeUrl": "http://place.map.kakao.com/1431515003",
    "source": "kakao",
    "kakaoId": "1431515003"
  },
  "kakao:2020217761": {
    "id": "kakao:2020217761",
    "name": "스타벅스 강릉교동광장점 주차장",
    "type": "cafe",
    "tags": [
      "cafe",
      "starbucks"
    ],
    "lat": 37.7643297411177,
    "lng": 128.877100008678,
    "address": "강원특별자치도 강릉시 교동 1882-1",
    "roadAddress": "강원특별자치도 강릉시 교동광장로 114",
    "phone": "",
    "placeUrl": "http://place.map.kakao.com/2020217761",
    "source": "kakao",
    "kakaoId": "2020217761"
  },
  "kakao:1280175321": {
    "id": "kakao:1280175321",
    "name": "스타벅스 강릉송정DT점",
    "type": "cafe",
    "tags": [
      "cafe",
      "starbucks"
    ],
    "lat": 37.771901698826625,
    "lng": 128.92298578099556,
    "address": "강원특별자치도 강릉시 송정동 545-2",
    "roadAddress": "강원특별자치도 강릉시 경강로 2400",
    "phone": "1522-3232",
    "placeUrl": "http://place.map.kakao.com/1280175321",
    "source": "kakao",
    "kakaoId": "1280175321"
  },
  "kakao:1185364271": {
    "id": "kakao:1185364271",
    "name": "스타벅스 강릉송정DT점 주차장",
    "type": "cafe",
    "tags": [
      "cafe",
      "starbucks"
    ],
    "lat": 37.7719129857671,
    "lng": 128.922956566962,
    "address": "강원특별자치도 강릉시 송정동 545-2",
    "roadAddress": "강원특별자치도 강릉시 경강로 2400",
    "phone": "",
    "placeUrl": "http://place.map.kakao.com/1185364271",
    "source": "kakao",
    "kakaoId": "1185364271"
  },
  "kakao:1226189116": {
    "id": "kakao:1226189116",
    "name": "스타벅스 강릉아산병원점",
    "type": "cafe",
    "tags": [
      "cafe",
      "starbucks"
    ],
    "lat": 37.81840977532356,
    "lng": 128.85727910363303,
    "address": "강원특별자치도 강릉시 사천면 방동리 415",
    "roadAddress": "강원특별자치도 강릉시 사천면 방동길 38",
    "phone": "1522-3232",
    "placeUrl": "http://place.map.kakao.com/1226189116",
    "source": "kakao",
    "kakaoId": "1226189116"
  },
  "kakao:20494147": {
    "id": "kakao:20494147",
    "name": "스타벅스 강릉안목해변점",
    "type": "cafe",
    "tags": [
      "cafe",
      "starbucks"
    ],
    "lat": 37.7713120905719,
    "lng": 128.948831520775,
    "address": "강원특별자치도 강릉시 견소동 158",
    "roadAddress": "강원특별자치도 강릉시 창해로14번길 40",
    "phone": "1522-3232",
    "placeUrl": "http://place.map.kakao.com/20494147",
    "source": "kakao",
    "kakaoId": "20494147"
  },
  "kakao:870968559": {
    "id": "kakao:870968559",
    "name": "스타벅스 강릉율곡DT점",
    "type": "cafe",
    "tags": [
      "cafe",
      "starbucks"
    ],
    "lat": 37.76994373057533,
    "lng": 128.89219461487673,
    "address": "강원특별자치도 강릉시 교동 714-1",
    "roadAddress": "강원특별자치도 강릉시 율곡로 2996",
    "phone": "1522-3232",
    "placeUrl": "http://place.map.kakao.com/870968559",
    "source": "kakao",
    "kakaoId": "870968559"
  },
  "kakao:1343006983": {
    "id": "kakao:1343006983",
    "name": "스타벅스 강릉율곡DT점 주차장",
    "type": "cafe",
    "tags": [
      "cafe",
      "starbucks"
    ],
    "lat": 37.7699437305753,
    "lng": 128.892194614877,
    "address": "강원특별자치도 강릉시 교동 714-1",
    "roadAddress": "강원특별자치도 강릉시 율곡로 2996",
    "phone": "",
    "placeUrl": "http://place.map.kakao.com/1343006983",
    "source": "kakao",
    "kakaoId": "1343006983"
  },
  "kakao:210308467": {
    "id": "kakao:210308467",
    "name": "스타벅스 강릉주문진점",
    "type": "cafe",
    "tags": [
      "cafe",
      "starbucks"
    ],
    "lat": 37.88108565742326,
    "lng": 128.83168093431524,
    "address": "강원특별자치도 강릉시 주문진읍 교항리 81-18",
    "roadAddress": "강원특별자치도 강릉시 주문진읍 학교담길 32-8",
    "phone": "1522-3232",
    "placeUrl": "http://place.map.kakao.com/210308467",
    "source": "kakao",
    "kakaoId": "210308467"
  },
  "kakao:26410055": {
    "id": "kakao:26410055",
    "name": "스타벅스 강릉중앙점",
    "type": "cafe",
    "tags": [
      "cafe",
      "starbucks"
    ],
    "lat": 37.75497344417105,
    "lng": 128.8962347197954,
    "address": "강원특별자치도 강릉시 임당동 86",
    "roadAddress": "강원특별자치도 강릉시 경강로 2097",
    "phone": "1522-3232",
    "placeUrl": "http://place.map.kakao.com/26410055",
    "source": "kakao",
    "kakaoId": "26410055"
  },
  "kakao:849608172": {
    "id": "kakao:849608172",
    "name": "스타벅스 강릉IC DT점",
    "type": "cafe",
    "tags": [
      "cafe",
      "starbucks"
    ],
    "lat": 37.746745764139,
    "lng": 128.872311685816,
    "address": "강원특별자치도 강릉시 홍제동 483-1",
    "roadAddress": "강원특별자치도 강릉시 경강로 1853",
    "phone": "1522-3232",
    "placeUrl": "http://place.map.kakao.com/849608172",
    "source": "kakao",
    "kakaoId": "849608172"
  },
  "kakao:823128126": {
    "id": "kakao:823128126",
    "name": "스타벅스 강변점",
    "type": "cafe",
    "tags": [
      "cafe",
      "starbucks"
    ],
    "lat": 37.5347418065183,
    "lng": 127.091973172027,
    "address": "서울 광진구 구의동 594-4",
    "roadAddress": "서울 광진구 구의강변로 46",
    "phone": "1522-3232",
    "placeUrl": "http://place.map.kakao.com/823128126",
    "source": "kakao",
    "kakaoId": "823128126"
  },
  "kakao:27020659": {
    "id": "kakao:27020659",
    "name": "스타벅스 강북구청사거리점",
    "type": "cafe",
    "tags": [
      "cafe",
      "starbucks"
    ],
    "lat": 37.6400139982618,
    "lng": 127.027396306598,
    "address": "서울 강북구 수유동 174-13",
    "roadAddress": "서울 강북구 도봉로 365",
    "phone": "1522-3232",
    "placeUrl": "http://place.map.kakao.com/27020659",
    "source": "kakao",
    "kakaoId": "27020659"
  },
  "kakao:471287510": {
    "id": "kakao:471287510",
    "name": "스타벅스 강북삼성병원1층점",
    "type": "cafe",
    "tags": [
      "cafe",
      "starbucks"
    ],
    "lat": 37.56851022547468,
    "lng": 126.96786560552465,
    "address": "서울 종로구 평동 60",
    "roadAddress": "서울 종로구 새문안로 29",
    "phone": "1522-3232",
    "placeUrl": "http://place.map.kakao.com/471287510",
    "source": "kakao",
    "kakaoId": "471287510"
  },
  "kakao:1296092080": {
    "id": "kakao:1296092080",
    "name": "스타벅스 강북삼성병원점",
    "type": "cafe",
    "tags": [
      "cafe",
      "starbucks"
    ],
    "lat": 37.5682811217099,
    "lng": 126.966956766014,
    "address": "서울 종로구 평동 73",
    "roadAddress": "서울 종로구 새문안로 29",
    "phone": "1522-3232",
    "placeUrl": "http://place.map.kakao.com/1296092080",
    "source": "kakao",
    "kakaoId": "1296092080"
  },
  "kakao:1648906311": {
    "id": "kakao:1648906311",
    "name": "스타벅스 강서구청사거리점",
    "type": "cafe",
    "tags": [
      "cafe",
      "starbucks"
    ],
    "lat": 37.554809848353,
    "lng": 126.852210475534,
    "address": "서울 강서구 화곡동 1111-1",
    "roadAddress": "서울 강서구 화곡로 350",
    "phone": "1522-3232",
    "placeUrl": "http://place.map.kakao.com/1648906311",
    "source": "kakao",
    "kakaoId": "1648906311"
  },
  "kakao:459453385": {
    "id": "kakao:459453385",
    "name": "스타벅스 강서녹산DT점",
    "type": "cafe",
    "tags": [
      "cafe",
      "starbucks"
    ],
    "lat": 35.112905153119016,
    "lng": 128.8794167434942,
    "address": "부산 강서구 녹산동 1336-5",
    "roadAddress": "부산 강서구 낙동남로511번길 42",
    "phone": "1522-3232",
    "placeUrl": "http://place.map.kakao.com/459453385",
    "source": "kakao",
    "kakaoId": "459453385"
  },
  "kakao:435870314": {
    "id": "kakao:435870314",
    "name": "스타벅스 강서녹산DT점 전기차충전소",
    "type": "cafe",
    "tags": [
      "cafe",
      "starbucks"
    ],
    "lat": 35.11286197742276,
    "lng": 128.8796438735105,
    "address": "부산 강서구 녹산동 1336-5",
    "roadAddress": "부산 강서구 낙동남로511번길 42",
    "phone": "",
    "placeUrl": "http://place.map.kakao.com/435870314",
    "source": "kakao",
    "kakaoId": "435870314"
  },
  "kakao:49282068": {
    "id": "kakao:49282068",
    "name": "스타벅스 강서우장산점",
    "type": "cafe",
    "tags": [
      "cafe",
      "starbucks"
    ],
    "lat": 37.5462444503704,
    "lng": 126.836118023996,
    "address": "서울 강서구 화곡동 1170",
    "roadAddress": "서울 강서구 강서로 231",
    "phone": "1522-3232",
    "placeUrl": "http://place.map.kakao.com/49282068",
    "source": "kakao",
    "kakaoId": "49282068"
  },
  "kakao:144752310": {
    "id": "kakao:144752310",
    "name": "스타벅스 강서NC",
    "type": "cafe",
    "tags": [
      "cafe",
      "starbucks"
    ],
    "lat": 37.55985946992051,
    "lng": 126.84009930450155,
    "address": "서울 강서구 등촌동 689",
    "roadAddress": "서울 강서구 강서로56길 17",
    "phone": "1522-3232",
    "placeUrl": "http://place.map.kakao.com/144752310",
    "source": "kakao",
    "kakaoId": "144752310"
  },
  "kakao:17884702": {
    "id": "kakao:17884702",
    "name": "스타벅스 강원대점",
    "type": "cafe",
    "tags": [
      "cafe",
      "starbucks"
    ],
    "lat": 37.8727829184059,
    "lng": 127.745094098958,
    "address": "강원특별자치도 춘천시 효자동 632-3",
    "roadAddress": "강원특별자치도 춘천시 서부대성로 243-1",
    "phone": "",
    "placeUrl": "http://place.map.kakao.com/17884702",
    "source": "kakao",
    "kakaoId": "17884702"
  },
  "kakao:1170670329": {
    "id": "kakao:1170670329",
    "name": "스타벅스 강일역점",
    "type": "cafe",
    "tags": [
      "cafe",
      "starbucks"
    ],
    "lat": 37.5574850727156,
    "lng": 127.173494887784,
    "address": "서울 강동구 강일동 723",
    "roadAddress": "서울 강동구 고덕로 429",
    "phone": "1522-3232",
    "placeUrl": "http://place.map.kakao.com/1170670329",
    "source": "kakao",
    "kakaoId": "1170670329"
  },
  "kakao:1494765100": {
    "id": "kakao:1494765100",
    "name": "스타벅스 개포동점",
    "type": "cafe",
    "tags": [
      "cafe",
      "starbucks"
    ],
    "lat": 37.4828551359882,
    "lng": 127.060715244462,
    "address": "서울 강남구 개포동 167-9",
    "roadAddress": "서울 강남구 선릉로 34",
    "phone": "1522-3232",
    "placeUrl": "http://place.map.kakao.com/1494765100",
    "source": "kakao",
    "kakaoId": "1494765100"
  },
  "kakao:1222891173": {
    "id": "kakao:1222891173",
    "name": "스타벅스 갤러리아타임월드점",
    "type": "cafe",
    "tags": [
      "cafe",
      "starbucks"
    ],
    "lat": 36.3519543028961,
    "lng": 127.378167492784,
    "address": "대전 서구 둔산동 1036",
    "roadAddress": "대전 서구 대덕대로 211",
    "phone": "1522-3232",
    "placeUrl": "http://place.map.kakao.com/1222891173",
    "source": "kakao",
    "kakaoId": "1222891173"
  },
  "kakao:10536879": {
    "id": "kakao:10536879",
    "name": "스타벅스 갤러리아팰리스점",
    "type": "cafe",
    "tags": [
      "cafe",
      "starbucks"
    ],
    "lat": 37.511530740657655,
    "lng": 127.0935609820093,
    "address": "서울 송파구 잠실동 40",
    "roadAddress": "서울 송파구 올림픽로 212",
    "phone": "",
    "placeUrl": "http://place.map.kakao.com/10536879",
    "source": "kakao",
    "kakaoId": "10536879"
  },
  "kakao:26785706": {
    "id": "kakao:26785706",
    "name": "스타벅스 거제고현점",
    "type": "cafe",
    "tags": [
      "cafe",
      "starbucks"
    ],
    "lat": 34.8907706693737,
    "lng": 128.622183650069,
    "address": "경남 거제시 고현동 977-4",
    "roadAddress": "경남 거제시 거제중앙로 1936",
    "phone": "1522-3232",
    "placeUrl": "http://place.map.kakao.com/26785706",
    "source": "kakao",
    "kakaoId": "26785706"
  },
  "kakao:1417462151": {
    "id": "kakao:1417462151",
    "name": "스타벅스 거제대로DT점",
    "type": "cafe",
    "tags": [
      "cafe",
      "starbucks"
    ],
    "lat": 34.89464291983849,
    "lng": 128.64161922546253,
    "address": "경남 거제시 수월동 1043-203",
    "roadAddress": "경남 거제시 거제대로 4521",
    "phone": "1522-3232",
    "placeUrl": "http://place.map.kakao.com/1417462151",
    "source": "kakao",
    "kakaoId": "1417462151"
  },
  "kakao:1235493020": {
    "id": "kakao:1235493020",
    "name": "스타벅스 거제대로DT점 주차장",
    "type": "cafe",
    "tags": [
      "cafe",
      "starbucks"
    ],
    "lat": 34.8946935843374,
    "lng": 128.641471466499,
    "address": "경남 거제시 수월동 1043-203",
    "roadAddress": "경남 거제시 거제대로 4521",
    "phone": "",
    "placeUrl": "http://place.map.kakao.com/1235493020",
    "source": "kakao",
    "kakaoId": "1235493020"
  },
  "kakao:1737413248": {
    "id": "kakao:1737413248",
    "name": "스타벅스 거제사등점",
    "type": "cafe",
    "tags": [
      "cafe",
      "starbucks"
    ],
    "lat": 34.8957702882216,
    "lng": 128.50023058412467,
    "address": "경남 거제시 사등면 청곡리 700-7",
    "roadAddress": "경남 거제시 사등면 거제대로 6070",
    "phone": "1522-3232",
    "placeUrl": "http://place.map.kakao.com/1737413248",
    "source": "kakao",
    "kakaoId": "1737413248"
  },
  "kakao:657522093": {
    "id": "kakao:657522093",
    "name": "스타벅스 거제상동DT점",
    "type": "cafe",
    "tags": [
      "cafe",
      "starbucks"
    ],
    "lat": 34.8682213469078,
    "lng": 128.637266467116,
    "address": "경남 거제시 상동동 166-3",
    "roadAddress": "경남 거제시 거제중앙로 1647",
    "phone": "1522-3232",
    "placeUrl": "http://place.map.kakao.com/657522093",
    "source": "kakao",
    "kakaoId": "657522093"
  },
  "kakao:303682380": {
    "id": "kakao:303682380",
    "name": "스타벅스 거제옥포DT 주차장",
    "type": "cafe",
    "tags": [
      "cafe",
      "starbucks"
    ],
    "lat": 34.8890018803025,
    "lng": 128.691567830633,
    "address": "경남 거제시 옥포동 550-15",
    "roadAddress": "경남 거제시 거제대로 3718",
    "phone": "",
    "placeUrl": "http://place.map.kakao.com/303682380",
    "source": "kakao",
    "kakaoId": "303682380"
  },
  "kakao:226102924": {
    "id": "kakao:226102924",
    "name": "스타벅스 거제옥포DT점",
    "type": "cafe",
    "tags": [
      "cafe",
      "starbucks"
    ],
    "lat": 34.8889882738942,
    "lng": 128.691574114439,
    "address": "경남 거제시 옥포동 550-15",
    "roadAddress": "경남 거제시 거제대로 3718",
    "phone": "1522-3232",
    "placeUrl": "http://place.map.kakao.com/226102924",
    "source": "kakao",
    "kakaoId": "226102924"
  },
  "kakao:1136282108": {
    "id": "kakao:1136282108",
    "name": "스타벅스 거제장평점",
    "type": "cafe",
    "tags": [
      "cafe",
      "starbucks"
    ],
    "lat": 34.892697426400176,
    "lng": 128.60877149851925,
    "address": "경남 거제시 장평동 337-1",
    "roadAddress": "경남 거제시 장평3로 43",
    "phone": "1522-3232",
    "placeUrl": "http://place.map.kakao.com/1136282108",
    "source": "kakao",
    "kakaoId": "1136282108"
  },
  "kakao:1317526944": {
    "id": "kakao:1317526944",
    "name": "스타벅스 건국대점",
    "type": "cafe",
    "tags": [
      "cafe",
      "starbucks"
    ],
    "lat": 37.5415948126772,
    "lng": 127.071093658871,
    "address": "서울 광진구 화양동 5-45",
    "roadAddress": "서울 광진구 능동로 117",
    "phone": "1522-3232",
    "placeUrl": "http://place.map.kakao.com/1317526944",
    "source": "kakao",
    "kakaoId": "1317526944"
  },
  "kakao:17884752": {
    "id": "kakao:17884752",
    "name": "스타벅스 건국클래식점",
    "type": "cafe",
    "tags": [
      "cafe",
      "starbucks"
    ],
    "lat": 37.53835124237276,
    "lng": 127.0710453202779,
    "address": "서울 광진구 자양동 227-342",
    "roadAddress": "서울 광진구 능동로 90",
    "phone": "1522-3232",
    "placeUrl": "http://place.map.kakao.com/17884752",
    "source": "kakao",
    "kakaoId": "17884752"
  },
  "kakao:837791109": {
    "id": "kakao:837791109",
    "name": "스타벅스 건대로데오점",
    "type": "cafe",
    "tags": [
      "cafe",
      "starbucks"
    ],
    "lat": 37.5407963712074,
    "lng": 127.066728659383,
    "address": "서울 광진구 자양동 864",
    "roadAddress": "서울 광진구 아차산로 212",
    "phone": "1522-3232",
    "placeUrl": "http://place.map.kakao.com/837791109",
    "source": "kakao",
    "kakaoId": "837791109"
  },
  "kakao:11314582": {
    "id": "kakao:11314582",
    "name": "스타벅스 건대스타시티점",
    "type": "cafe",
    "tags": [
      "cafe",
      "starbucks"
    ],
    "lat": 37.53841737800415,
    "lng": 127.07339885294076,
    "address": "서울 광진구 자양동 227-7",
    "roadAddress": "서울 광진구 아차산로 272",
    "phone": "1522-3232",
    "placeUrl": "http://place.map.kakao.com/11314582",
    "source": "kakao",
    "kakaoId": "11314582"
  },
  "kakao:871397238": {
    "id": "kakao:871397238",
    "name": "스타벅스 건대후문점",
    "type": "cafe",
    "tags": [
      "cafe",
      "starbucks"
    ],
    "lat": 37.54599002500883,
    "lng": 127.07380572842268,
    "address": "서울 광진구 화양동 111-12",
    "roadAddress": "서울 광진구 능동로 172",
    "phone": "1522-3232",
    "placeUrl": "http://place.map.kakao.com/871397238",
    "source": "kakao",
    "kakaoId": "871397238"
  },
  "kakao:1041002314": {
    "id": "kakao:1041002314",
    "name": "스타벅스 검단사거리역점",
    "type": "cafe",
    "tags": [
      "cafe",
      "starbucks"
    ],
    "lat": 37.602557077270646,
    "lng": 126.65714997604466,
    "address": "인천 서구 마전동 910-1",
    "roadAddress": "인천 서구 완정로 172",
    "phone": "1522-3232",
    "placeUrl": "http://place.map.kakao.com/1041002314",
    "source": "kakao",
    "kakaoId": "1041002314"
  },
  "kakao:208619045": {
    "id": "kakao:208619045",
    "name": "스타벅스 검단신도시점",
    "type": "cafe",
    "tags": [
      "cafe",
      "starbucks"
    ],
    "lat": 37.5926027901523,
    "lng": 126.712779840986,
    "address": "인천 서구 원당동 1041-4",
    "roadAddress": "인천 서구 이음대로 392",
    "phone": "1522-3232",
    "placeUrl": "http://place.map.kakao.com/208619045",
    "source": "kakao",
    "kakaoId": "208619045"
  },
  "kakao:652261626": {
    "id": "kakao:652261626",
    "name": "스타벅스 경기광주송정DT점 주차장",
    "type": "cafe",
    "tags": [
      "cafe",
      "starbucks"
    ],
    "lat": 37.4162833414662,
    "lng": 127.272576440335,
    "address": "경기 광주시 송정동 12-12",
    "roadAddress": "경기 광주시 경안천로 118",
    "phone": "",
    "placeUrl": "http://place.map.kakao.com/652261626",
    "source": "kakao",
    "kakaoId": "652261626"
  },
  "kakao:938835083": {
    "id": "kakao:938835083",
    "name": "스타벅스 경기광주신현DT점",
    "type": "cafe",
    "tags": [
      "cafe",
      "starbucks"
    ],
    "lat": 37.359889855745514,
    "lng": 127.15313618264584,
    "address": "경기 광주시 신현동 701-5",
    "roadAddress": "경기 광주시 태재로 37",
    "phone": "1522-3232",
    "placeUrl": "http://place.map.kakao.com/938835083",
    "source": "kakao",
    "kakaoId": "938835083"
  },
  "kakao:63863748": {
    "id": "kakao:63863748",
    "name": "스타벅스 경기광주신현DT점 주차장",
    "type": "cafe",
    "tags": [
      "cafe",
      "starbucks"
    ],
    "lat": 37.3597447674472,
    "lng": 127.153153948445,
    "address": "경기 광주시 신현동 701-6",
    "roadAddress": "",
    "phone": "",
    "placeUrl": "http://place.map.kakao.com/63863748",
    "source": "kakao",
    "kakaoId": "63863748"
  },
  "kakao:588366164": {
    "id": "kakao:588366164",
    "name": "스타벅스 경기광주쌍령DT점",
    "type": "cafe",
    "tags": [
      "cafe",
      "starbucks"
    ],
    "lat": 37.39873795295982,
    "lng": 127.27330231210716,
    "address": "경기 광주시 쌍령동 168",
    "roadAddress": "경기 광주시 경충대로 1445",
    "phone": "1522-3232",
    "placeUrl": "http://place.map.kakao.com/588366164",
    "source": "kakao",
    "kakaoId": "588366164"
  },
  "kakao:1162597181": {
    "id": "kakao:1162597181",
    "name": "스타벅스 경기광주쌍령DT점 주차장",
    "type": "cafe",
    "tags": [
      "cafe",
      "starbucks"
    ],
    "lat": 37.3987990494224,
    "lng": 127.273377072417,
    "address": "경기 광주시 쌍령동 168",
    "roadAddress": "경기 광주시 경충대로 1445",
    "phone": "",
    "placeUrl": "http://place.map.kakao.com/1162597181",
    "source": "kakao",
    "kakaoId": "1162597181"
  },
  "kakao:27254724": {
    "id": "kakao:27254724",
    "name": "스타벅스 경기광주점",
    "type": "cafe",
    "tags": [
      "cafe",
      "starbucks"
    ],
    "lat": 37.4096974459189,
    "lng": 127.260344571762,
    "address": "경기 광주시 경안동 20-14",
    "roadAddress": "경기 광주시 광주대로 35",
    "phone": "1522-3232",
    "placeUrl": "http://place.map.kakao.com/27254724",
    "source": "kakao",
    "kakaoId": "27254724"
  },
  "kakao:83308527": {
    "id": "kakao:83308527",
    "name": "스타벅스 경기광주초월역DT점",
    "type": "cafe",
    "tags": [
      "cafe",
      "starbucks"
    ],
    "lat": 37.374408707605994,
    "lng": 127.29823839640528,
    "address": "경기 광주시 초월읍 쌍동리 261-3",
    "roadAddress": "경기 광주시 초월읍 경충대로 1084",
    "phone": "1522-3232",
    "placeUrl": "http://place.map.kakao.com/83308527",
    "source": "kakao",
    "kakaoId": "83308527"
  },
  "kakao:1008368749": {
    "id": "kakao:1008368749",
    "name": "스타벅스 경기광주초월역DT점 주차장",
    "type": "cafe",
    "tags": [
      "cafe",
      "starbucks"
    ],
    "lat": 37.3745165501207,
    "lng": 127.298349465922,
    "address": "경기 광주시 초월읍 쌍동리 261-3",
    "roadAddress": "",
    "phone": "",
    "placeUrl": "http://place.map.kakao.com/1008368749",
    "source": "kakao",
    "kakaoId": "1008368749"
  },
  "kakao:644590128": {
    "id": "kakao:644590128",
    "name": "스타벅스 경기광주태전점",
    "type": "cafe",
    "tags": [
      "cafe",
      "starbucks"
    ],
    "lat": 37.38250176351407,
    "lng": 127.23324407371325,
    "address": "경기 광주시 태전동 122",
    "roadAddress": "경기 광주시 태전중앙2길 21",
    "phone": "1522-3232",
    "placeUrl": "http://place.map.kakao.com/644590128",
    "source": "kakao",
    "kakaoId": "644590128"
  },
  "kakao:1637946818": {
    "id": "kakao:1637946818",
    "name": "스타벅스 경기광주IC DT",
    "type": "cafe",
    "tags": [
      "cafe",
      "starbucks"
    ],
    "lat": 37.4056853668334,
    "lng": 127.231230911042,
    "address": "경기 광주시 장지동 586-2",
    "roadAddress": "경기 광주시 경충대로 1879",
    "phone": "1522-3232",
    "placeUrl": "http://place.map.kakao.com/1637946818",
    "source": "kakao",
    "kakaoId": "1637946818"
  },
  "kakao:7968067": {
    "id": "kakao:7968067",
    "name": "스타벅스 경기대점",
    "type": "cafe",
    "tags": [
      "cafe",
      "starbucks"
    ],
    "lat": 37.563733140281016,
    "lng": 126.96469505712226,
    "address": "서울 서대문구 충정로2가 191",
    "roadAddress": "서울 서대문구 충정로 53",
    "phone": "1522-3232",
    "placeUrl": "http://place.map.kakao.com/7968067",
    "source": "kakao",
    "kakaoId": "7968067"
  },
  "kakao:934797745": {
    "id": "kakao:934797745",
    "name": "스타벅스 경기양평점",
    "type": "cafe",
    "tags": [
      "cafe",
      "starbucks"
    ],
    "lat": 37.49108295349186,
    "lng": 127.49983235426639,
    "address": "경기 양평군 양평읍 공흥리 494",
    "roadAddress": "경기 양평군 양평읍 시민로 75",
    "phone": "1522-3232",
    "placeUrl": "http://place.map.kakao.com/934797745",
    "source": "kakao",
    "kakaoId": "934797745"
  },
  "kakao:1141940361": {
    "id": "kakao:1141940361",
    "name": "스타벅스 경기양평점 주차장",
    "type": "cafe",
    "tags": [
      "cafe",
      "starbucks"
    ],
    "lat": 37.4910405756674,
    "lng": 127.500052568099,
    "address": "경기 양평군 양평읍 공흥리 494",
    "roadAddress": "경기 양평군 양평읍 시민로 75",
    "phone": "",
    "placeUrl": "http://place.map.kakao.com/1141940361",
    "source": "kakao",
    "kakaoId": "1141940361"
  },
  "kakao:18691081": {
    "id": "kakao:18691081",
    "name": "스타벅스 경남대점",
    "type": "cafe",
    "tags": [
      "cafe",
      "starbucks"
    ],
    "lat": 35.17854773330515,
    "lng": 128.55854595901678,
    "address": "경남 창원시 마산합포구 해운동 17-7",
    "roadAddress": "경남 창원시 마산합포구 월영남로 3",
    "phone": "1522-3232",
    "placeUrl": "http://place.map.kakao.com/18691081",
    "source": "kakao",
    "kakaoId": "18691081"
  },
  "kakao:80748408": {
    "id": "kakao:80748408",
    "name": "스타벅스 경남사천DT",
    "type": "cafe",
    "tags": [
      "cafe",
      "starbucks"
    ],
    "lat": 35.08105247337921,
    "lng": 128.08352066431158,
    "address": "경남 사천시 사천읍 수석리 320-21",
    "roadAddress": "경남 사천시 사천읍 사천대로 1844",
    "phone": "1522-3232",
    "placeUrl": "http://place.map.kakao.com/80748408",
    "source": "kakao",
    "kakaoId": "80748408"
  },
  "kakao:767382424": {
    "id": "kakao:767382424",
    "name": "스타벅스 경남사천DT 주차장",
    "type": "cafe",
    "tags": [
      "cafe",
      "starbucks"
    ],
    "lat": 35.0810143381649,
    "lng": 128.083753703222,
    "address": "경남 사천시 사천읍 수석리 320-22",
    "roadAddress": "",
    "phone": "",
    "placeUrl": "http://place.map.kakao.com/767382424",
    "source": "kakao",
    "kakaoId": "767382424"
  },
  "kakao:609996995": {
    "id": "kakao:609996995",
    "name": "스타벅스 경동1960점",
    "type": "cafe",
    "tags": [
      "cafe",
      "starbucks"
    ],
    "lat": 37.579612121447056,
    "lng": 127.03868043435175,
    "address": "서울 동대문구 제기동 1019",
    "roadAddress": "서울 동대문구 고산자로36길 3",
    "phone": "1522-3232",
    "placeUrl": "http://place.map.kakao.com/609996995",
    "source": "kakao",
    "kakaoId": "609996995"
  },
  "kakao:806601189": {
    "id": "kakao:806601189",
    "name": "스타벅스 경리단길점",
    "type": "cafe",
    "tags": [
      "cafe",
      "starbucks"
    ],
    "lat": 37.538568361831715,
    "lng": 126.98742474868594,
    "address": "서울 용산구 이태원동 658",
    "roadAddress": "서울 용산구 회나무로 3",
    "phone": "1522-3232",
    "placeUrl": "http://place.map.kakao.com/806601189",
    "source": "kakao",
    "kakaoId": "806601189"
  },
  "kakao:14870809": {
    "id": "kakao:14870809",
    "name": "스타벅스 경복궁사거리점",
    "type": "cafe",
    "tags": [
      "cafe",
      "starbucks"
    ],
    "lat": 37.57558485945881,
    "lng": 126.98026291268783,
    "address": "서울 종로구 중학동 14",
    "roadAddress": "서울 종로구 율곡로 6",
    "phone": "1522-3232",
    "placeUrl": "http://place.map.kakao.com/14870809",
    "source": "kakao",
    "kakaoId": "14870809"
  },
  "kakao:12690667": {
    "id": "kakao:12690667",
    "name": "스타벅스 경복궁역점",
    "type": "cafe",
    "tags": [
      "cafe",
      "starbucks"
    ],
    "lat": 37.5772042362666,
    "lng": 126.972676532641,
    "address": "서울 종로구 통의동 35-41",
    "roadAddress": "서울 종로구 자하문로4길 6",
    "phone": "1522-3232",
    "placeUrl": "http://place.map.kakao.com/12690667",
    "source": "kakao",
    "kakaoId": "12690667"
  },
  "kakao:17884722": {
    "id": "kakao:17884722",
    "name": "스타벅스 경북대점",
    "type": "cafe",
    "tags": [
      "cafe",
      "starbucks"
    ],
    "lat": 35.89229637317734,
    "lng": 128.60856585746507,
    "address": "대구 북구 산격동 1399-1",
    "roadAddress": "대구 북구 대학로 75",
    "phone": "1522-3232",
    "placeUrl": "http://place.map.kakao.com/17884722",
    "source": "kakao",
    "kakaoId": "17884722"
  },
  "kakao:550421567": {
    "id": "kakao:550421567",
    "name": "스타벅스 경북도청대로",
    "type": "cafe",
    "tags": [
      "cafe",
      "starbucks"
    ],
    "lat": 36.57481203915372,
    "lng": 128.4854944598204,
    "address": "경북 예천군 호명읍 산합리 1493",
    "roadAddress": "경북 예천군 호명읍 수변로 113",
    "phone": "1522-3232",
    "placeUrl": "http://place.map.kakao.com/550421567",
    "source": "kakao",
    "kakaoId": "550421567"
  },
  "kakao:1335900723": {
    "id": "kakao:1335900723",
    "name": "스타벅스 경산무학점",
    "type": "cafe",
    "tags": [
      "cafe",
      "starbucks"
    ],
    "lat": 35.9172821811207,
    "lng": 128.813156262222,
    "address": "경북 경산시 하양읍 서사리 340",
    "roadAddress": "경북 경산시 하양읍 서사도리9로 21",
    "phone": "1522-3232",
    "placeUrl": "http://place.map.kakao.com/1335900723",
    "source": "kakao",
    "kakaoId": "1335900723"
  },
  "kakao:380810249": {
    "id": "kakao:380810249",
    "name": "스타벅스 경산사동DT점",
    "type": "cafe",
    "tags": [
      "cafe",
      "starbucks"
    ],
    "lat": 35.81886155498015,
    "lng": 128.7575643516646,
    "address": "경북 경산시 사동 561",
    "roadAddress": "경북 경산시 원효로 194",
    "phone": "1522-3232",
    "placeUrl": "http://place.map.kakao.com/380810249",
    "source": "kakao",
    "kakaoId": "380810249"
  },
  "kakao:2051017820": {
    "id": "kakao:2051017820",
    "name": "스타벅스 경산임당역DT점",
    "type": "cafe",
    "tags": [
      "cafe",
      "starbucks"
    ],
    "lat": 35.833758730681055,
    "lng": 128.74571245701466,
    "address": "경북 경산시 계양동 266",
    "roadAddress": "경북 경산시 대학로 208",
    "phone": "1522-3232",
    "placeUrl": "http://place.map.kakao.com/2051017820",
    "source": "kakao",
    "kakaoId": "2051017820"
  },
  "kakao:188945251": {
    "id": "kakao:188945251",
    "name": "스타벅스 경산중방DT점",
    "type": "cafe",
    "tags": [
      "cafe",
      "starbucks"
    ],
    "lat": 35.827426231080594,
    "lng": 128.73683991692567,
    "address": "경북 경산시 중방동 847-6",
    "roadAddress": "경북 경산시 경안로 222",
    "phone": "1522-3232",
    "placeUrl": "http://place.map.kakao.com/188945251",
    "source": "kakao",
    "kakaoId": "188945251"
  },
  "kakao:64522793": {
    "id": "kakao:64522793",
    "name": "스타벅스 경산중방DT점 주차장",
    "type": "cafe",
    "tags": [
      "cafe",
      "starbucks"
    ],
    "lat": 35.8273689922442,
    "lng": 128.736622896906,
    "address": "경북 경산시 중방동 847-6",
    "roadAddress": "",
    "phone": "",
    "placeUrl": "http://place.map.kakao.com/64522793",
    "source": "kakao",
    "kakaoId": "64522793"
  },
  "kakao:809501525": {
    "id": "kakao:809501525",
    "name": "스타벅스 경산중산점",
    "type": "cafe",
    "tags": [
      "cafe",
      "starbucks"
    ],
    "lat": 35.83029448425772,
    "lng": 128.7197395681655,
    "address": "경북 경산시 중산동 632",
    "roadAddress": "경북 경산시 펜타힐즈로 74",
    "phone": "1522-3232",
    "placeUrl": "http://place.map.kakao.com/809501525",
    "source": "kakao",
    "kakaoId": "809501525"
  },
  "kakao:62545274": {
    "id": "kakao:62545274",
    "name": "스타벅스 경산하양DT점",
    "type": "cafe",
    "tags": [
      "cafe",
      "starbucks"
    ],
    "lat": 35.90494094911536,
    "lng": 128.82378437647915,
    "address": "경북 경산시 진량읍 부기리 532-1",
    "roadAddress": "경북 경산시 진량읍 대학로 1417",
    "phone": "1522-3232",
    "placeUrl": "http://place.map.kakao.com/62545274",
    "source": "kakao",
    "kakaoId": "62545274"
  },
  "kakao:2029400450": {
    "id": "kakao:2029400450",
    "name": "스타벅스 경산하양DT점 전기차충전소",
    "type": "cafe",
    "tags": [
      "cafe",
      "starbucks"
    ],
    "lat": 35.9049661712086,
    "lng": 128.823784955376,
    "address": "경북 경산시 진량읍 부기리 532-1",
    "roadAddress": "경북 경산시 진량읍 대학로 1417",
    "phone": "",
    "placeUrl": "http://place.map.kakao.com/2029400450",
    "source": "kakao",
    "kakaoId": "2029400450"
  },
  "kakao:1112594333": {
    "id": "kakao:1112594333",
    "name": "스타벅스 경산하양DT점 주차장",
    "type": "cafe",
    "tags": [
      "cafe",
      "starbucks"
    ],
    "lat": 35.9049342361976,
    "lng": 128.823573780443,
    "address": "경북 경산시 진량읍 부기리 532-1",
    "roadAddress": "",
    "phone": "",
    "placeUrl": "http://place.map.kakao.com/1112594333",
    "source": "kakao",
    "kakaoId": "1112594333"
  },
  "kakao:1856808926": {
    "id": "kakao:1856808926",
    "name": "스타벅스 경상대칠암캠퍼스점",
    "type": "cafe",
    "tags": [
      "cafe",
      "starbucks"
    ],
    "lat": 35.1785228270334,
    "lng": 128.093640811022,
    "address": "경남 진주시 칠암동 490-1",
    "roadAddress": "경남 진주시 동진로 22",
    "phone": "1522-3232",
    "placeUrl": "http://place.map.kakao.com/1856808926",
    "source": "kakao",
    "kakaoId": "1856808926"
  },
  "kakao:8429827": {
    "id": "kakao:8429827",
    "name": "스타벅스 경성대점",
    "type": "cafe",
    "tags": [
      "cafe",
      "starbucks"
    ],
    "lat": 35.1371840582814,
    "lng": 129.100622634999,
    "address": "부산 남구 대연동 55-4",
    "roadAddress": "부산 남구 수영로 312",
    "phone": "",
    "placeUrl": "http://place.map.kakao.com/8429827",
    "source": "kakao",
    "kakaoId": "8429827"
  },
  "kakao:1878966727": {
    "id": "kakao:1878966727",
    "name": "스타벅스 경인교대입구역DT점",
    "type": "cafe",
    "tags": [
      "cafe",
      "starbucks"
    ],
    "lat": 37.535516839544265,
    "lng": 126.72223364610132,
    "address": "인천 계양구 작전동 852-30",
    "roadAddress": "인천 계양구 계양대로 131",
    "phone": "1522-3232",
    "placeUrl": "http://place.map.kakao.com/1878966727",
    "source": "kakao",
    "kakaoId": "1878966727"
  },
  "kakao:305321569": {
    "id": "kakao:305321569",
    "name": "스타벅스 경인교대입구역DT점 주차장",
    "type": "cafe",
    "tags": [
      "cafe",
      "starbucks"
    ],
    "lat": 37.5355383754804,
    "lng": 126.72219622906,
    "address": "인천 계양구 작전동 852-30",
    "roadAddress": "인천 계양구 계양대로 131",
    "phone": "",
    "placeUrl": "http://place.map.kakao.com/305321569",
    "source": "kakao",
    "kakaoId": "305321569"
  },
  "kakao:24994872": {
    "id": "kakao:24994872",
    "name": "스타벅스 경주대릉원점",
    "type": "cafe",
    "tags": [
      "cafe",
      "starbucks"
    ],
    "lat": 35.8340500195735,
    "lng": 129.214987136254,
    "address": "경북 경주시 황남동 140-2",
    "roadAddress": "경북 경주시 첨성로 125",
    "phone": "1522-3232",
    "placeUrl": "http://place.map.kakao.com/24994872",
    "source": "kakao",
    "kakaoId": "24994872"
  },
  "kakao:1363144836": {
    "id": "kakao:1363144836",
    "name": "스타벅스 경주대릉원점 주차장",
    "type": "cafe",
    "tags": [
      "cafe",
      "starbucks"
    ],
    "lat": 35.833954200486,
    "lng": 129.215150449202,
    "address": "경북 경주시 황남동 141-6",
    "roadAddress": "",
    "phone": "",
    "placeUrl": "http://place.map.kakao.com/1363144836",
    "source": "kakao",
    "kakaoId": "1363144836"
  },
  "kakao:18445186": {
    "id": "kakao:18445186",
    "name": "스타벅스 경주보문로DT점",
    "type": "cafe",
    "tags": [
      "cafe",
      "starbucks"
    ],
    "lat": 35.8387984868175,
    "lng": 129.285878031807,
    "address": "경북 경주시 신평동 719-220",
    "roadAddress": "경북 경주시 보문로 510-6",
    "phone": "1522-3232",
    "placeUrl": "http://place.map.kakao.com/18445186",
    "source": "kakao",
    "kakaoId": "18445186"
  },
  "kakao:722966745": {
    "id": "kakao:722966745",
    "name": "스타벅스 경주보문로DT점 주차장",
    "type": "cafe",
    "tags": [
      "cafe",
      "starbucks"
    ],
    "lat": 35.8387232113984,
    "lng": 129.285951117606,
    "address": "경북 경주시 천군동 1584-26",
    "roadAddress": "",
    "phone": "",
    "placeUrl": "http://place.map.kakao.com/722966745",
    "source": "kakao",
    "kakaoId": "722966745"
  },
  "kakao:1717483942": {
    "id": "kakao:1717483942",
    "name": "스타벅스 경주보문점",
    "type": "cafe",
    "tags": [
      "cafe",
      "starbucks"
    ],
    "lat": 35.836534149644024,
    "lng": 129.28493334590064,
    "address": "경북 경주시 천군동 205-65",
    "roadAddress": "",
    "phone": "1522-3232",
    "placeUrl": "http://place.map.kakao.com/1717483942",
    "source": "kakao",
    "kakaoId": "1717483942"
  },
  "kakao:528722319": {
    "id": "kakao:528722319",
    "name": "스타벅스 경주보문점 주차장",
    "type": "cafe",
    "tags": [
      "cafe",
      "starbucks"
    ],
    "lat": 35.8364989869604,
    "lng": 129.285171348621,
    "address": "경북 경주시 천군동 205-65",
    "roadAddress": "",
    "phone": "",
    "placeUrl": "http://place.map.kakao.com/528722319",
    "source": "kakao",
    "kakaoId": "528722319"
  },
  "kakao:23082654": {
    "id": "kakao:23082654",
    "name": "스타벅스 경주보문호수DT점",
    "type": "cafe",
    "tags": [
      "cafe",
      "starbucks"
    ],
    "lat": 35.8532455857837,
    "lng": 129.268677513576,
    "address": "경북 경주시 북군동 57-40",
    "roadAddress": "경북 경주시 보문로 132-6",
    "phone": "1522-3232",
    "placeUrl": "http://place.map.kakao.com/23082654",
    "source": "kakao",
    "kakaoId": "23082654"
  },
  "kakao:1353704600": {
    "id": "kakao:1353704600",
    "name": "스타벅스 경주보문호수DT점 주차장",
    "type": "cafe",
    "tags": [
      "cafe",
      "starbucks"
    ],
    "lat": 35.8531760306242,
    "lng": 129.268591416507,
    "address": "경북 경주시 북군동 57-40",
    "roadAddress": "",
    "phone": "",
    "placeUrl": "http://place.map.kakao.com/1353704600",
    "source": "kakao",
    "kakaoId": "1353704600"
  },
  "kakao:602186906": {
    "id": "kakao:602186906",
    "name": "스타벅스 경주용강DT점",
    "type": "cafe",
    "tags": [
      "cafe",
      "starbucks"
    ],
    "lat": 35.86776317408315,
    "lng": 129.2243606250235,
    "address": "경북 경주시 용강동 900-8",
    "roadAddress": "경북 경주시 산업로 4350",
    "phone": "1522-3232",
    "placeUrl": "http://place.map.kakao.com/602186906",
    "source": "kakao",
    "kakaoId": "602186906"
  },
  "kakao:1162820022": {
    "id": "kakao:1162820022",
    "name": "스타벅스 경주용강DT점 주차장",
    "type": "cafe",
    "tags": [
      "cafe",
      "starbucks"
    ],
    "lat": 35.867701663624,
    "lng": 129.224568125138,
    "address": "경북 경주시 용강동 900-8",
    "roadAddress": "",
    "phone": "",
    "placeUrl": "http://place.map.kakao.com/1162820022",
    "source": "kakao",
    "kakaoId": "1162820022"
  },
  "kakao:1665759000": {
    "id": "kakao:1665759000",
    "name": "스타벅스 경주용황점",
    "type": "cafe",
    "tags": [
      "cafe",
      "starbucks"
    ],
    "lat": 35.8845665778775,
    "lng": 129.231791722406,
    "address": "경북 경주시 용강동 1710",
    "roadAddress": "경북 경주시 용황로13길 33",
    "phone": "1522-3232",
    "placeUrl": "http://place.map.kakao.com/1665759000",
    "source": "kakao",
    "kakaoId": "1665759000"
  },
  "kakao:2081448599": {
    "id": "kakao:2081448599",
    "name": "스타벅스 경주충효DT점",
    "type": "cafe",
    "tags": [
      "cafe",
      "starbucks"
    ],
    "lat": 35.8445204776562,
    "lng": 129.174733376063,
    "address": "경북 경주시 충효동 541",
    "roadAddress": "경북 경주시 태종로 406",
    "phone": "1522-3232",
    "placeUrl": "http://place.map.kakao.com/2081448599",
    "source": "kakao",
    "kakaoId": "2081448599"
  },
  "kakao:2122962692": {
    "id": "kakao:2122962692",
    "name": "스타벅스 경주터미널DT점",
    "type": "cafe",
    "tags": [
      "cafe",
      "starbucks"
    ],
    "lat": 35.838114108006984,
    "lng": 129.20330627862236,
    "address": "경북 경주시 사정동 488-7",
    "roadAddress": "경북 경주시 태종로 686",
    "phone": "1522-3232",
    "placeUrl": "http://place.map.kakao.com/2122962692",
    "source": "kakao",
    "kakaoId": "2122962692"
  },
  "kakao:1343110414": {
    "id": "kakao:1343110414",
    "name": "스타벅스 경주터미널DT점 주차장",
    "type": "cafe",
    "tags": [
      "cafe",
      "starbucks"
    ],
    "lat": 35.8380523404267,
    "lng": 129.203333340813,
    "address": "경북 경주시 사정동 488-7",
    "roadAddress": "경북 경주시 태종로 686",
    "phone": "",
    "placeUrl": "http://place.map.kakao.com/1343110414",
    "source": "kakao",
    "kakaoId": "1343110414"
  },
  "kakao:506743578": {
    "id": "kakao:506743578",
    "name": "스타벅스 경희궁로점",
    "type": "cafe",
    "tags": [
      "cafe",
      "starbucks"
    ],
    "lat": 37.57168104918171,
    "lng": 126.97229254565359,
    "address": "서울 종로구 당주동 128-27",
    "roadAddress": "서울 종로구 새문안로3길 15",
    "phone": "1522-3232",
    "placeUrl": "http://place.map.kakao.com/506743578",
    "source": "kakao",
    "kakaoId": "506743578"
  },
  "kakao:24208247": {
    "id": "kakao:24208247",
    "name": "스타벅스 경희대국제캠퍼스점",
    "type": "cafe",
    "tags": [
      "cafe",
      "starbucks"
    ],
    "lat": 37.2479319825167,
    "lng": 127.07675675167,
    "address": "경기 수원시 영통구 영통동 1024-4",
    "roadAddress": "경기 수원시 영통구 덕영대로 1695",
    "phone": "1522-3232",
    "placeUrl": "http://place.map.kakao.com/24208247",
    "source": "kakao",
    "kakaoId": "24208247"
  },
  "kakao:1853475772": {
    "id": "kakao:1853475772",
    "name": "스타벅스 경희대삼거리점",
    "type": "cafe",
    "tags": [
      "cafe",
      "starbucks"
    ],
    "lat": 37.5915937901333,
    "lng": 127.052057736553,
    "address": "서울 동대문구 회기동 60-40",
    "roadAddress": "서울 동대문구 회기로 141",
    "phone": "",
    "placeUrl": "http://place.map.kakao.com/1853475772",
    "source": "kakao",
    "kakaoId": "1853475772"
  },
  "kakao:13049478": {
    "id": "kakao:13049478",
    "name": "스타벅스 경희대점",
    "type": "cafe",
    "tags": [
      "cafe",
      "starbucks"
    ],
    "lat": 37.59294766175779,
    "lng": 127.05277655851455,
    "address": "서울 동대문구 회기동 16-41",
    "roadAddress": "서울 동대문구 경희대로 16-1",
    "phone": "1522-3232",
    "placeUrl": "http://place.map.kakao.com/13049478",
    "source": "kakao",
    "kakaoId": "13049478"
  },
  "kakao:268561974": {
    "id": "kakao:268561974",
    "name": "스타벅스 경희의료원점",
    "type": "cafe",
    "tags": [
      "cafe",
      "starbucks"
    ],
    "lat": 37.59354445888894,
    "lng": 127.0520092736911,
    "address": "서울 동대문구 회기동 1-5",
    "roadAddress": "서울 동대문구 경희대로 23",
    "phone": "1522-3232",
    "placeUrl": "http://place.map.kakao.com/268561974",
    "source": "kakao",
    "kakaoId": "268561974"
  },
  "kakao:887980713": {
    "id": "kakao:887980713",
    "name": "스타벅스 계룡대로DT점",
    "type": "cafe",
    "tags": [
      "cafe",
      "starbucks"
    ],
    "lat": 36.2884206242839,
    "lng": 127.244392132826,
    "address": "충남 계룡시 엄사면 엄사리 284",
    "roadAddress": "충남 계룡시 엄사면 번영로 6",
    "phone": "1522-3232",
    "placeUrl": "http://place.map.kakao.com/887980713",
    "source": "kakao",
    "kakaoId": "887980713"
  },
  "kakao:2021521056": {
    "id": "kakao:2021521056",
    "name": "스타벅스 계룡대로DT점 주차장",
    "type": "cafe",
    "tags": [
      "cafe",
      "starbucks"
    ],
    "lat": 36.2884969972012,
    "lng": 127.244503686923,
    "address": "충남 계룡시 엄사면 엄사리 284",
    "roadAddress": "",
    "phone": "",
    "placeUrl": "http://place.map.kakao.com/2021521056",
    "source": "kakao",
    "kakaoId": "2021521056"
  },